sno,sarea,sna,latitude,longitude,total,available_rent_bikes,available_rent_bikes_std,available_return_bikes,srcUpdateTime
500101001,大安區,YouBike2.0_捷運科技大樓站,25.02605,121.5436,28.0,2.6,2.5473297566057065,25.4,2025-05-23 12:37:30
500101002,大安區,YouBike2.0_復興南路二段273號前,25.02565,121.54357,21.0,2.1,3.1073389830457114,18.9,2025-05-23 12:37:30
500101003,大安區,YouBike2.0_國北教大實小東側門,25.02429,121.54124,28.0,11.8,7.495183638696105,16.2,2025-05-23 12:37:30
500101004,大安區,YouBike2.0_和平公園東側,25.02351,121.54282,11.0,5.5,3.0276503540974917,5.3,2025-05-23 12:37:30
500101005,大安區,YouBike2.0_辛亥復興路口西北側,25.02153,121.54299,16.0,5.4,4.623610902506587,10.4,2025-05-23 12:37:30
500101006,大安區,YouBike2.0_復興南路二段280號前,25.02429,121.54328,27.0,5.2,3.9944405810520647,21.6,2025-05-23 12:37:30
500101007,大安區,YouBike2.0_復興南路二段340巷口,25.02253,121.54326,11.0,6.0,2.6666666666666665,5.0,2025-05-23 12:37:30
500101008,大安區,YouBike2.0_新生南路三段52號前,25.02112,121.53407,17.0,7.5,3.0276503540974917,9.1,2025-05-23 12:37:30
500101009,大安區,YouBike2.0_新生南路三段66號前,25.01976,121.53384,16.0,11.8,5.884065110297661,4.0,2025-05-23 12:37:30
500101010,大安區,YouBike2.0_新生南路三段82號前,25.01894,121.53361,20.0,13.0,5.497474167490214,6.2,2025-05-23 12:37:30
500101012,大安區,YouBike2.0_辛亥路一段30號前,25.01986,121.52982,8.0,5.7,1.9465068427541912,2.3,2025-05-23 12:37:30
500101013,大安區,YouBike2.0_和平復興路口西北側,25.02543,121.54332,9.0,5.0,2.1081851067789197,4.0,2025-05-23 12:37:30
500101014,大安區,YouBike2.0_羅斯福路三段311號前,25.01717,121.53202,11.0,8.7,2.213594362117865,2.3,2025-05-23 12:37:30
500101015,大安區,YouBike2.0_大安運動中心停車場,25.02089,121.54697,19.0,8.1,5.195083145522205,10.9,2025-05-23 12:37:30
500101016,大安區,YouBike2.0_羅斯福路三段245號前,25.01927,121.52989,8.0,5.8,2.485513584307633,2.2,2025-05-23 12:37:30
500101018,大安區,YouBike2.0_溫州公園,25.01895,121.53156,5.0,3.5,1.649915822768611,1.5,2025-05-23 12:37:30
500101019,大安區,YouBike2.0_和平臥龍街口,25.024461,121.546705,24.0,10.1,6.83861584435525,13.9,2025-05-23 12:37:30
500101021,大安區,YouBike2.0_銘傳國小側門,25.01385,121.53549,7.0,4.2,2.0976176963403033,2.6,2025-05-23 12:37:30
500101022,大安區,YouBike2.0_捷運公館站(2號出口),25.01491,121.53438,99.0,30.7,22.40560445761531,65.1,2025-05-23 12:37:30
500101023,大安區,YouBike2.0_第二學生活動中心,25.01244,121.53661,25.0,12.3,6.515792780280505,12.3,2025-05-23 12:37:30
500101024,大安區,YouBike2.0_臺灣科技大學正門,25.01451,121.54142,50.0,14.3,10.604506379627274,35.7,2025-05-23 12:37:30
500101025,大安區,YouBike2.0_臺灣科技大學側門,25.01295,121.53973,99.0,23.9,20.118813748992924,74.7,2025-05-23 12:37:30
500101026,大安區,YouBike2.0_公館公園,25.01137,121.54062,30.0,6.8,9.003702941938204,22.9,2025-05-23 12:37:30
500101027,大安區,YouBike2.0_臺灣科技大學後門,25.01182,121.54165,39.0,3.9,4.0400770069668495,34.5,2025-05-23 12:37:30
500101028,大安區,YouBike2.0_臺大醫學院附設癌醫中心,25.01426,121.54382,20.0,3.5,3.9791121287711073,16.4,2025-05-23 12:37:30
500101029,大安區,YouBike2.0_臺大環研大樓,25.01234,121.54503,15.0,6.3,5.313504806936128,8.7,2025-05-23 12:37:30
500101030,大安區,YouBike2.0_臺大永齡生醫工程館,25.0136,121.54656,34.0,7.0,5.617433182117573,25.0,2025-05-23 12:37:30
500101031,大安區,YouBike2.0_臺大男七舍前,25.01537,121.54698,20.0,1.8,1.1352924243950933,18.2,2025-05-23 12:37:30
500101032,大安區,YouBike2.0_臺大男一舍前,25.01637,121.54535,61.0,7.1,9.12201244852862,53.3,2025-05-23 12:37:30
500101033,大安區,YouBike2.0_臺大男六舍前,25.01664,121.5452,40.0,3.7,5.056349144063003,36.3,2025-05-23 12:37:30
500101034,大安區,YouBike2.0_臺大動物醫院前,25.01576,121.54291,18.0,5.2,3.9384147967311813,12.8,2025-05-23 12:37:30
500101035,大安區,YouBike2.0_臺大土木研究大樓前,25.01787,121.5476,24.0,9.9,6.5903970543005475,14.1,2025-05-23 12:37:30
500101036,大安區,YouBike2.0_臺大萬才館前,25.02032,121.54497,20.0,5.0,2.7487370837451075,14.4,2025-05-23 12:37:30
500101037,大安區,YouBike2.0_臺大國青大樓宿舍前,25.02076,121.54432,20.0,3.1,1.728840330651992,16.9,2025-05-23 12:37:30
500101038,大安區,YouBike2.0_臺大社科院圖書館前,25.02101,121.54284,27.0,16.8,5.094659513211414,10.2,2025-05-23 12:37:30
500101039,大安區,YouBike2.0_臺大法人語言訓練中心前,25.02104,121.54081,28.0,6.9,5.820461990063827,20.3,2025-05-23 12:37:30
500101040,大安區,YouBike2.0_臺大綜合體育館停車場前,25.0222,121.53626,25.0,12.5,7.442371187255369,12.5,2025-05-23 12:37:30
500101041,大安區,YouBike2.0_辛亥新生路口東南側,25.02218,121.53474,50.0,27.5,15.848238598237554,22.3,2025-05-23 12:37:30
500101042,大安區,YouBike2.0_基隆長興路口東側,25.01727,121.54471,15.0,1.5,2.068278940998476,13.3,2025-05-23 12:37:30
500101091,大安區,YouBike2.0_國北教大側門南側,25.022864,121.546622,34.0,15.5,11.384687571958711,18.1,2025-05-23 12:37:30
500101092,大安區,YouBike2.0_和平實小東北側,25.021641,121.54704,25.0,10.6,4.9035134795822115,14.0,2025-05-23 12:37:30
500101093,大安區,YouBike2.0_大安區健康服務中心,25.021469,121.544069,23.0,8.7,5.056349144063004,14.1,2025-05-23 12:37:30
500101094,大安區,YouBike2.0_辛亥泰順街口,25.02193,121.53165,20.0,9.0,4.666666666666666,11.0,2025-05-23 12:37:30
500101095,大安區,YouBike2.0_芳和國中,25.0189,121.55013,37.0,17.1,10.598217879540988,19.5,2025-05-23 12:37:30
500101097,大安區,YouBike2.0_臥龍樂業街口,25.01856,121.55558,41.0,19.2,13.197642887189279,21.6,2025-05-23 12:37:30
500101098,大安區,YouBike2.0_臥龍公園,25.01623,121.55037,25.0,6.3,3.465704994818675,18.7,2025-05-23 12:37:30
500101099,大安區,YouBike2.0_嘉興公園,25.021,121.55211,44.0,17.1,11.308305698811726,22.3,2025-05-23 12:37:30
500101100,大安區,YouBike2.0_捷運麟光站(2號出口),25.0181,121.55929,50.0,16.6,14.901155809011744,33.0,2025-05-23 12:37:30
500101101,大安區,YouBike2.0_捷運六張犁站,25.02397,121.55266,64.0,23.2,18.443908961437046,40.8,2025-05-23 12:37:30
500101102,大安區,YouBike2.0_喬治工商,25.02705,121.55551,22.0,6.7,5.417051268397267,15.1,2025-05-23 12:37:30
500101103,大安區,YouBike2.0_法治公園,25.02694,121.55325,29.0,11.9,9.62000231000203,16.7,2025-05-23 12:37:30
500101104,大安區,YouBike2.0_捷運臺電大樓站(2號出口),25.02021,121.52942,18.0,7.1,4.3576242252962665,10.9,2025-05-23 12:37:30
500101105,大安區,YouBike2.0_和平金山路口,25.02669,121.52529,45.0,11.5,10.88577052853862,33.5,2025-05-23 12:37:30
500101107,大安區,YouBike2.0_和平龍泉街口,25.02638,121.52971,34.0,15.2,12.638565319423456,18.8,2025-05-23 12:37:30
500101108,大安區,YouBike2.0_和平泰順街口,25.02621,121.53171,19.0,5.7,6.03784361801095,13.3,2025-05-23 12:37:30
500101109,大安區,YouBike2.0_臺灣師範大學(圖書館),25.0266,121.52973,40.0,19.3,11.84201559420242,20.1,2025-05-23 12:37:30
500101110,大安區,YouBike2.0_捷運古亭站(6號出口),25.0276,121.52217,60.0,24.6,19.939909728983228,35.4,2025-05-23 12:37:30
500101113,大安區,YouBike2.0_臺北市立圖書館(總館),25.02895,121.5379,51.0,26.2,17.874873736927796,24.6,2025-05-23 12:37:30
500101114,大安區,YouBike2.0_新生和平路口東北側,25.02657,121.53515,51.0,26.6,18.234277854877853,24.0,2025-05-23 12:37:30
500101115,大安區,YouBike2.0_建國和平路口西北側,25.02606,121.53738,50.0,21.5,14.668560483792083,28.5,2025-05-23 12:37:30
500101116,大安區,YouBike2.0_金華公園,25.02984,121.53107,44.0,17.2,6.876691711054734,26.8,2025-05-23 12:37:30
500101118,大安區,YouBike2.0_金甌女中,25.03519,121.5245,15.0,3.4,3.533962208186286,11.6,2025-05-23 12:37:30
500101119,大安區,YouBike2.0_金杭公園,25.03325,121.52436,20.0,7.1,4.254409477236529,12.9,2025-05-23 12:37:30
500101120,大安區,YouBike2.0_愛國金山路口,25.03164,121.52661,43.0,11.4,5.295700562196133,31.4,2025-05-23 12:37:30
500101122,大安區,YouBike2.0_敦化南路二段293巷口南側,25.0237,121.54899,14.0,4.3,5.012207320355197,9.5,2025-05-23 12:37:30
500101123,大安區,YouBike2.0_敦化基隆路口,25.02215,121.54839,38.0,13.9,10.79557522526912,17.3,2025-05-23 12:37:30
500101124,大安區,YouBike2.0_安和路二段181巷口,25.02721,121.54988,29.0,15.5,7.905694150420948,13.5,2025-05-23 12:37:30
500101125,大安區,YouBike2.0_臨江街夜市(通化街101巷口),25.02952,121.55406,30.0,10.7,7.761013679496599,17.5,2025-05-23 12:37:30
500101126,大安區,YouBike2.0_臨江街夜市(基隆路),25.02931,121.55721,29.0,9.8,9.150591966279194,18.9,2025-05-23 12:37:30
500101127,大安區,YouBike2.0_台北科技大學億光大樓,25.04177,121.53833,45.0,15.6,10.574602698079122,29.4,2025-05-23 12:37:30
500101128,大安區,YouBike2.0_新生南路一段119巷口,25.04003,121.53299,33.0,9.0,5.696002496878354,23.8,2025-05-23 12:37:30
500101129,大安區,YouBike2.0_幸安國小(仁愛路),25.03753,121.53523,28.0,8.3,3.0203016773531446,19.5,2025-05-23 12:37:30
500101130,大安區,YouBike2.0_民榮公園,25.03534,121.5354,15.0,4.5,3.3416562759605704,10.5,2025-05-23 12:37:30
500101131,大安區,YouBike2.0_復興南路1段340巷口,25.03701,121.54348,50.0,29.8,12.865112168617538,20.0,2025-05-23 12:37:30
500101132,大安區,YouBike2.0_建國濟南路口,25.03935,121.53828,54.0,21.7,11.851394667107984,31.9,2025-05-23 12:37:30
500101133,大安區,YouBike2.0_捷運忠孝復興站(2號出口),25.04035,121.5436,43.0,17.8,9.93087217832463,25.2,2025-05-23 12:37:30
500101134,大安區,YouBike2.0_捷運大安站(4號出口),25.0332,121.5439,13.0,4.2,2.616188916046478,8.7,2025-05-23 12:37:30
500101135,大安區,YouBike2.0_捷運大安站(2號出口),25.03358,121.54141,26.0,13.9,9.279008567729637,11.7,2025-05-23 12:37:30
500101136,大安區,YouBike2.0_信義大安路口(信維大樓),25.03317,121.54639,18.0,5.8,4.022160834399562,12.2,2025-05-23 12:37:30
500101137,大安區,YouBike2.0_龍門廣場,25.04092,121.54825,70.0,29.8,11.867790208983491,39.0,2025-05-23 12:37:30
500101138,大安區,YouBike2.0_仁愛安和路口,25.03754,121.55285,33.0,14.9,6.773313648265358,17.7,2025-05-23 12:37:30
500101139,大安區,YouBike2.0_信義敦化路口,25.03333,121.54977,52.0,16.4,14.057026712644463,35.2,2025-05-23 12:37:30
500101140,大安區,YouBike2.0_仁愛國中,25.03706,121.55166,25.0,8.7,7.660142151277467,16.1,2025-05-23 12:37:30
500101141,大安區,YouBike2.0_捷運信義安和站(2號出口),25.03304,121.55171,24.0,10.4,7.7056977476266075,13.6,2025-05-23 12:37:30
500101142,大安區,YouBike2.0_八德市場,25.04463,121.53665,30.0,12.1,11.589746426139884,17.7,2025-05-23 12:37:30
500101143,大安區,YouBike2.0_昌隆公園,25.04448,121.53946,16.0,9.4,3.6878177829171546,6.6,2025-05-23 12:37:30
500101144,大安區,YouBike2.0_捷運大安森林公園站(2號出口),25.03332,121.53435,69.0,41.8,15.569200364822851,24.8,2025-05-23 12:37:30
500101145,大安區,YouBike2.0_信義延吉街口,25.03318,121.55725,15.0,4.2,4.184627953726724,10.8,2025-05-23 12:37:30
500101146,大安區,YouBike2.0_光信公園(光復南路456巷),25.03513,121.5561,25.0,10.6,8.82169044017201,13.8,2025-05-23 12:37:30
500101147,大安區,YouBike2.0_僑安地下停車場(2號出口)東南側,25.0391,121.5569,20.0,8.0,8.498365855987975,11.4,2025-05-23 12:37:30
500101148,大安區,YouBike2.0_建國南路一段279巷口,25.03635,121.53833,32.0,14.0,5.887840577551898,17.4,2025-05-23 12:37:30
500101149,大安區,YouBike2.0_捷運忠孝新生站(6號出口),25.04091,121.53295,15.0,3.2,2.485513584307633,11.8,2025-05-23 12:37:30
500101150,大安區,YouBike2.0_捷運忠孝新生站(4號出口),25.04239,121.53324,46.0,12.3,9.95601437434791,33.7,2025-05-23 12:37:30
500101151,大安區,YouBike2.0_大安高工,25.03126,121.54339,23.0,2.9,2.378141197564929,19.9,2025-05-23 12:37:30
500101152,大安區,YouBike2.0_捷運忠孝新生站(3號出口),25.04189,121.53376,43.0,9.6,8.796463936024395,33.0,2025-05-23 12:37:30
500101153,大安區,YouBike2.0_瑠公公園,25.04201,121.54612,20.0,12.9,5.087020520675908,7.1,2025-05-23 12:37:30
500101154,大安區,YouBike2.0_敦化市民路口,25.04405,121.5486,23.0,11.5,4.143267631552018,11.5,2025-05-23 12:37:30
500101155,大安區,YouBike2.0_捷運大安森林公園站(5號出口),25.03336,121.5364,15.0,5.9,4.280446497997869,8.9,2025-05-23 12:37:30
500101156,大安區,YouBike2.0_信義建國路口,25.0328,121.53746,52.0,13.1,10.79557522526912,38.1,2025-05-23 12:37:30
500101157,大安區,YouBike2.0_東豐公園,25.03569,121.5451,19.0,10.1,4.408325456829762,8.9,2025-05-23 12:37:30
500101158,大安區,YouBike2.0_德安公園(四維路66巷),25.03473,121.54767,22.0,8.3,5.056349144063003,13.5,2025-05-23 12:37:30
500101159,大安區,YouBike2.0_捷運忠孝復興站(5號出口),25.04253,121.54407,30.0,23.4,6.785605679999719,6.6,2025-05-23 12:37:30
500101160,大安區,YouBike2.0_捷運忠孝敦化站(2號出口),25.04153,121.5524,17.0,8.1,6.332456079595025,8.7,2025-05-23 12:37:30
500101161,大安區,YouBike2.0_捷運忠孝敦化站(7號出口),25.04159,121.54937,18.0,10.8,5.692099788303083,7.0,2025-05-23 12:37:30
500101162,大安區,YouBike2.0_忠孝東路四段223巷口(市民大道側),25.04427,121.55291,25.0,13.0,6.4807406984078595,11.8,2025-05-23 12:37:30
500101163,大安區,YouBike2.0_瑞安街208巷,25.02979,121.54053,15.0,1.4,1.1737877907772674,13.4,2025-05-23 12:37:30
500101165,大安區,YouBike2.0_樂利路21巷口,25.0277,121.55132,17.0,11.4,4.168666186896928,5.2,2025-05-23 12:37:30
500101166,大安區,YouBike2.0_捷運科技大樓站(台北教育大學),25.02472,121.54417,54.0,19.2,16.738511814906897,34.6,2025-05-23 12:37:30
500101167,大安區,YouBike2.0_捷運國父紀念館站(2號出口),25.04122,121.55745,45.0,21.4,11.29601699715435,22.0,2025-05-23 12:37:30
500101168,大安區,YouBike2.0_仁愛醫院,25.03756,121.54587,36.0,17.0,9.888264649460883,18.2,2025-05-23 12:37:30
500101169,大安區,YouBike2.0_捷運信義安和站(4號出口),25.03305,121.55378,49.0,24.4,14.637850479720944,24.2,2025-05-23 12:37:30
500101170,大安區,YouBike2.0_成功國宅,25.02681,121.54668,36.0,15.0,5.792715732327588,20.4,2025-05-23 12:37:30
500101171,大安區,YouBike2.0_仁愛延吉街口,25.03748,121.55564,33.0,11.7,8.152027695951208,21.3,2025-05-23 12:37:30
500101172,大安區,YouBike2.0_捷運信義安和站(1號出口),25.03331,121.55265,33.0,9.3,5.6381636096240495,23.1,2025-05-23 12:37:30
500101173,大安區,YouBike2.0_敦化南路二段103巷口,25.0287,121.54904,24.0,6.7,5.355163655555055,12.3,2025-05-23 12:37:30
500101174,大安區,YouBike2.0_復興南路二段128巷口,25.02861,121.54336,41.0,6.7,2.750757471437034,34.1,2025-05-23 12:37:30
500101175,大安區,YouBike2.0_和平東建國南路口,25.02575,121.5377,17.0,8.0,4.760952285695233,8.2,2025-05-23 12:37:30
500101176,大安區,YouBike2.0_芳蘭山莊,25.01223,121.54788,16.0,3.8,3.794733192202055,11.0,2025-05-23 12:37:30
500101177,大安區,YouBike2.0_復興南路一段126巷口,25.04311,121.54313,15.0,7.9,2.4698178070456933,7.1,2025-05-23 12:37:30
500101179,大安區,YouBike2.0_捷運東門站(5號出口),25.03363,121.52962,28.0,19.6,5.641118880348315,8.4,2025-05-23 12:37:30
500101180,大安區,YouBike2.0_仁愛路四段48巷口,25.03597,121.54693,12.0,7.0,3.559026084010437,5.0,2025-05-23 12:37:30
500101181,大安區,YouBike2.0_捷運公館站(3號出口),25.01551,121.53374,99.0,40.3,29.38650483923984,57.9,2025-05-23 12:37:30
500101182,大安區,YouBike2.0_臺北科技大學(電機工程系),25.04196,121.53653,34.0,12.8,7.913420387052758,21.2,2025-05-23 12:37:30
500101184,大安區,YouBike2.0_新生南路三段94巷口,25.01744,121.53334,15.0,8.2,4.157990967870047,6.8,2025-05-23 12:37:30
500101185,大安區,YouBike2.0_辛亥新生路口西北側,25.02267,121.5341,24.0,10.1,6.95141872010471,13.7,2025-05-23 12:37:30
500101186,大安區,YouBike2.0_捷運大安站(6號出口),25.03479,121.54376,29.0,8.0,3.590109871423003,21.0,2025-05-23 12:37:30
500101187,大安區,YouBike2.0_臥龍街195巷口,25.01783,121.55224,14.0,2.0,2.5385910352879697,11.6,2025-05-23 12:37:30
500101188,大安區,YouBike2.0_辛亥路三段157巷口,25.01727,121.54904,27.0,5.3,4.295992965026311,21.7,2025-05-23 12:37:30
500101189,大安區,YouBike2.0_臥龍基隆路口,25.02039,121.54853,28.0,9.5,5.562773089426212,18.1,2025-05-23 12:37:30
500101190,大安區,YouBike2.0_敦親公園,25.02347,121.54108,26.0,8.8,4.779586221049312,16.2,2025-05-23 12:37:30
500101191,大安區,YouBike2.0_大安運動中心,25.02054,121.54561,33.0,13.6,3.1340424729448424,19.4,2025-05-23 12:37:30
500101192,大安區,YouBike2.0_和平敦化路口,25.02444,121.54908,36.0,7.9,7.030884249746495,28.1,2025-05-23 12:37:30
500101193,大安區,YouBike2.0_基隆長興路口,25.01705,121.54435,51.0,6.2,10.726913193769523,44.2,2025-05-23 12:37:30
500101194,大安區,YouBike2.0_仁愛路四段122巷口,25.03762,121.55009,25.0,6.5,2.758824226207808,17.9,2025-05-23 12:37:30
500101196,大安區,YouBike2.0_市民敦化路口,25.04464,121.54944,32.0,10.2,6.81175454637056,21.8,2025-05-23 12:37:30
500101197,大安區,YouBike2.0_忠孝東路四段49巷口,25.04172,121.54541,15.0,6.3,3.3349995835415367,8.7,2025-05-23 12:37:30
500101198,大安區,YouBike2.0_市民復興路口(東南側),25.04472,121.54401,16.0,9.7,5.696977756280566,5.7,2025-05-23 12:37:30
500101199,大安區,YouBike2.0_和平新生路口西南側,25.02604,121.534,17.0,9.7,5.618422079789544,7.1,2025-05-23 12:37:30
500101200,大安區,YouBike2.0_全安公園,25.02535,121.55101,16.0,8.5,5.441609239104835,6.9,2025-05-23 12:37:30
500101201,大安區,YouBike2.0_信義路三段134巷口,25.03333,121.53968,19.0,4.0,3.197221015541813,15.0,2025-05-23 12:37:30
500101202,大安區,YouBike2.0_仁愛敦南圓環(東南側),25.03715,121.54936,16.0,4.7,2.4517567397911058,11.3,2025-05-23 12:37:30
500101203,大安區,YouBike2.0_臺北遠企購物中心,25.02709,121.54902,33.0,9.0,3.5901098714230026,23.8,2025-05-23 12:37:30
500101204,大安區,YouBike2.0_外交部外交及國際事務學院,25.0371,121.54839,26.0,6.4,1.8973665961010275,19.0,2025-05-23 12:37:30
500101205,大安區,YouBike2.0_四維路170巷口,25.02821,121.54864,22.0,12.5,5.060742150229658,9.5,2025-05-23 12:37:30
500101206,大安區,YouBike2.0_捷運大安站(3號出口),25.03328,121.5425,46.0,11.5,9.55975359979999,33.1,2025-05-23 12:37:30
500101207,大安區,YouBike2.0_捷運臺電大樓站(2號出口)_1,25.02055,121.52855,38.0,15.5,11.296508801887029,22.5,2025-05-23 12:37:30
500101208,大安區,YouBike2.0_信義路四段199巷,25.03459,121.55164,15.0,7.4,4.4522154285504,7.6,2025-05-23 12:37:30
500101209,大安區,YouBike2.0_臺大資訊大樓,25.02101,121.54153,40.0,11.5,9.812124019690017,28.5,2025-05-23 12:37:30
500101210,大安區,YouBike2.0_敦化南路二段81巷,25.03002,121.54893,40.0,20.0,10.530379332620877,19.8,2025-05-23 12:37:30
500101211,大安區,YouBike2.0_原臺北刑務所官舍,25.03054,121.52466,23.0,10.7,4.643992535164831,12.3,2025-05-23 12:37:30
500101212,大安區,YouBike2.0_捷運國父紀念館站(1號出口),25.04205,121.55657,24.0,13.0,6.733003292241386,10.6,2025-05-23 12:37:30
500101213,大安區,YouBike2.0_懷生國中,25.0401,121.54122,24.0,6.8,3.2930904093942583,17.2,2025-05-23 12:37:30
500101214,大安區,YouBike2.0_仁愛敦南圓環(西北側),25.03827,121.54802,20.0,9.3,4.029061098237818,10.7,2025-05-23 12:37:30
500101215,大安區,YouBike2.0_立人國小,25.02974,121.55146,17.0,5.9,4.677368680976279,11.1,2025-05-23 12:37:30
500101216,大安區,YouBike2.0_和平東路二段18巷口,25.02268,121.53608,24.0,9.1,2.330951164939612,14.9,2025-05-23 12:37:30
500101217,大安區,YouBike2.0_捷運大安站(5號出口),25.03303,121.54372,26.0,8.5,8.058811602491055,17.1,2025-05-23 12:37:30
500101218,大安區,YouBike2.0_臨江公園,25.02832,121.55592,23.0,6.1,4.701063709417263,15.3,2025-05-23 12:37:30
500101219,大安區,YouBike2.0_羅斯福路四段113巷19弄口,25.01027,121.53998,14.0,3.5,4.249182927993988,10.1,2025-05-23 12:37:30
500101221,大安區,YouBike2.0_忠孝東路四段248巷口,25.04132,121.55393,25.0,21.4,3.687817782917155,3.6,2025-05-23 12:37:30
500101222,大安區,YouBike2.0_仁愛延吉路口(西北側),25.03795,121.55466,24.0,10.6,7.56012933457858,13.4,2025-05-23 12:37:30
500101223,大安區,YouBike2.0_樂利路101巷口,25.02528,121.55224,13.0,4.4,4.351245032554859,8.6,2025-05-23 12:37:30
500101224,大安區,YouBike2.0_羅斯福浦城街口,25.02208,121.52678,25.0,10.9,9.538809615926345,13.3,2025-05-23 12:37:30
500101225,大安區,YouBike2.0_敦化南路一段295巷口,25.03551,121.54951,18.0,8.2,4.541169697580373,9.6,2025-05-23 12:37:30
500101226,大安區,YouBike2.0_通安區民活動中心,25.02942,121.55294,28.0,13.2,8.62554346113913,14.2,2025-05-23 12:37:30
500101227,大安區,YouBike2.0_復興忠孝東路口(東南側),25.04061,121.54389,28.0,12.1,4.121757985239902,15.9,2025-05-23 12:37:30
500101228,大安區,YouBike2.0_仁愛大安路口(東北側),25.03813,121.54631,21.0,11.5,5.70087712549569,9.5,2025-05-23 12:37:30
500101229,大安區,YouBike2.0_臺灣師範大學(浦城街),25.02476,121.52803,20.0,5.0,2.98142396999972,13.6,2025-05-23 12:37:30
500101230,大安區,YouBike2.0_安和路二段69巷口,25.03056,121.55252,20.0,8.4,3.1692971530679235,11.4,2025-05-23 12:37:30
500101231,大安區,YouBike2.0_大安國小,25.02014,121.55084,25.0,8.4,8.983936281558941,16.4,2025-05-23 12:37:30
500101232,大安區,YouBike2.0_捷運古亭站(3號出口),25.02572,121.52359,15.0,4.9,4.771442828607157,10.1,2025-05-23 12:37:30
500101233,大安區,YouBike2.0_捷運忠孝復興站(3號出口),25.04152,121.54414,37.0,10.8,4.022160834399561,26.2,2025-05-23 12:37:30
500101234,大安區,YouBike2.0_和平東路二段90巷,25.02468,121.53965,20.0,3.3,4.001388647846033,16.5,2025-05-23 12:37:30
500101235,大安區,YouBike2.0_光復南路420巷口,25.03601,121.55742,16.0,4.5,2.223610677354389,11.2,2025-05-23 12:37:30
500101236,大安區,YouBike2.0_富陽臥龍街口,25.0187,121.55688,18.0,5.7,3.0930028559098792,11.3,2025-05-23 12:37:30
500101237,大安區,YouBike2.0_仁愛復興路口,25.03817,121.544,25.0,7.6,2.836272984824353,17.2,2025-05-23 12:37:30
500101238,大安區,YouBike2.0_仁愛敦南圓環(東側),25.03804,121.55042,26.0,12.3,8.920014947670584,13.7,2025-05-23 12:37:30
500101239,大安區,YouBike2.0_古風公園,25.02187,121.52912,15.0,6.7,5.1001089312985375,7.9,2025-05-23 12:37:30
500101240,大安區,YouBike2.0_和平東路二段76巷,25.02263,121.53906,40.0,11.2,6.941021378570864,28.6,2025-05-23 12:37:30
500101241,大安區,YouBike2.0_敦化信義路口(東南側),25.03276,121.54907,20.0,6.5,5.461989869391313,13.5,2025-05-23 12:37:30
500101242,大安區,YouBike2.0_和平東路三段308巷口,25.01883,121.5544,14.0,6.8,2.6583202716502514,5.8,2025-05-23 12:37:30
500101243,大安區,YouBike2.0_忠孝建國路口(東南側),25.04159,121.5378,21.0,8.3,3.7431418769679454,12.7,2025-05-23 12:37:30
500101244,大安區,YouBike2.0_浦城街26巷,25.02324,121.52618,17.0,7.4,5.253570214625479,9.0,2025-05-23 12:37:30
500101245,大安區,YouBike2.0_青峰活動中心,25.01524,121.55121,25.0,11.4,3.9214509786273974,13.6,2025-05-23 12:37:30
500101246,大安區,YouBike2.0_忠孝東路三段216巷口,25.04157,121.5402,28.0,5.4,4.3256341860022225,22.4,2025-05-23 12:37:30
500101247,大安區,YouBike2.0_捷運忠孝復興站(4號出口),25.04173,121.54412,25.0,11.6,2.503331114069145,13.4,2025-05-23 12:37:30
500101248,大安區,YouBike2.0_和平溫州街口,25.02634,121.53342,23.0,11.1,5.971227307309239,11.7,2025-05-23 12:37:30
500101250,大安區,YouBike2.0_國立臺北教育大學創意館,25.02305,121.54394,32.0,7.1,4.629614814791111,24.3,2025-05-23 12:37:30
500101251,大安區,YouBike2.0_捷運忠孝復興站(1號出口),25.04199,121.54362,27.0,11.9,7.978443178688156,14.9,2025-05-23 12:37:30
500101252,大安區,YouBike2.0_政大公企中心,25.03076,121.52781,13.0,10.2,2.2010098692292233,2.8,2025-05-23 12:37:30
500101253,大安區,YouBike2.0_大安路二段90巷口,25.03117,121.54602,19.0,3.8,4.049691346263318,14.8,2025-05-23 12:37:30
500101254,大安區,YouBike2.0_師大附中運動中心,25.03626,121.53997,33.0,11.7,5.850925852660699,20.9,2025-05-23 12:37:30
500101256,大安區,YouBike2.0_敦化基隆路口(東北側),25.02196,121.54899,19.0,4.9,4.62961481479111,14.1,2025-05-23 12:37:30
500101257,大安區,YouBike2.0_龍圖公園,25.0305,121.54184,20.0,4.8,3.8815804341359033,15.0,2025-05-23 12:37:30
500101258,大安區,YouBike2.0_新生南路二段54巷口,25.02878,121.53412,26.0,14.0,8.0,11.8,2025-05-23 12:37:30
500101259,大安區,YouBike2.0_臺靜農人文會館,25.02462,121.53347,12.0,2.7,1.9465068427541912,8.9,2025-05-23 12:37:30
500103001,大同區,YouBike2.0_延平國宅,25.07894,121.51121,30.0,11.1,7.046669820245273,18.5,2025-05-23 12:37:30
500103002,大同區,YouBike2.0_臺北市立圖書館大同分館,25.0741,121.51349,40.0,8.5,3.308238873546535,31.5,2025-05-23 12:37:30
500103003,大同區,YouBike2.0_合昌宮,25.07717,121.50934,15.0,6.8,2.0976176963403033,8.0,2025-05-23 12:37:30
500103004,大同區,YouBike2.0_民族延平路口,25.06864,121.5107,36.0,18.2,4.022160834399561,14.4,2025-05-23 12:37:30
500103005,大同區,YouBike2.0_重慶酒泉街口,25.07158,121.51368,44.0,24.5,8.566731517264266,18.9,2025-05-23 12:37:30
500103006,大同區,YouBike2.0_樹德公園,25.06647,121.5165,14.0,5.9,3.2472210341220142,7.7,2025-05-23 12:37:30
500103007,大同區,YouBike2.0_陳天來故居,25.05601,121.50895,16.0,4.3,1.9465068427541912,11.3,2025-05-23 12:37:30
500103008,大同區,YouBike2.0_臺北孔廟,25.07378,121.51583,37.0,15.5,8.031189202104505,21.1,2025-05-23 12:37:30
500103009,大同區,YouBike2.0_捷運圓山站(1號出口),25.07133,121.52024,81.0,55.5,15.65779890874406,23.9,2025-05-23 12:37:30
500103010,大同區,YouBike2.0_酒泉延平路口,25.0722,121.51057,41.0,14.4,11.187294380481617,26.6,2025-05-23 12:37:30
500103011,大同區,YouBike2.0_重慶國中,25.07567,121.51862,64.0,32.8,17.89351216999552,31.0,2025-05-23 12:37:30
500103012,大同區,YouBike2.0_重慶北路三段383巷口,25.07598,121.51409,25.0,10.9,7.694875639743057,13.9,2025-05-23 12:37:30
500103013,大同區,YouBike2.0_台北數位產業園區,25.07447,121.52003,24.0,7.1,4.04007700696685,16.5,2025-05-23 12:37:30
500103019,大同區,YouBike2.0_民權延平路口(西北側),25.06326,121.51099,20.0,8.8,6.160808027812225,11.2,2025-05-23 12:37:30
500103020,大同區,YouBike2.0_民權迪化街口,25.06327,121.50943,47.0,20.7,11.06596383310354,25.9,2025-05-23 12:37:30
500103021,大同區,YouBike2.0_大稻埕公園,25.05915,121.51033,35.0,16.1,5.971227307309239,18.7,2025-05-23 12:37:30
500103022,大同區,YouBike2.0_大龍老人住宅,25.06853,121.51729,14.0,3.6,2.1705094128132942,10.4,2025-05-23 12:37:30
500103023,大同區,YouBike2.0_大龍峒社會住宅,25.0708,121.51826,34.0,14.2,10.075272259900034,19.8,2025-05-23 12:37:30
500103024,大同區,YouBike2.0_捷運大橋頭站(2號出口),25.06314,121.51308,57.0,23.6,9.131143289740763,32.8,2025-05-23 12:37:30
500103025,大同區,YouBike2.0_捷運大橋頭站(1A出口),25.06325,121.51162,30.0,14.1,7.156193898373011,15.5,2025-05-23 12:37:30
500103026,大同區,YouBike2.0_捷運民權西路站(2號出口),25.06174,121.51969,25.0,3.6,2.756809750418044,21.2,2025-05-23 12:37:30
500103027,大同區,YouBike2.0_捷運雙連站(2號出口),25.05826,121.52063,41.0,23.4,10.297788327813134,15.8,2025-05-23 12:37:30
500103028,大同區,YouBike2.0_捷運北門站(3號出口),25.04991,121.5104,62.0,15.3,14.213061285701652,45.9,2025-05-23 12:37:30
500103029,大同區,YouBike2.0_朝陽公園,25.05592,121.51367,10.0,0.6,0.6992058987801011,9.4,2025-05-23 12:37:30
500103030,大同區,YouBike2.0_永樂市場,25.05454,121.51052,38.0,22.0,8.178562764256863,13.4,2025-05-23 12:37:30
500103031,大同區,YouBike2.0_大龍公園,25.07049,121.51596,26.0,9.9,6.723920813863821,15.9,2025-05-23 12:37:30
500103032,大同區,YouBike2.0_重慶涼州街口,25.06054,121.51338,13.0,5.4,2.836272984824353,7.0,2025-05-23 12:37:30
500103033,大同區,YouBike2.0_圓山線形公園,25.06867,121.51993,26.0,11.9,6.983313444681304,13.9,2025-05-23 12:37:30
500103034,大同區,YouBike2.0_圓環站,25.05369,121.51418,31.0,8.1,5.626327003965869,22.3,2025-05-23 12:37:30
500103035,大同區,YouBike2.0_重慶民族路口,25.06853,121.51359,32.0,13.9,10.461038826681284,18.1,2025-05-23 12:37:30
500103036,大同區,YouBike2.0_承德路三段8巷口,25.06407,121.51822,21.0,11.3,3.743141876967945,8.7,2025-05-23 12:37:30
500103037,大同區,YouBike2.0_太原廣場,25.04925,121.51468,31.0,15.7,5.982381539896038,14.3,2025-05-23 12:37:30
500103038,大同區,YouBike2.0_國順公園,25.06594,121.51078,20.0,9.8,3.8239014399199966,10.2,2025-05-23 12:37:30
500103039,大同區,YouBike2.0_聯合醫院中興院區,25.05205,121.50818,40.0,19.4,10.276186062932103,20.4,2025-05-23 12:37:30
500103040,大同區,YouBike2.0_蔣渭水紀念公園,25.06011,121.51729,36.0,9.8,8.469553313683864,24.2,2025-05-23 12:37:30
500103041,大同區,YouBike2.0_迪化休閒運動公園,25.07491,121.5115,26.0,13.3,8.219894565422763,12.3,2025-05-23 12:37:30
500103042,大同區,YouBike2.0_大同運動中心,25.06496,121.51608,16.0,10.7,4.6678569910494145,4.9,2025-05-23 12:37:30
500103043,大同區,YouBike2.0_重慶保安街口(家樂福重慶店),25.05918,121.51373,20.0,9.5,4.85912657903775,9.9,2025-05-23 12:37:30
500103044,大同區,YouBike2.0_大稻埕碼頭,25.05662,121.50783,52.0,18.4,10.232844722319943,32.8,2025-05-23 12:37:30
500103045,大同區,YouBike2.0_歸綏戲曲公園,25.05805,121.51353,25.0,10.5,5.082650227325635,14.5,2025-05-23 12:37:30
500103046,大同區,YouBike2.0_民權國中(民權西路),25.06322,121.5144,25.0,8.6,5.834761729877617,15.8,2025-05-23 12:37:30
500103047,大同區,YouBike2.0_承德民權路口,25.06247,121.51839,36.0,9.5,5.7397251192408545,26.5,2025-05-23 12:37:30
500103048,大同區,YouBike2.0_南京太原路口,25.05366,121.51638,29.0,7.9,5.237683966538391,20.7,2025-05-23 12:37:30
500103049,大同區,YouBike2.0_承德民生西路口,25.05756,121.51828,19.0,8.0,5.456901847914967,10.4,2025-05-23 12:37:30
500103050,大同區,YouBike2.0_太原五原路口,25.05646,121.51698,32.0,7.7,5.518655230720212,24.3,2025-05-23 12:37:30
500103051,大同區,YouBike2.0_臺北轉運站(華陰街),25.04937,121.51914,20.0,10.5,3.749073959733998,8.6,2025-05-23 12:37:30
500103052,大同區,YouBike2.0_捷運民權西路站(3號出口),25.06129,121.52021,50.0,16.2,5.329165037789691,33.4,2025-05-23 12:37:30
500103053,大同區,YouBike2.0_捷運中山站(5號出口),25.05296,121.51938,18.0,12.1,6.789698078707183,5.7,2025-05-23 12:37:30
500103054,大同區,YouBike2.0_重慶長安路口,25.0515,121.51398,21.0,6.8,4.077035960378841,13.4,2025-05-23 12:37:30
500103055,大同區,YouBike2.0_承德昌吉街口,25.06587,121.51847,18.0,7.7,3.433495141818157,10.3,2025-05-23 12:37:30
500103056,大同區,YouBike2.0_大同16號廣場,25.05658,121.50826,14.0,3.4,1.429840705968481,10.2,2025-05-23 12:37:30
500103058,大同區,YouBike2.0_樹德公園_1,25.06669,121.51615,40.0,20.8,13.579396157414365,19.2,2025-05-23 12:37:30
500103059,大同區,YouBike2.0_承德鄭州路口(市民高架下),25.04879,121.51626,38.0,21.3,10.739853092312037,14.9,2025-05-23 12:37:30
500103060,大同區,YouBike2.0_成淵高中,25.06036,121.51996,25.0,14.3,7.2118729267168264,10.7,2025-05-23 12:37:30
500103061,大同區,YouBike2.0_雙蓮國小,25.06157,121.51683,20.0,9.7,4.001388647846033,10.3,2025-05-23 12:37:30
500103062,大同區,YouBike2.0_寧夏涼州街口,25.06095,121.51428,15.0,6.1,1.728840330651992,8.9,2025-05-23 12:37:30
500103063,大同區,YouBike2.0_延平涼州街口,25.06092,121.51126,14.0,6.2,4.848825745591515,6.8,2025-05-23 12:37:30
500103064,大同區,YouBike2.0_大同行政中心,25.06603,121.51481,16.0,4.0,3.651483716701107,12.0,2025-05-23 12:37:30
500103065,大同區,YouBike2.0_大龍市場,25.07473,121.51451,15.0,7.2,1.6865480854231356,7.6,2025-05-23 12:37:30
500103066,大同區,YouBike2.0_南京西寧北路口(西北側),25.05348,121.50855,13.0,4.3,2.5407785333546005,7.9,2025-05-23 12:37:30
500103068,大同區,YouBike2.0_哈密街23巷19弄口,25.07563,121.51815,23.0,10.2,5.370702416299422,12.8,2025-05-23 12:37:30
500103069,大同區,YouBike2.0_民權西路160巷口,25.06289,121.51544,15.0,7.3,4.9452558635075246,7.1,2025-05-23 12:37:30
500103070,大同區,YouBike2.0_重慶北路三段205巷口,25.06997,121.51388,19.0,12.8,3.190262963734773,6.0,2025-05-23 12:37:30
500103071,大同區,YouBike2.0_承德路二段91巷口,25.05621,121.51847,20.0,9.1,4.254409477236529,10.7,2025-05-23 12:37:30
500103072,大同區,YouBike2.0_酒泉庫倫街口,25.07194,121.51626,15.0,4.9,2.960855732160327,9.7,2025-05-23 12:37:30
500103073,大同區,YouBike2.0_民族西大龍街口,25.06864,121.51559,16.0,4.3,2.496664441476534,11.2,2025-05-23 12:37:30
500103074,大同區,YouBike2.0_承德路三段324巷口,25.07477,121.51977,45.0,18.6,6.363087999461338,25.2,2025-05-23 12:37:30
500103075,大同區,YouBike2.0_玉泉公園(鄭州路),25.05044,121.50766,20.0,4.1,1.449137674618944,15.7,2025-05-23 12:37:30
500103076,大同區,YouBike2.0_玉泉公園(忠孝西路),25.04888,121.50745,25.0,6.4,2.836272984824353,18.6,2025-05-23 12:37:30
500103078,大同區,YouBike2.0_明倫高中,25.07576,121.52011,32.0,8.5,4.034572812303401,23.5,2025-05-23 12:37:30
500104001,士林區,YouBike2.0_劍潭抽水站,25.08128,121.51784,17.0,8.6,5.081557066709201,5.8,2025-05-23 12:37:30
500104002,士林區,YouBike2.0_通河東街大南路口,25.08914,121.51542,15.0,7.1,0.9944289260117531,7.1,2025-05-23 12:37:30
500104003,士林區,YouBike2.0_福港街停車場,25.08695,121.51901,38.0,12.9,9.314862675674112,21.1,2025-05-23 12:37:30
500104004,士林區,YouBike2.0_百齡國小,25.08521,121.51918,50.0,17.4,11.04737273945459,32.4,2025-05-23 12:37:30
500104005,士林區,YouBike2.0_雨聲街165巷口,25.10277,121.53357,24.0,4.9,3.6040101122068027,19.1,2025-05-23 12:37:30
500104006,士林區,YouBike2.0_天和公園,25.12011,121.53357,16.0,6.8,2.9363620727393664,7.0,2025-05-23 12:37:30
500104007,士林區,YouBike2.0_中山天母路口,25.11856,121.52964,29.0,11.2,9.016035098028894,17.4,2025-05-23 12:37:30
500104008,士林區,YouBike2.0_天母運動公園,25.11633,121.53414,50.0,29.0,7.102425250887506,20.9,2025-05-23 12:37:30
500104009,士林區,YouBike2.0_臺北市立大學(天母校區),25.11356,121.53718,48.0,19.3,13.123769783615275,26.3,2025-05-23 12:37:30
500104010,士林區,YouBike2.0_忠誠路二段53巷,25.11127,121.53244,37.0,25.1,7.607744592044201,10.9,2025-05-23 12:37:30
500104012,士林區,YouBike2.0_天母棒球場,25.11341,121.53195,26.0,15.9,5.8774522069043185,9.9,2025-05-23 12:37:30
500104013,士林區,YouBike2.0_天母北天玉街口,25.12011,121.52652,15.0,7.1,3.2472210341220142,7.7,2025-05-23 12:37:30
500104014,士林區,YouBike2.0_蘭興公園,25.11184,121.52589,56.0,22.4,12.249263016379574,33.0,2025-05-23 12:37:30
500104015,士林區,YouBike2.0_明勝公園,25.08009,121.51895,14.0,4.9,3.3482997343593826,7.3,2025-05-23 12:37:30
500104016,士林區,YouBike2.0_劍潭海外青年活動中心,25.07994,121.52426,23.0,6.5,5.873670062235365,16.5,2025-05-23 12:37:30
500104018,士林區,YouBike2.0_忠誠路一段173巷口,25.10813,121.5304,11.0,5.9,3.0713731999438507,5.1,2025-05-23 12:37:30
500104019,士林區,YouBike2.0_雨農國小,25.1054,121.5295,21.0,10.1,6.471304179049056,9.7,2025-05-23 12:37:30
500104020,士林區,YouBike2.0_忠誠公園,25.10399,121.52593,25.0,4.6,3.5339622081862854,20.4,2025-05-23 12:37:30
500104021,士林區,YouBike2.0_芝山抽水站,25.10155,121.52832,41.0,14.1,5.237683966538391,23.3,2025-05-23 12:37:30
500104022,士林區,YouBike2.0_至誠路一段305巷口,25.10186,121.53083,21.0,5.6,3.9496835316263,15.4,2025-05-23 12:37:30
500104023,士林區,YouBike2.0_華齡公園,25.08302,121.52069,32.0,10.2,6.196773353931867,20.8,2025-05-23 12:37:30
500104024,士林區,YouBike2.0_前港公園(福德宮),25.08671,121.52096,18.0,6.8,3.73571352696584,11.0,2025-05-23 12:37:30
500104025,士林區,YouBike2.0_華齡街185巷口,25.08828,121.51985,12.0,3.7,2.9832867780352594,8.3,2025-05-23 12:37:30
500104026,士林區,YouBike2.0_前港公園(前港街),25.0848,121.52125,27.0,7.8,6.988880056521535,19.0,2025-05-23 12:37:30
500104027,士林區,YouBike2.0_百齡高中,25.08736,121.52272,27.0,10.0,5.5377492419453835,16.6,2025-05-23 12:37:30
500104028,士林區,YouBike2.0_捷運芝山站(2號出口),25.10364,121.52219,21.0,7.4,3.6575644598253874,13.6,2025-05-23 12:37:30
500104029,士林區,YouBike2.0_臺灣戲曲中心,25.10208,121.51979,25.0,9.5,5.254627590144816,15.3,2025-05-23 12:37:30
500104030,士林區,YouBike2.0_捷運劍潭站(2號出口),25.08388,121.52535,49.0,14.8,12.28187463070864,34.0,2025-05-23 12:37:30
500104031,士林區,YouBike2.0_劍潭基河路口,25.08403,121.5249,66.0,21.8,6.528569691917381,29.1,2025-05-23 12:37:30
500104033,士林區,YouBike2.0_福林國小,25.09896,121.53025,14.0,5.0,2.6666666666666665,9.0,2025-05-23 12:37:30
500104034,士林區,YouBike2.0_中山中正路口,25.09651,121.52753,19.0,11.6,4.695151163109069,7.4,2025-05-23 12:37:30
500104035,士林區,YouBike2.0_士林運動中心,25.08911,121.52154,30.0,13.7,8.31397752115209,16.3,2025-05-23 12:37:30
500104036,士林區,YouBike2.0_陽明高中,25.09164,121.51706,36.0,11.2,6.44291169511977,24.2,2025-05-23 12:37:30
500104037,士林區,YouBike2.0_兒童新樂園,25.09631,121.51449,23.0,10.2,5.308274463305168,12.8,2025-05-23 12:37:30
500104038,士林區,YouBike2.0_臺北市立天文館,25.09598,121.51776,50.0,25.6,12.703455347966466,24.2,2025-05-23 12:37:30
500104039,士林區,YouBike2.0_華聲公園,25.09619,121.5223,35.0,19.0,4.690415759823429,14.4,2025-05-23 12:37:30
500104040,士林區,YouBike2.0_福林公園,25.09419,121.52833,25.0,14.1,6.045200116161948,10.7,2025-05-23 12:37:30
500104042,士林區,YouBike2.0_銘傳大學,25.08771,121.52677,26.0,5.4,4.501851470969102,20.6,2025-05-23 12:37:30
500104043,士林區,YouBike2.0_士林高商,25.09435,121.51702,26.0,15.9,8.198238293140246,9.9,2025-05-23 12:37:30
500104044,士林區,YouBike2.0_蘭雅公園,25.10991,121.53039,38.0,17.0,13.283239230114182,21.0,2025-05-23 12:37:30
500104045,士林區,YouBike2.0_聯合醫院陽明院區,25.10455,121.53195,25.0,9.1,4.2282121254470875,15.9,2025-05-23 12:37:30
500104046,士林區,YouBike2.0_捷運芝山站(1號出口),25.10225,121.52286,35.0,22.2,10.206751578135806,12.4,2025-05-23 12:37:30
500104047,士林區,YouBike2.0_至誠公園,25.10143,121.53585,20.0,8.3,2.7908580918579307,11.5,2025-05-23 12:37:30
500104048,士林區,YouBike2.0_原住民文化主題公園,25.10113,121.55159,21.0,8.0,3.0912061651652345,11.8,2025-05-23 12:37:30
500104049,士林區,YouBike2.0_通河東街2段10巷口,25.09106,121.51502,15.0,6.6,4.1952353926806065,8.2,2025-05-23 12:37:30
500104050,士林區,YouBike2.0_梅林新村,25.09755,121.54036,25.0,11.2,2.616188916046478,13.2,2025-05-23 12:37:30
500104051,士林區,YouBike2.0_延平北中正路口,25.08678,121.50948,30.0,13.5,6.867799259345505,16.1,2025-05-23 12:37:30
500104052,士林區,YouBike2.0_重慶北路四段190巷口,25.08505,121.51166,13.0,6.2,1.9321835661585918,6.8,2025-05-23 12:37:30
500104053,士林區,YouBike2.0_重慶北葫東街口,25.08393,121.51169,15.0,9.5,4.648775226993784,5.3,2025-05-23 12:37:30
500104054,士林區,YouBike2.0_葫蘆國小,25.08254,121.5075,30.0,14.0,3.464101615137754,16.0,2025-05-23 12:37:30
500104055,士林區,YouBike2.0_士林3號廣場,25.10459,121.52417,38.0,23.3,11.700427342623003,14.7,2025-05-23 12:37:30
500104056,士林區,YouBike2.0_社正公園,25.08824,121.51054,15.0,6.6,2.4585451886114367,8.3,2025-05-23 12:37:30
500104058,士林區,YouBike2.0_社中街384巷口,25.09346,121.50376,24.0,16.1,3.695342413844156,7.9,2025-05-23 12:37:30
500104059,士林區,YouBike2.0_忠誠路一段138號,25.10641,121.52944,15.0,8.5,3.1710495984067415,5.9,2025-05-23 12:37:30
500104060,士林區,YouBike2.0_社子公園,25.0902,121.50622,31.0,13.4,5.168279318217148,16.4,2025-05-23 12:37:30
500104061,士林區,YouBike2.0_國立故宮博物院,25.09833,121.54788,17.0,5.8,2.6997942308422114,11.2,2025-05-23 12:37:30
500104062,士林區,YouBike2.0_泰北高中,25.09763,121.53402,23.0,9.7,6.733828364641057,12.9,2025-05-23 12:37:30
500104063,士林區,YouBike2.0_後港公園,25.09312,121.51419,15.0,7.6,3.272783388968954,7.4,2025-05-23 12:37:30
500104064,士林區,YouBike2.0_重慶北路四段117號,25.08279,121.51219,24.0,11.7,2.94580681270476,12.3,2025-05-23 12:37:30
500104065,士林區,YouBike2.0_社子島島頭公園,25.10893,121.46639,22.0,10.7,2.869378562220979,10.7,2025-05-23 12:37:30
500104066,士林區,YouBike2.0_延平北路八段133巷口,25.10304,121.48297,22.0,8.0,2.309401076758503,13.8,2025-05-23 12:37:30
500104067,士林區,YouBike2.0_坤天亭,25.1064,121.4836,14.0,5.8,2.14993539954628,8.2,2025-05-23 12:37:30
500104068,士林區,YouBike2.0_社子島濕地解說小築,25.11314,121.48974,15.0,9.1,1.852925614624973,5.9,2025-05-23 12:37:30
500104069,士林區,YouBike2.0_福安國中,25.10261,121.48819,25.0,9.8,5.138093031466052,15.0,2025-05-23 12:37:30
500104070,士林區,YouBike2.0_福安消防分隊,25.09669,121.49706,20.0,9.0,1.247219128924647,11.0,2025-05-23 12:37:30
500104071,士林區,YouBike2.0_聖山綠地,25.10696,121.53234,15.0,8.6,3.0258148581093915,5.8,2025-05-23 12:37:30
500104072,士林區,YouBike2.0_芝山國小,25.11044,121.53595,38.0,22.4,2.3664319132398464,14.4,2025-05-23 12:37:30
500104073,士林區,YouBike2.0_士林新天地,25.08899,121.51751,29.0,9.1,6.314885412877875,19.1,2025-05-23 12:37:30
500104074,士林區,YouBike2.0_蘭雅國小,25.10775,121.52312,30.0,10.3,6.2012543533994435,19.7,2025-05-23 12:37:30
500104075,士林區,YouBike2.0_中正基河路口,25.0933,121.51962,37.0,14.2,8.162243700247023,22.4,2025-05-23 12:37:30
500104076,士林區,YouBike2.0_福林公園(中正路),25.09609,121.53006,45.0,8.8,4.565571644870382,36.2,2025-05-23 12:37:30
500104077,士林區,YouBike2.0_至善臨溪路口,25.09709,121.54229,48.0,20.3,10.822302075908906,27.3,2025-05-23 12:37:30
500104078,士林區,YouBike2.0_市立圖書館葫蘆堵分館,25.08217,121.51074,13.0,9.5,2.9907264074877267,3.5,2025-05-23 12:37:30
500104079,士林區,YouBike2.0_東山路110巷口,25.11306,121.53945,16.0,7.0,3.055050463303893,7.0,2025-05-23 12:37:30
500104080,士林區,YouBike2.0_永平社會住宅,25.08887,121.50314,15.0,6.5,3.472111109333276,8.5,2025-05-23 12:37:30
500104081,士林區,YouBike2.0_雨農橋,25.10012,121.53253,16.0,5.4,3.3065591380365986,10.6,2025-05-23 12:37:30
500104082,士林區,YouBike2.0_通河街76巷/承德路四段10巷口,25.08019,121.5202,14.0,4.8,3.359894178227774,8.2,2025-05-23 12:37:30
500104083,士林區,YouBike2.0_芝山聖佑宮,25.10455,121.53025,25.0,13.1,4.557045826702499,11.5,2025-05-23 12:37:30
500104084,士林區,YouBike2.0_至誠雨聲街口,25.10199,121.52927,9.0,5.1,2.378141197564929,3.9,2025-05-23 12:37:30
500104085,士林區,YouBike2.0_捷運線型公園(後街),25.09812,121.52449,28.0,13.2,5.473166867139678,14.3,2025-05-23 12:37:30
500104086,士林區,YouBike2.0_天母公園,25.12408,121.53003,12.0,6.9,1.66332999331662,5.1,2025-05-23 12:37:30
500104087,士林區,YouBike2.0_基河文林路口,25.08637,121.5247,50.0,10.0,7.788880963698615,39.4,2025-05-23 12:37:30
500104088,士林區,YouBike2.0_文林福華路口,25.10094,121.52243,19.0,6.2,1.6865480854231356,12.8,2025-05-23 12:37:30
500104089,士林區,YouBike2.0_劍潭海外青年活動中心_1,25.0796,121.5237,39.0,7.7,5.793674711844519,30.7,2025-05-23 12:37:30
500104090,士林區,YouBike2.0_社子國小_1,25.09029,121.50189,50.0,19.6,4.247875285886398,30.0,2025-05-23 12:37:30
500104091,士林區,YouBike2.0_捷運劍潭站(1號出口),25.08577,121.52531,70.0,17.1,10.89801205113422,52.9,2025-05-23 12:37:30
500104092,士林區,YouBike2.0_德行東山路口,25.1107,121.53999,12.0,5.8,2.616188916046478,6.2,2025-05-23 12:37:30
500104094,士林區,YouBike2.0_重慶北通河西街口,25.08756,121.51177,12.0,6.4,2.590581230363393,5.1,2025-05-23 12:37:30
500104095,士林區,YouBike2.0_葫蘆國小(延平北路五段285巷),25.08406,121.5067,25.0,8.8,7.177124153246278,16.0,2025-05-23 12:37:30
500104096,士林區,YouBike2.0_社子市場,25.0881,121.50873,15.0,5.6,1.1737877907772674,9.4,2025-05-23 12:37:30
500104097,士林區,YouBike2.0_士林區農會社子分部,25.08912,121.5049,8.0,5.0,0.9428090415820631,3.0,2025-05-23 12:37:30
500104098,士林區,YouBike2.0_承德劍潭路口,25.0841,121.52341,19.0,8.1,4.840798832148815,10.7,2025-05-23 12:37:30
500104099,士林區,YouBike2.0_文林路101巷口,25.08761,121.52608,17.0,8.5,3.6590830666833583,8.3,2025-05-23 12:37:30
500104100,士林區,YouBike2.0_延平北路五段257巷15弄口,25.08408,121.50959,11.0,6.2,3.359894178227774,4.8,2025-05-23 12:37:30
500104101,士林區,YouBike2.0_延平北路五段257巷4弄口,25.08471,121.5089,15.0,6.3,4.4484703987875305,8.7,2025-05-23 12:37:30
500104102,士林區,YouBike2.0_啟明學校,25.11742,121.53472,16.0,5.4,2.7968235951204043,10.6,2025-05-23 12:37:30
500104103,士林區,YouBike2.0_中山福國路口,25.10203,121.52561,14.0,4.7,3.497618237219913,9.3,2025-05-23 12:37:30
500104104,士林區,YouBike2.0_德行公園,25.10585,121.52376,14.0,3.9,2.183269719175042,9.3,2025-05-23 12:37:30
500104105,士林區,YouBike2.0_承德後港街口,25.08238,121.52309,20.0,7.3,4.4484703987875305,12.5,2025-05-23 12:37:30
500104106,士林區,YouBike2.0_中山北路五段698巷口,25.09765,121.52757,15.0,7.6,3.3065591380365986,7.1,2025-05-23 12:37:30
500104107,士林區,YouBike2.0_捷運士林站(1號出口),25.09561,121.52552,38.0,33.4,2.796823595120403,3.5,2025-05-23 12:37:30
500104108,士林區,YouBike2.0_捷運芝山站(2號出口)_1,25.10336,121.52263,62.0,38.7,13.60596274514311,22.2,2025-05-23 12:37:30
500104109,士林區,YouBike2.0_銘傳大學(中山北路五段280巷口),25.08762,121.52711,23.0,5.7,3.683295625749672,17.3,2025-05-23 12:37:30
500104110,士林區,YouBike2.0_海光公園南側,25.08036,121.5084,12.0,5.4,3.238655413730965,6.4,2025-05-23 12:37:30
500104111,士林區,YouBike2.0_士商路40巷口,25.09013,121.52054,15.0,5.3,2.750757471437035,9.1,2025-05-23 12:37:30
500104112,士林區,YouBike2.0_劍潭郵局,25.08182,121.52431,32.0,16.6,8.221921916437786,15.4,2025-05-23 12:37:30
500104113,士林區,YouBike2.0_士東路91巷口,25.11247,121.52914,16.0,9.9,4.605552204797065,6.1,2025-05-23 12:37:30
500104114,士林區,YouBike2.0_美崙公園,25.09677,121.51931,22.0,11.4,6.040603354706291,10.6,2025-05-23 12:37:30
500104115,士林區,YouBike2.0_臺北市立大學(忠誠路二段207巷),25.11642,121.53743,17.0,6.0,2.9439202887759484,11.0,2025-05-23 12:37:30
500104116,士林區,YouBike2.0_天母東路8巷/忠誠路二段154巷口,25.11579,121.53113,14.0,7.0,3.4641016151377544,5.8,2025-05-23 12:37:30
500104117,士林區,YouBike2.0_美崙公園(東北側),25.09886,121.51835,25.0,10.5,3.6285901761795403,14.1,2025-05-23 12:37:30
500104118,士林區,YouBike2.0_福安河濱公園,25.09646,121.49358,14.0,4.7,1.494434118097326,8.5,2025-05-23 12:37:30
500104119,士林區,YouBike2.0_忠誠忠義街口(北側),25.10566,121.52922,13.0,5.4,4.5995168828427575,6.8,2025-05-23 12:37:30
500104120,士林區,YouBike2.0_忠誠忠義街口(南側),25.10519,121.52869,14.0,5.3,1.946506842754191,8.1,2025-05-23 12:37:30
500104121,士林區,YouBike2.0_士林國小,25.09204,121.52472,15.0,6.7,3.713339317768966,7.9,2025-05-23 12:37:30
500104122,士林區,YouBike2.0_雙溪濕地公園,25.09762,121.51321,15.0,5.0,3.39934634239519,10.0,2025-05-23 12:37:30
500104123,士林區,YouBike2.0_劍潭海外青年活動中心(志清大樓),25.07793,121.52357,30.0,15.1,8.372574275573792,14.1,2025-05-23 12:37:30
500104124,士林區,YouBike2.0_天和一號公園,25.11836,121.53466,15.0,2.9,2.6012817353502227,11.5,2025-05-23 12:37:30
500104125,士林區,YouBike2.0_忠誠路二段178巷口,25.11633,121.53295,15.0,10.4,2.1705094128132942,4.4,2025-05-23 12:37:30
500104126,士林區,YouBike2.0_克強磺溪街口,25.10893,121.52319,14.0,5.2,5.072803301265814,8.8,2025-05-23 12:37:30
500104128,士林區,YouBike2.0_蘭雅公園(西側),25.10985,121.52859,15.0,5.3,2.110818693198342,8.3,2025-05-23 12:37:30
500104129,士林區,YouBike2.0_福林路100巷77弄口,25.09441,121.53285,18.0,8.0,3.711842908553348,9.9,2025-05-23 12:37:30
500104130,士林區,YouBike2.0_福林路100巷11弄口,25.09601,121.53262,15.0,8.2,2.250925735484551,6.8,2025-05-23 12:37:30
500104131,士林區,YouBike2.0_重慶北路四段190巷口(通河西街側),25.0848,121.51253,15.0,7.6,1.8378731669453625,7.4,2025-05-23 12:37:30
500104132,士林區,YouBike2.0_承德區民活動中心,25.07892,121.52157,25.0,9.0,6.21825270205921,15.2,2025-05-23 12:37:30
500104133,士林區,YouBike2.0_福林路255巷口,25.09854,121.53528,18.0,9.3,1.888562063228706,7.9,2025-05-23 12:37:30
500104134,士林區,YouBike2.0_中山北路五段378巷口,25.09064,121.52765,27.0,9.9,5.606543795720617,16.7,2025-05-23 12:37:30
500104135,士林區,YouBike2.0_中山北路六段405巷,25.11576,121.52693,21.0,7.6,5.719362823873925,13.2,2025-05-23 12:37:30
500104136,士林區,YouBike2.0_圓山育樂中心,25.08248,121.52548,22.0,7.5,2.2236106773543893,14.5,2025-05-23 12:37:30
500104137,士林區,YouBike2.0_至善公園,25.09862,121.53749,25.0,7.6,2.9514591494904883,17.0,2025-05-23 12:37:30
500104138,士林區,YouBike2.0_社子島抽水站,25.10844,121.49552,15.0,10.4,2.270584848790187,4.6,2025-05-23 12:37:30
500104139,士林區,YouBike2.0_中山北路六段427巷口,25.11383,121.52698,10.0,2.8,1.8737959096740262,7.2,2025-05-23 12:37:30
500104140,士林區,YouBike2.0_士林分局,25.09033,121.52687,24.0,7.9,4.817791102892602,15.9,2025-05-23 12:37:30
500105001,文山區,YouBike2.0_台北花木批發市場,25.00402,121.54074,40.0,18.5,10.64842189664219,21.3,2025-05-23 12:37:30
500105002,文山區,YouBike2.0_捷運萬隆站(4號出口),25.0027,121.53861,22.0,10.9,4.5325979795746765,11.1,2025-05-23 12:37:30
500105003,文山區,YouBike2.0_捷運萬隆站(1號出口),25.00115,121.53916,34.0,15.6,6.2574400161372346,18.4,2025-05-23 12:37:30
500105004,文山區,YouBike2.0_萬和二號公園,25.00154,121.5364,35.0,22.1,8.5693251387337,12.5,2025-05-23 12:37:30
500105005,文山區,YouBike2.0_捷運萬隆站(2號出口),25.00144,121.53983,18.0,16.6,1.264911064067352,1.4,2025-05-23 12:37:30
500105006,文山區,YouBike2.0_景仁公園,24.99621,121.54043,16.0,6.9,4.408325456829762,8.9,2025-05-23 12:37:30
500105007,文山區,YouBike2.0_捷運景美站(2號出口),24.99366,121.54124,63.0,31.5,15.36409956865535,31.3,2025-05-23 12:37:30
500105008,文山區,YouBike2.0_羅斯福景隆街口,24.99898,121.5403,50.0,21.8,13.0877381120226,28.2,2025-05-23 12:37:30
500105009,文山區,YouBike2.0_景福街/羅斯福路6段142巷口,24.998336212959,121.53686287812,28.0,10.6,5.929212051829109,16.8,2025-05-23 12:37:30
500105010,文山區,YouBike2.0_興旺公園,25.00587,121.55012,30.0,12.6,7.15231120376872,17.2,2025-05-23 12:37:30
500105011,文山區,YouBike2.0_興福國中,25.00465,121.54916,25.0,10.5,8.720983634634086,14.5,2025-05-23 12:37:30
500105012,文山區,YouBike2.0_興隆路2段203巷,25.00346,121.54709,32.0,18.4,7.604092465391398,11.4,2025-05-23 12:37:30
500105013,文山區,YouBike2.0_景美運動公園,25.00219,121.54454,26.0,8.7,7.469196000165539,17.3,2025-05-23 12:37:30
500105014,文山區,YouBike2.0_景美醫院,24.99136,121.54008,18.0,7.2,2.616188916046478,10.8,2025-05-23 12:37:30
500105015,文山區,YouBike2.0_師範大學公館校區,25.00792,121.53731,14.0,3.2,2.485513584307633,10.8,2025-05-23 12:37:30
500105016,文山區,YouBike2.0_景華街128巷口,24.99543,121.54725,29.0,9.3,5.250396810400778,19.7,2025-05-23 12:37:30
500105017,文山區,YouBike2.0_仙跡岩登山口(景興路),24.99118,121.5436,22.0,11.4,4.195235392680606,10.4,2025-05-23 12:37:30
500105018,文山區,YouBike2.0_國立政治大學,24.98737,121.57726,62.0,29.1,17.425715352764016,31.8,2025-05-23 12:37:30
500105019,文山區,YouBike2.0_捷運動物園站,24.99873,121.57985,57.0,20.9,7.563802688536442,35.9,2025-05-23 12:37:30
500105020,文山區,YouBike2.0_捷運木柵站,24.99798,121.57455,31.0,13.5,9.312476696465996,17.2,2025-05-23 12:37:30
500105021,文山區,YouBike2.0_捷運萬芳社區站,24.99886,121.56769,48.0,9.5,4.27525177946022,38.5,2025-05-23 12:37:30
500105022,文山區,YouBike2.0_文山運動中心,24.99676,121.5596,36.0,25.2,4.3410188256265885,10.8,2025-05-23 12:37:30
500105023,文山區,YouBike2.0_捷運辛亥站,25.00467,121.55684,42.0,18.0,7.46845216746936,22.2,2025-05-23 12:37:30
500105024,文山區,YouBike2.0_興豐公園,24.99982,121.54761,25.0,11.4,7.7056977476266075,13.6,2025-05-23 12:37:30
500105025,文山區,YouBike2.0_木柵光輝路口,24.98816,121.55528,33.0,17.6,4.765617600176404,15.2,2025-05-23 12:37:30
500105026,文山區,YouBike2.0_考試院,24.98747,121.54984,39.0,22.6,4.671426144361294,16.2,2025-05-23 12:37:30
500105027,文山區,YouBike2.0_和興路26巷口,24.98573,121.54532,39.0,16.9,9.36245456894481,21.9,2025-05-23 12:37:30
500105028,文山區,YouBike2.0_世新大學,24.98859,121.54336,30.0,10.9,5.566766466171263,19.1,2025-05-23 12:37:30
500105029,文山區,YouBike2.0_一壽橋,24.97837,121.55548,28.0,18.3,3.301514803843835,8.3,2025-05-23 12:37:30
500105030,文山區,YouBike2.0_臺北市立景美女中,24.98058,121.55624,25.0,13.8,3.938414796731181,11.0,2025-05-23 12:37:30
500105031,文山區,YouBike2.0_永安藝文館_表演36房,24.98414,121.56907,29.0,13.1,5.2588549662027715,15.9,2025-05-23 12:37:30
500105032,文山區,YouBike2.0_忠順區民活動中心,24.98471,121.56332,31.0,16.5,6.328945848682508,14.5,2025-05-23 12:37:30
500105033,文山區,YouBike2.0_景文中學,24.98574,121.56745,36.0,13.8,7.37563556583431,22.2,2025-05-23 12:37:30
500105034,文山區,YouBike2.0_老泉街籃球場,24.97619,121.5583,20.0,14.8,2.0976176963403024,5.2,2025-05-23 12:37:30
500105035,文山區,YouBike2.0_文山行政中心,24.98959,121.56959,27.0,18.1,4.931756504757937,8.9,2025-05-23 12:37:30
500105036,文山區,YouBike2.0_木柵公園,24.98718,121.56059,38.0,8.7,6.290204024248075,29.3,2025-05-23 12:37:30
500105037,文山區,YouBike2.0_興隆公共住宅D2區,24.98814,121.56356,27.0,14.1,2.726414006223804,12.7,2025-05-23 12:37:30
500105038,文山區,YouBike2.0_木新路3段95巷口,24.98088,121.56313,24.0,11.9,5.762908216439952,10.9,2025-05-23 12:37:30
500105039,文山區,YouBike2.0_樟腳里公園,24.98181,121.56567,15.0,9.2,2.7406406388125952,5.6,2025-05-23 12:37:30
500105040,文山區,YouBike2.0_實踐國中,24.98301,121.55404,13.0,5.9,2.183269719175042,7.1,2025-05-23 12:37:30
500105041,文山區,YouBike2.0_指南路3段2巷,24.98537,121.57959,13.0,5.5,3.4075080500434787,7.2,2025-05-23 12:37:30
500105042,文山區,YouBike2.0_萊茵公園,24.98642,121.56514,21.0,7.9,3.634709219609061,13.1,2025-05-23 12:37:30
500105043,文山區,YouBike2.0_木柵社會住宅,24.98935,121.56651,12.0,6.7,2.057506581601462,5.1,2025-05-23 12:37:30
500105044,文山區,YouBike2.0_秀明路一段185巷口,24.99151,121.56836,20.0,10.3,3.772709017845577,9.5,2025-05-23 12:37:30
500105045,文山區,YouBike2.0_秀明路一段129巷口,24.99111,121.56703,22.0,11.8,1.6865480854231358,10.2,2025-05-23 12:37:30
500105046,文山區,YouBike2.0_恆光橋(老泉街),24.97989,121.56753,13.0,2.1,1.911950719959998,10.9,2025-05-23 12:37:30
500105047,文山區,YouBike2.0_萬有3號公園,24.99889,121.5433,14.0,6.4,3.533962208186286,7.6,2025-05-23 12:37:30
500105048,文山區,YouBike2.0_捷運萬芳醫院站(興隆路三段115巷),24.99939,121.55848,20.0,9.2,3.6147844564602556,10.8,2025-05-23 12:37:30
500105049,文山區,YouBike2.0_興得閱覽室,24.99579,121.55498,24.0,10.8,2.573367875415838,9.8,2025-05-23 12:37:30
500105050,文山區,YouBike2.0_辛亥生態公園,25.00348,121.55642,23.0,9.5,8.449194570424384,13.5,2025-05-23 12:37:30
500105051,文山區,YouBike2.0_博嘉運動公園,25.00079,121.57534,12.0,4.8,3.8528488738133038,7.2,2025-05-23 12:37:30
500105053,文山區,YouBike2.0_仙岩公園,24.99797,121.54982,20.0,10.2,5.159672685570493,9.4,2025-05-23 12:37:30
500105054,文山區,YouBike2.0_政大一街口,24.98543,121.58006,14.0,7.6,2.1705094128132942,6.4,2025-05-23 12:37:30
500105055,文山區,YouBike2.0_文山第二行政中心,25.00115,121.55142,38.0,17.7,5.478239782184702,20.2,2025-05-23 12:37:30
500105056,文山區,YouBike2.0_移民署訓練中心,24.99271,121.55865,13.0,7.1,2.64365067451978,5.9,2025-05-23 12:37:30
500105057,文山區,YouBike2.0_海巡署(南側),24.99472,121.55949,10.0,4.0,2.581988897471611,6.0,2025-05-23 12:37:30
500105058,文山區,YouBike2.0_明道國小東南側,24.98695,121.56456,28.0,5.0,3.5901098714230026,23.0,2025-05-23 12:37:30
500105059,文山區,YouBike2.0_木南公園,24.98662,121.57071,17.0,4.4,1.837873166945363,12.4,2025-05-23 12:37:30
500105060,文山區,YouBike2.0_實踐國中(木新路三段310巷口),24.98339,121.55645,17.0,10.2,1.4757295747452437,6.8,2025-05-23 12:37:30
500105061,文山區,YouBike2.0_師範大學公館校區_1,25.00753,121.53719,34.0,12.3,8.769264507357502,21.5,2025-05-23 12:37:30
500105063,文山區,YouBike2.0_政大水岸電梯,24.982,121.5717,10.0,6.5,1.1785113019775793,3.5,2025-05-23 12:37:30
500105064,文山區,YouBike2.0_敦南山林,25.00264,121.5768,14.0,6.2,4.391911757866827,7.8,2025-05-23 12:37:30
500105066,文山區,YouBike2.0_景美污水抽水站,25.01076,121.53637,15.0,6.0,5.185449728701348,8.4,2025-05-23 12:37:30
500105067,文山區,YouBike2.0_萬和三號公園(北側),25.00345,121.53636,13.0,5.9,3.142893217686178,7.1,2025-05-23 12:37:30
500105068,文山區,YouBike2.0_景興國中,24.99609,121.54284,10.0,5.0,3.496029493900505,5.0,2025-05-23 12:37:30
500105069,文山區,YouBike2.0_景仁公園_1,24.9966,121.5403,30.0,14.5,5.482294734466175,15.5,2025-05-23 12:37:30
500105070,文山區,YouBike2.0_師大公館校區學二舍,25.00825,121.53419,40.0,7.4,12.029593139882625,32.6,2025-05-23 12:37:30
500105071,文山區,YouBike2.0_景行公園,24.99279,121.54255,15.0,6.7,4.029061098237818,8.3,2025-05-23 12:37:30
500105072,文山區,YouBike2.0_萬興國小,24.98939,121.57682,25.0,17.0,6.896053621859067,7.8,2025-05-23 12:37:30
500105073,文山區,YouBike2.0_辛亥路四段77巷口,25.00743,121.55877,14.0,6.7,3.4009802508492553,7.1,2025-05-23 12:37:30
500105074,文山區,YouBike2.0_景興路42巷口,24.99696,121.54454,12.0,1.6,1.2649110640673518,10.2,2025-05-23 12:37:30
500105075,文山區,YouBike2.0_木柵路三段48巷,24.98768,121.56565,15.0,11.9,2.078995483935023,3.1,2025-05-23 12:37:30
500105076,文山區,YouBike2.0_木柵路二段109巷,24.98944,121.56195,15.0,7.2,2.3944379994757297,6.5,2025-05-23 12:37:30
500105077,文山區,YouBike2.0_試院公園,24.98808,121.54723,15.0,7.7,4.295992965026311,5.7,2025-05-23 12:37:30
500105079,文山區,YouBike2.0_樟樹公園,24.9825,121.55949,15.0,5.3,2.263232692902394,9.7,2025-05-23 12:37:30
500105080,文山區,YouBike2.0_萬美萬安街口,25.00223,121.57039,25.0,10.2,6.44291169511977,14.6,2025-05-23 12:37:30
500105081,文山區,YouBike2.0_興隆路二段203巷(敦南),25.00198,121.54856,27.0,13.0,6.253887679764573,13.6,2025-05-23 12:37:30
500105082,文山區,YouBike2.0_新光秀明路口,24.99197,121.57371,15.0,7.5,2.8771127502720115,7.5,2025-05-23 12:37:30
500105083,文山區,YouBike2.0_光輝路134巷口,24.98532,121.55831,15.0,6.6,3.470510689285432,7.6,2025-05-23 12:37:30
500105084,文山區,YouBike2.0_光輝公園,24.98655,121.5552,27.0,9.4,5.037636129950017,17.4,2025-05-23 12:37:30
500105085,文山區,YouBike2.0_木新公園,24.98217,121.55782,12.0,4.5,3.5355339059327378,7.5,2025-05-23 12:37:30
500105086,文山區,YouBike2.0_興隆路二段275巷1弄口,25.00268,121.55277,16.0,6.0,1.3333333333333333,7.8,2025-05-23 12:37:30
500105087,文山區,YouBike2.0_中國科技大學,24.99925,121.55553,21.0,12.4,5.378971401051816,8.6,2025-05-23 12:37:30
500105088,文山區,YouBike2.0_樟新街8巷,24.97932,121.55406,17.0,8.5,4.552166761249222,8.3,2025-05-23 12:37:30
500105089,文山區,YouBike2.0_仙岩路22巷口,24.99892,121.54887,28.0,17.4,6.569288816573341,9.6,2025-05-23 12:37:30
500105090,文山區,YouBike2.0_木柵萬芳路口,24.99509,121.57199,29.0,10.0,7.688375063113864,18.4,2025-05-23 12:37:30
500105091,文山區,YouBike2.0_福興路78巷,25.00437,121.55048,14.0,7.4,3.7475918193480524,6.0,2025-05-23 12:37:30
500105092,文山區,YouBike2.0_辛亥木柵路口,24.98839,121.55238,20.0,9.5,2.2236106773543898,7.7,2025-05-23 12:37:30
500105093,文山區,YouBike2.0_興泰公園,25.00492,121.55582,12.0,4.1,2.923088169119167,7.7,2025-05-23 12:37:30
500105094,文山區,YouBike2.0_興岩社會福利綜合大樓,25.00061,121.54941,18.0,7.3,3.7133393177689658,10.7,2025-05-23 12:37:30
500105095,文山區,YouBike2.0_興隆路二段22巷9弄口,24.99746,121.54543,13.0,5.5,3.9510898637098992,7.1,2025-05-23 12:37:30
500105096,文山區,YouBike2.0_木新路三段155巷口,24.98184,121.56125,15.0,11.1,4.458450154232722,3.9,2025-05-23 12:37:30
500105097,文山區,YouBike2.0_景興路102巷口,24.99438,121.54376,14.0,7.0,1.4142135623730951,6.4,2025-05-23 12:37:30
500105098,文山區,YouBike2.0_景福街223巷,24.99442,121.53844,18.0,10.1,1.9119507199599983,7.1,2025-05-23 12:37:30
500105100,文山區,YouBike2.0_達賢圖書館,24.9884,121.57786,27.0,5.3,2.2135943621178655,21.5,2025-05-23 12:37:30
500105101,文山區,YouBike2.0_捷運木柵站(西側),24.9983,121.57279,26.0,6.5,4.972144630058765,19.5,2025-05-23 12:37:30
500105102,文山區,YouBike2.0_世新大學(試院路),24.98981,121.54783,16.0,8.4,5.796550698475775,7.6,2025-05-23 12:37:30
500105103,文山區,YouBike2.0_興隆社會住宅D1區,24.98783,121.55831,31.0,7.1,4.357624225296266,23.7,2025-05-23 12:37:30
500105104,文山區,YouBike2.0_名門社區,25.00516,121.56757,18.0,9.8,3.3266599866332403,8.2,2025-05-23 12:37:30
500105106,文山區,YouBike2.0_政大國際會館,24.98994,121.57513,20.0,13.2,2.299758441421379,6.4,2025-05-23 12:37:30
500105107,文山區,YouBike2.0_萬芳出租國宅,25.00335,121.5655,36.0,7.6,2.170509412813294,28.2,2025-05-23 12:37:30
500105108,文山區,YouBike2.0_景美國小,24.9893,121.53976,25.0,9.3,6.945022198188666,15.7,2025-05-23 12:37:30
500105109,文山區,YouBike2.0_景文街142巷口,24.98826,121.54065,16.0,7.2,4.2895221179054435,8.8,2025-05-23 12:37:30
500105110,文山區,YouBike2.0_保儀路142巷,24.98327,121.56515,22.0,12.3,4.270050741306634,9.7,2025-05-23 12:37:30
500105111,文山區,YouBike2.0_和興水岸社會住宅,24.98505,121.54953,29.0,11.8,2.616188916046478,16.0,2025-05-23 12:37:30
500105112,文山區,YouBike2.0_萬芳路107巷口,24.99715,121.56179,20.0,3.5,1.2692955176439848,16.5,2025-05-23 12:37:30
500105113,文山區,YouBike2.0_考選部國家考場,24.98703,121.54884,26.0,7.7,2.6267851073127395,18.3,2025-05-23 12:37:30
500105114,文山區,YouBike2.0_明道國小(明道國宅),24.98686,121.56301,26.0,7.3,6.254775952999614,18.7,2025-05-23 12:37:30
500105115,文山區,YouBike2.0_興隆社會住宅A區,24.988,121.56018,30.0,6.0,3.711842908553348,24.0,2025-05-23 12:37:30
500106001,中正區,YouBike2.0_臺北自來水事業處,25.013741,121.53068,20.0,7.2,5.996295152471696,12.8,2025-05-23 12:37:30
500106002,中正區,YouBike2.0_汀州思源街口東南側,25.014697,121.531908,20.0,6.9,4.121757985239902,13.1,2025-05-23 12:37:30
500106003,中正區,YouBike2.0_捷運公館站(1號出口),25.014529,121.534374,12.0,8.0,3.3333333333333335,4.0,2025-05-23 12:37:30
500106004,中正區,YouBike2.0_捷運公館站(4號出口),25.015069,121.533828,12.0,7.3,4.9452558635075246,4.7,2025-05-23 12:37:30
500106005,中正區,YouBike2.0_捷運古亭站(9號出口),25.02694,121.52224,24.0,14.8,3.6453928305312844,9.2,2025-05-23 12:37:30
500106006,中正區,YouBike2.0_捷運古亭站(2號出口),25.0255,121.52346,55.0,22.3,14.537690478354683,32.3,2025-05-23 12:37:30
500106007,中正區,YouBike2.0_捷運臺電大樓站(1號出口),25.0197,121.529,34.0,13.8,11.99814800523629,20.2,2025-05-23 12:37:30
500106008,中正區,YouBike2.0_客家文化主題公園,25.02069,121.52456,31.0,11.1,5.466056876558985,19.9,2025-05-23 12:37:30
500106009,中正區,YouBike2.0_河堤國小,25.02277,121.52289,39.0,17.5,14.660983747499499,21.5,2025-05-23 12:37:30
500106010,中正區,YouBike2.0_紀州庵,25.02092,121.52049,45.0,19.8,15.317383008275996,25.0,2025-05-23 12:37:30
500106011,中正區,YouBike2.0_捷運臺電大樓站(5號出口),25.02075,121.52771,21.0,4.7,3.3681514877517675,16.1,2025-05-23 12:37:30
500106012,中正區,YouBike2.0_捷運臺電大樓站(4號出口),25.02102,121.52751,13.0,5.4,2.716206504995115,7.6,2025-05-23 12:37:30
500106013,中正區,YouBike2.0_羅斯福三段金門街口,25.02345,121.52498,15.0,4.9,3.7549966711037173,9.3,2025-05-23 12:37:30
500106014,中正區,YouBike2.0_牯嶺公園,25.02338,121.51889,58.0,26.6,15.45027867422174,27.0,2025-05-23 12:37:30
500106015,中正區,YouBike2.0_捷運古亭站(8號出口),25.02701,121.52164,15.0,11.0,2.6666666666666665,4.0,2025-05-23 12:37:30
500106016,中正區,YouBike2.0_捷運古亭站(7號出口),25.02805,121.52155,12.0,6.6,2.011080417199781,5.4,2025-05-23 12:37:30
500106017,中正區,YouBike2.0_南昌公園,25.02698,121.52081,55.0,15.6,13.809819372863322,39.4,2025-05-23 12:37:30
500106018,中正區,YouBike2.0_和平重慶路口,25.02723,121.51659,69.0,18.3,11.860766323378005,50.7,2025-05-23 12:37:30
500106019,中正區,YouBike2.0_孫立人將軍官邸,25.02933,121.51854,23.0,10.8,9.211104409594132,12.2,2025-05-23 12:37:30
500106020,中正區,YouBike2.0_羅斯福路二段6巷口,25.02923,121.52058,22.0,8.3,4.029061098237817,13.7,2025-05-23 12:37:30
500106021,中正區,YouBike2.0_金華杭州南路口,25.031,121.52211,35.0,14.3,9.809858986414296,20.7,2025-05-23 12:37:30
500106022,中正區,YouBike2.0_捷運中正紀念堂站(3號出口),25.03239,121.51866,36.0,14.4,4.671426144361293,21.6,2025-05-23 12:37:30
500106023,中正區,YouBike2.0_捷運中正紀念堂站(4號出口),25.03376,121.51772,22.6,6.9,3.6040101122068022,15.7,2025-05-23 12:37:30
500106025,中正區,YouBike2.0_螢橋國小,25.02609,121.51389,41.0,20.3,12.37425643108394,20.1,2025-05-23 12:37:30
500106026,中正區,YouBike2.0_古亭智慧圖書館,25.02543,121.51052,21.0,11.7,4.967673276069772,8.7,2025-05-23 12:37:30
500106027,中正區,YouBike2.0_永昌公園,25.02643,121.50936,29.0,11.8,7.330302403948512,14.2,2025-05-23 12:37:30
500106028,中正區,YouBike2.0_中華路二段409巷口,25.02598,121.50806,15.0,7.3,2.907843798341918,4.9,2025-05-23 12:37:30
500106029,中正區,YouBike2.0_南機場夜市(中華路二段),25.02886,121.50518,41.0,21.4,10.895462868144296,18.6,2025-05-23 12:37:30
500106030,中正區,YouBike2.0_南海和平路口西南側,25.03024,121.50904,19.0,7.8,6.250333324444918,11.2,2025-05-23 12:37:30
500106031,中正區,YouBike2.0_莒光和平路口,25.03132,121.50745,20.0,5.7,2.8303906287138374,14.3,2025-05-23 12:37:30
500106037,中正區,YouBike2.0_水源路11_1號旁,25.01602,121.52565,31.0,10.4,6.818276093624318,20.4,2025-05-23 12:37:30
500106038,中正區,YouBike2.0_南門國中,25.03543,121.50834,40.0,22.1,9.859569519563777,14.9,2025-05-23 12:37:30
500106039,中正區,YouBike2.0_捷運小南門站(2號出口),25.03567,121.51006,24.0,13.6,5.89161362540952,10.2,2025-05-23 12:37:30
500106040,中正區,YouBike2.0_介壽公園,25.03907,121.5138,35.0,14.9,10.733643887846807,20.1,2025-05-23 12:37:30
500106041,中正區,YouBike2.0_中華貴陽街口,25.03938,121.50772,20.0,5.2,5.473166867139677,14.8,2025-05-23 12:37:30
500106042,中正區,YouBike2.0_華山文創園區,25.04367,121.52849,39.0,17.9,11.892574714221194,20.7,2025-05-23 12:37:30
500106043,中正區,YouBike2.0_捷運善導寺站(1號出口),25.04527,121.5222,46.0,12.4,6.947421584060281,33.0,2025-05-23 12:37:30
500106044,中正區,YouBike2.0_濟南紹興路口,25.04193,121.52459,39.0,12.8,4.491968140779471,25.8,2025-05-23 12:37:30
500106046,中正區,YouBike2.0_林森仁愛路口,25.03915,121.52163,13.0,7.4,3.864367132317183,5.4,2025-05-23 12:37:30
500106047,中正區,YouBike2.0_中正運動中心,25.03786,121.51985,40.0,14.8,9.975525605756877,25.2,2025-05-23 12:37:30
500106048,中正區,YouBike2.0_信義杭州路口,25.0357,121.5241,59.0,1.9,1.4491376746189437,56.9,2025-05-23 12:37:30
500106049,中正區,YouBike2.0_捷運善導寺站(3號出口),25.04428,121.52336,20.0,9.5,6.883958809354461,10.5,2025-05-23 12:37:30
500106050,中正區,YouBike2.0_捷運小南門站(1號出口),25.03648,121.50951,46.0,20.4,6.2574400161372346,25.6,2025-05-23 12:37:30
500106051,中正區,YouBike2.0_延平南路133巷口,25.03792,121.50846,36.0,16.1,9.409805760186789,19.9,2025-05-23 12:37:30
500106052,中正區,YouBike2.0_捷運西門站(2號出口),25.0416,121.50842,36.0,8.6,8.435375246872871,27.4,2025-05-23 12:37:30
500106053,中正區,YouBike2.0_寶慶博愛路口,25.04129,121.5112,47.0,20.0,9.754120008635178,25.0,2025-05-23 12:37:30
500106054,中正區,YouBike2.0_法務部,25.03705,121.51249,27.0,3.6,2.3190036174568114,20.0,2025-05-23 12:37:30
500106055,中正區,YouBike2.0_臺北市立大學(博愛校區),25.03545,121.51327,81.0,25.5,17.50079363279785,54.7,2025-05-23 12:37:30
500106056,中正區,YouBike2.0_國家圖書館,25.03763,121.51709,36.0,8.5,8.74642784226795,25.7,2025-05-23 12:37:30
500106057,中正區,YouBike2.0_市民金山路口,25.0459,121.53068,70.0,16.6,8.044321668799123,53.4,2025-05-23 12:37:30
500106058,中正區,YouBike2.0_聯合醫院和平院區,25.03516,121.50641,32.0,11.4,10.319345371140985,20.4,2025-05-23 12:37:30
500106059,中正區,YouBike2.0_中山堂,25.04412,121.51025,43.0,19.2,13.53021310499826,23.6,2025-05-23 12:37:30
500106060,中正區,YouBike2.0_中華漢口街口,25.04533,121.50944,19.0,9.9,5.258854966202772,8.9,2025-05-23 12:37:30
500106061,中正區,YouBike2.0_中華路一段21巷口,25.04677,121.50989,22.0,7.6,6.203941399536982,14.2,2025-05-23 12:37:30
500106062,中正區,YouBike2.0_捷運臺大醫院站(4號出口),25.04297,121.51643,60.0,26.4,17.582819897717076,33.0,2025-05-23 12:37:30
500106063,中正區,YouBike2.0_寶藏巖觀音亭,25.01027,121.5331,23.0,10.6,4.926120853842978,12.4,2025-05-23 12:37:30
500106064,中正區,YouBike2.0_師大水源路口,25.0203,121.52302,28.0,11.1,6.690789689316701,16.3,2025-05-23 12:37:30
500106065,中正區,YouBike2.0_中山徐州路口,25.04178,121.51907,41.0,18.8,10.293471501663351,14.4,2025-05-23 12:37:30
500106066,中正區,YouBike2.0_信義連雲街口,25.03377,121.53041,39.0,16.1,9.230986464680312,21.9,2025-05-23 12:37:30
500106067,中正區,YouBike2.0_臺北轉運站,25.04842,121.51994,68.0,25.8,11.698053019389356,41.8,2025-05-23 12:37:30
500106068,中正區,YouBike2.0_莒光大埔街口,25.03132,121.50519,32.0,8.2,6.47731082746193,23.8,2025-05-23 12:37:30
500106069,中正區,YouBike2.0_捷運忠孝新生站(2號出口),25.04235,121.53222,32.0,13.5,8.74642784226795,18.5,2025-05-23 12:37:30
500106070,中正區,YouBike2.0_光華商場,25.04478,121.53274,39.0,23.8,9.472767986883946,14.6,2025-05-23 12:37:30
500106071,中正區,YouBike2.0_中山青島路口,25.04503,121.51968,40.0,18.3,8.000694414306244,21.7,2025-05-23 12:37:30
500106072,中正區,YouBike2.0_捷運中正紀念堂站(5號出口),25.03526,121.5168,29.0,6.0,3.527668414752787,22.6,2025-05-23 12:37:30
500106073,中正區,YouBike2.0_北平東杭州北路口,25.04553,121.52736,20.0,3.8,2.485513584307633,16.2,2025-05-23 12:37:30
500106074,中正區,YouBike2.0_王貫英先生紀念圖書館,25.02266,121.52362,15.0,4.1,3.4464152068167553,10.7,2025-05-23 12:37:30
500106075,中正區,YouBike2.0_金山信義路口,25.03443,121.52721,25.0,5.4,5.274677451960662,19.6,2025-05-23 12:37:30
500106077,中正區,YouBike2.0_林森徐州路口,25.04094,121.52215,32.0,11.0,11.254628677422755,19.8,2025-05-23 12:37:30
500106078,中正區,YouBike2.0_徐州杭州路口,25.04023,121.52565,30.0,5.0,2.7888667551135846,24.8,2025-05-23 12:37:30
500106079,中正區,YouBike2.0_捷運中正紀念堂站(6號出口),25.03615,121.5166,17.0,5.7,4.110960958218893,11.3,2025-05-23 12:37:30
500106080,中正區,YouBike2.0_捷運臺北車站(M2出口),25.04821,121.51903,20.0,6.3,2.496664441476534,13.3,2025-05-23 12:37:30
500106083,中正區,YouBike2.0_臺北市國父史蹟館(逸仙公園),25.04779,121.52042,31.0,9.8,5.349974039397035,21.2,2025-05-23 12:37:30
500106084,中正區,YouBike2.0_捷運西門站(5號出口),25.04244,121.50864,30.0,9.6,6.963396361610395,19.2,2025-05-23 12:37:30
500106085,中正區,YouBike2.0_弘道國中,25.03828,121.51524,33.0,11.4,10.813571719526038,21.0,2025-05-23 12:37:30
500106086,中正區,YouBike2.0_臺北市第一女子高級中學,25.0385,121.51288,28.0,10.2,4.984420171338332,17.8,2025-05-23 12:37:30
500106087,中正區,YouBike2.0_台北市替代役中心,25.01808,121.5275,15.0,7.9,4.532597979574677,7.1,2025-05-23 12:37:30
500106088,中正區,YouBike2.0_紹興徐州路口,25.04051,121.52401,18.0,3.7,2.8303906287138374,13.9,2025-05-23 12:37:30
500106089,中正區,YouBike2.0_羅斯福寧波東街口,25.03145,121.51941,26.0,9.4,7.152311203768719,16.6,2025-05-23 12:37:30
500106090,中正區,YouBike2.0_自來水園區,25.01328,121.53004,40.0,7.0,5.291502622129181,33.0,2025-05-23 12:37:30
500106091,中正區,YouBike2.0_仁愛林森路口,25.03895,121.52233,31.0,14.2,9.484490263348661,16.8,2025-05-23 12:37:30
500106092,中正區,YouBike2.0_捷運西門站(3號出口),25.04178,121.50869,36.0,10.2,4.417138339593985,25.2,2025-05-23 12:37:30
500106093,中正區,YouBike2.0_仁愛金山路口,25.0384,121.52801,9.0,3.4,1.837873166945363,5.4,2025-05-23 12:37:30
500106094,中正區,YouBike2.0_杭州南路一段101巷口,25.03746,121.52799,14.0,2.8,2.394437999475729,10.8,2025-05-23 12:37:30
500106095,中正區,YouBike2.0_仁愛杭州路口,25.03846,121.52497,25.0,8.4,6.1137368096588665,16.6,2025-05-23 12:37:30
500106096,中正區,YouBike2.0_龍興里活動中心,25.02815,121.51108,21.0,6.7,3.6224607965059086,13.9,2025-05-23 12:37:30
500106097,中正區,YouBike2.0_植物園,25.0299,121.51033,29.0,13.2,6.613118276073196,15.4,2025-05-23 12:37:30
500106098,中正區,YouBike2.0_郵政博物館,25.03158,121.51464,24.0,10.8,6.460134157533676,12.8,2025-05-23 12:37:30
500106099,中正區,YouBike2.0_林森北平路口,25.04659,121.52377,20.0,5.6,4.221637386396684,14.2,2025-05-23 12:37:30
500106100,中正區,YouBike2.0_北平紹興路口,25.04597,121.52579,39.0,7.3,4.738729318662921,31.5,2025-05-23 12:37:30
500106101,中正區,YouBike2.0_天津北平路口,25.04692,121.52208,25.0,9.5,5.778311941119905,15.5,2025-05-23 12:37:30
500106102,中正區,YouBike2.0_捷運忠孝新生站(1號出口),25.04272,121.53207,19.0,6.6,5.146735750831676,12.4,2025-05-23 12:37:30
500106103,中正區,YouBike2.0_捷運忠孝新生站(5號出口),25.04113,121.53273,13.0,3.6,3.3730961708462712,9.2,2025-05-23 12:37:30
500106104,中正區,YouBike2.0_捷運臺大醫院站(1號出口),25.04074,121.51586,19.0,4.8,4.661902329879224,14.2,2025-05-23 12:37:30
500106105,中正區,YouBike2.0_臺大醫院兒童醫院,25.04461,121.5188,22.0,9.9,6.983313444681304,12.1,2025-05-23 12:37:30
500106106,中正區,YouBike2.0_林森濟南路口(東北側),25.0425,121.5227,26.0,5.9,6.822348894951389,19.8,2025-05-23 12:37:30
500106107,中正區,YouBike2.0_仁愛紹興街口(南側),25.03837,121.52345,17.0,4.0,2.538591035287969,12.6,2025-05-23 12:37:30
500106108,中正區,YouBike2.0_中華南海路口,25.02703,121.50686,15.0,10.2,3.6453928305312844,3.4,2025-05-23 12:37:30
500106109,中正區,YouBike2.0_立法院台北會館,25.03371,121.51068,15.0,4.7,2.94580681270476,10.3,2025-05-23 12:37:30
500106110,中正區,YouBike2.0_捷運善導寺站(3號出口)(忠孝東路側),25.04467,121.52357,31.0,8.9,5.300943312279428,21.7,2025-05-23 12:37:30
500106111,中正區,YouBike2.0_國家音樂廳,25.03788,121.51904,22.0,6.2,4.391911757866827,15.2,2025-05-23 12:37:30
500106112,中正區,YouBike2.0_忠孝西重慶南路口,25.04724,121.51272,33.0,13.2,5.493430419854044,19.4,2025-05-23 12:37:30
500106113,中正區,YouBike2.0_濟南路二段8巷口,25.04127,121.52697,14.0,5.0,2.9814239699997196,8.8,2025-05-23 12:37:30
500106114,中正區,YouBike2.0_仁愛金山路口(東南側),25.03811,121.52855,14.0,3.1,2.1832697191750423,10.9,2025-05-23 12:37:30
500106115,中正區,YouBike2.0_臺灣文學基地,25.04148,121.5287,23.0,4.2,2.6997942308422114,18.4,2025-05-23 12:37:30
500106116,中正區,YouBike2.0_重慶南詔安街口,25.02507,121.51645,19.0,6.7,4.715223571935199,11.9,2025-05-23 12:37:30
500106117,中正區,YouBike2.0_文光公園,25.03898,121.53058,28.0,7.1,8.006247560499238,20.9,2025-05-23 12:37:30
500106118,中正區,YouBike2.0_捷運中正紀念堂站(2號出口),25.03212,121.51861,12.0,7.0,3.2659863237109037,4.0,2025-05-23 12:37:30
500106119,中正區,YouBike2.0_螢圃里小公園,25.02484,121.51973,25.0,10.9,5.8013408411810765,13.9,2025-05-23 12:37:30
500106120,中正區,YouBike2.0_螢橋公園,25.02682,121.51737,29.0,13.5,9.466314547441952,14.3,2025-05-23 12:37:30
500106121,中正區,YouBike2.0_泉州寧波西街口,25.02965,121.51415,49.0,27.0,12.101423240447566,19.8,2025-05-23 12:37:30
500106122,中正區,YouBike2.0_和平西路二段98巷口,25.0289,121.5097,16.0,6.9,3.2128215360057304,9.1,2025-05-23 12:37:30
500106123,中正區,YouBike2.0_仁愛新生路口(西南側),25.03796,121.53261,18.0,1.3,1.4944341180973262,16.1,2025-05-23 12:37:30
500106124,中正區,YouBike2.0_幸安市場,25.04032,121.53141,15.0,8.6,4.5995168828427575,5.8,2025-05-23 12:37:30
500106125,中正區,YouBike2.0_龍口市場,25.0275,121.51013,14.0,8.6,2.458545188611437,5.0,2025-05-23 12:37:30
500106126,中正區,YouBike2.0_捷運善導寺站(5號出口),25.04418,121.52552,31.0,16.7,8.111035007253319,14.3,2025-05-23 12:37:30
500106127,中正區,YouBike2.0_青島杭州路口,25.04281,121.52629,17.0,7.2,5.633234713140696,9.4,2025-05-23 12:37:30
500106128,中正區,YouBike2.0_詔安街37巷口,25.02542,121.51233,28.0,9.9,7.738073260042048,17.3,2025-05-23 12:37:30
500106129,中正區,YouBike2.0_南海路112巷口,25.02757,121.50771,31.0,13.2,6.1064628786957265,16.6,2025-05-23 12:37:30
500106130,中正區,YouBike2.0_牯嶺街95巷,25.0255,121.52067,16.0,10.9,3.9846929339382946,4.7,2025-05-23 12:37:30
500106131,中正區,YouBike2.0_仁愛紹興路口(北側),25.03862,121.52385,23.0,12.2,9.2951600308978,10.8,2025-05-23 12:37:30
500106132,中正區,YouBike2.0_貴陽博愛路口,25.03896,121.51093,69.0,15.7,6.945022198188666,49.7,2025-05-23 12:37:30
500106133,中正區,YouBike2.0_國立臺灣博物館南門館,25.03351,121.5156,21.0,5.6,4.452215428550399,15.0,2025-05-23 12:37:30
500106134,中正區,YouBike2.0_汀州路一段106巷口,25.03008,121.50768,21.0,9.2,4.4171383395939845,11.0,2025-05-23 12:37:30
500106135,中正區,YouBike2.0_羅斯福路四段108巷口,25.01346,121.5355,20.0,10.9,4.581363212940978,8.5,2025-05-23 12:37:30
500106136,中正區,YouBike2.0_公館水岸廣場,25.01193,121.52861,27.0,4.2,1.7511900715418263,22.8,2025-05-23 12:37:30
500106137,中正區,YouBike2.0_捷運小南門站(3號出口),25.03532,121.51117,19.0,7.6,6.603029607687671,11.4,2025-05-23 12:37:30
500106138,中正區,YouBike2.0_臨沂街停車場,25.0426,121.53006,33.0,10.3,3.2676869155073254,22.7,2025-05-23 12:37:30
500106141,中正區,YouBike2.0_愛國東路116巷口,25.03276,121.52135,25.0,9.4,5.081557066709201,15.6,2025-05-23 12:37:30
500106142,中正區,YouBike2.0_愛國東羅斯福路口,25.03454,121.51733,24.0,5.4,4.575295983139597,18.6,2025-05-23 12:37:30
500107001,中山區,YouBike2.0_通北街65巷口,25.08251,121.54004,16.0,7.0,4.371625682868,8.8,2025-05-23 12:37:30
500107002,中山區,YouBike2.0_圓山風景區,25.07805,121.5295,15.0,6.9,1.286683937707919,8.1,2025-05-23 12:37:30
500107003,中山區,YouBike2.0_樂群二堤頂大道口,25.0803,121.56251,20.0,5.5,2.273030282830976,14.3,2025-05-23 12:37:30
500107004,中山區,YouBike2.0_劍潭社區,25.08524,121.53748,13.0,6.4,3.5652645218989165,6.6,2025-05-23 12:37:30
500107005,中山區,YouBike2.0_培英公園,25.08258,121.54462,40.0,17.6,8.030497424748289,22.2,2025-05-23 12:37:30
500107006,中山區,YouBike2.0_樂群二明水路口,25.08009,121.55226,20.0,10.2,6.106462878695726,9.8,2025-05-23 12:37:30
500107007,中山區,YouBike2.0_北安大直街口,25.08474,121.54968,31.0,9.4,6.719788356455548,21.6,2025-05-23 12:37:30
500107008,中山區,YouBike2.0_捷運劍南路站(2號出口),25.084751813542,121.555090270105,40.0,21.9,6.903300337922112,18.1,2025-05-23 12:37:30
500107009,中山區,YouBike2.0_樂群二敬業三路口,25.07985,121.55609,20.0,7.7,7.288499312082167,12.1,2025-05-23 12:37:30
500107010,中山區,YouBike2.0_樂群二敬業四路口,25.07976,121.55813,36.0,12.1,8.698020208964541,23.9,2025-05-23 12:37:30
500107011,中山區,YouBike2.0_捷運大直站(3號出口),25.07923,121.5473,34.0,9.9,6.903300337922113,24.1,2025-05-23 12:37:30
500107012,中山區,YouBike2.0_復興市民路口,25.04585,121.54375,52.0,36.9,11.454741861391339,15.1,2025-05-23 12:37:30
500107013,中山區,YouBike2.0_南京遼寧街口,25.05176,121.54217,42.0,17.3,12.918978287774928,24.3,2025-05-23 12:37:30
500107014,中山區,YouBike2.0_伊通長安路口,25.04833,121.53469,21.0,11.8,6.196773353931867,7.4,2025-05-23 12:37:30
500107015,中山區,YouBike2.0_新生長安路口,25.04861,121.52935,30.0,14.1,3.3813212407775355,15.9,2025-05-23 12:37:30
500107016,中山區,YouBike2.0_市民林森路口,25.04765,121.52589,40.0,18.4,11.286176402031725,21.6,2025-05-23 12:37:30
500107017,中山區,YouBike2.0_南京新生路口,25.05194,121.52766,34.0,12.4,9.09456492148531,21.4,2025-05-23 12:37:30
500107018,中山區,YouBike2.0_一江公園,25.05316,121.53146,37.0,16.4,8.630694577430537,20.6,2025-05-23 12:37:30
500107020,中山區,YouBike2.0_新生長春路口,25.05639,121.52752,32.0,10.8,5.3499740393970345,20.4,2025-05-23 12:37:30
500107021,中山區,YouBike2.0_第二果菜批發市場,25.06642,121.53735,40.0,17.4,11.296016997154352,22.6,2025-05-23 12:37:30
500107022,中山區,YouBike2.0_民生建國路口,25.05778,121.53692,47.0,18.0,11.105554165971787,29.0,2025-05-23 12:37:30
500107023,中山區,YouBike2.0_興安華城,25.05606,121.54175,62.0,21.2,12.488216668346027,40.4,2025-05-23 12:37:30
500107024,中山區,YouBike2.0_捷運中山國中站,25.06106,121.54406,61.0,25.3,21.515110968805157,25.1,2025-05-23 12:37:30
500107025,中山區,YouBike2.0_龍江錦州街口,25.06045,121.54077,16.0,7.0,5.374838498865699,8.4,2025-05-23 12:37:30
500107026,中山區,YouBike2.0_建國長春路口,25.05469,121.53686,16.0,10.3,2.2632326929023945,5.7,2025-05-23 12:37:30
500107027,中山區,YouBike2.0_南京建國路口,25.05214,121.5368,42.0,22.8,3.823901439919996,18.7,2025-05-23 12:37:30
500107028,中山區,YouBike2.0_捷運松江南京站(7號出口),25.05246,121.5332,75.0,26.9,16.155150537487692,48.1,2025-05-23 12:37:30
500107029,中山區,YouBike2.0_朱崙商場,25.04762,121.54043,37.0,23.3,8.59004591890456,13.7,2025-05-23 12:37:30
500107030,中山區,YouBike2.0_中吉公園,25.05604,121.53166,30.0,16.3,7.916929820187734,13.1,2025-05-23 12:37:30
500107031,中山區,YouBike2.0_華山公園,25.0471,121.5277,19.0,7.8,3.8528488738133038,10.8,2025-05-23 12:37:30
500107032,中山區,YouBike2.0_建國北路一段17巷,25.04699,121.53735,45.0,18.1,10.785278031753387,25.7,2025-05-23 12:37:30
500107033,中山區,YouBike2.0_江寧公園,25.0614,121.53929,15.0,9.0,5.14241620684717,5.4,2025-05-23 12:37:30
500107034,中山區,YouBike2.0_民權龍江路口,25.06225,121.54107,32.0,13.6,10.637460014287036,18.2,2025-05-23 12:37:30
500107035,中山區,YouBike2.0_捷運中山國小站(2號出口),25.06246,121.52705,59.0,21.3,11.813833698959312,35.5,2025-05-23 12:37:30
500107036,中山區,YouBike2.0_捷運行天宮站(3號出口),25.05992,121.5333,48.0,12.1,15.314843924912996,35.7,2025-05-23 12:37:30
500107037,中山區,YouBike2.0_林森農安街口,25.06531,121.52565,23.0,11.4,6.995236474439826,11.6,2025-05-23 12:37:30
500107038,中山區,YouBike2.0_捷運中山國小站(4號出口),25.06283,121.52697,20.0,12.1,4.2282121254470875,7.9,2025-05-23 12:37:30
500107039,中山區,YouBike2.0_農安雙城街口,25.06491,121.52449,15.0,10.4,4.1952353926806065,4.2,2025-05-23 12:37:30
500107040,中山區,YouBike2.0_新生德惠街口,25.06652,121.52762,35.0,15.3,9.117138927438926,19.5,2025-05-23 12:37:30
500107041,中山區,YouBike2.0_民族林森路口,25.06847,121.52559,37.0,16.9,8.45182426067493,20.1,2025-05-23 12:37:30
500107042,中山區,YouBike2.0_臺北市立美術館,25.06987,121.52291,24.0,9.0,6.036923425424944,14.8,2025-05-23 12:37:30
500107043,中山區,YouBike2.0_中山民族路口,25.06816,121.52265,16.0,9.4,4.993328882953068,6.6,2025-05-23 12:37:30
500107044,中山區,YouBike2.0_新生高架停車場(林森北路107巷口),25.04983,121.52853,14.0,5.4,3.339993346633426,8.4,2025-05-23 12:37:30
500107045,中山區,YouBike2.0_南京林森路口(東南側),25.05201,121.52556,10.0,7.0,2.449489742783178,3.0,2025-05-23 12:37:30
500107046,中山區,YouBike2.0_仁德公園,25.05337,121.5289,18.0,9.2,5.138093031466052,8.8,2025-05-23 12:37:30
500107047,中山區,YouBike2.0_中原公園,25.05583,121.52821,15.0,6.2,3.521363372331802,8.8,2025-05-23 12:37:30
500107048,中山區,YouBike2.0_下埤公園,25.06682,121.54213,24.0,9.6,8.971560003081342,13.6,2025-05-23 12:37:30
500107049,中山區,YouBike2.0_五常國中,25.06505,121.54366,16.0,3.3,3.1640339933558095,12.7,2025-05-23 12:37:30
500107050,中山區,YouBike2.0_榮星花園,25.06424,121.54037,46.0,20.3,12.771931029496761,23.7,2025-05-23 12:37:30
500107051,中山區,YouBike2.0_民權建國路口,25.06251,121.53765,50.0,23.9,9.433392225964576,23.7,2025-05-23 12:37:30
500107052,中山區,YouBike2.0_松江路431巷口,25.06585,121.53338,15.0,6.8,1.8135294011647256,8.2,2025-05-23 12:37:30
500107053,中山區,YouBike2.0_新喜公園,25.06533,121.53177,13.0,5.0,2.6666666666666665,7.8,2025-05-23 12:37:30
500107054,中山區,YouBike2.0_吉林路407巷口,25.06595,121.53041,15.0,4.8,3.190262963734773,7.8,2025-05-23 12:37:30
500107055,中山區,YouBike2.0_民族松江路口,25.06833,121.5328,17.0,6.8,5.672545969648706,10.2,2025-05-23 12:37:30
500107056,中山區,YouBike2.0_林安泰古厝,25.07154,121.53058,36.0,21.1,4.954235000930461,14.3,2025-05-23 12:37:30
500107058,中山區,YouBike2.0_渭水八德路口,25.04573,121.53508,23.0,9.0,4.988876515698588,14.0,2025-05-23 12:37:30
500107059,中山區,YouBike2.0_捷運中山站(2號出口),25.05228,121.52176,33.0,18.1,9.122012448528618,14.1,2025-05-23 12:37:30
500107060,中山區,YouBike2.0_撫順公園,25.06416,121.52203,30.0,10.8,9.235198367598224,18.4,2025-05-23 12:37:30
500107061,中山區,YouBike2.0_新生公園,25.06839,121.53032,29.0,17.4,6.586180818788517,11.4,2025-05-23 12:37:30
500107062,中山區,YouBike2.0_捷運行天宮站(1號出口),25.05867,121.53305,49.0,20.4,12.61568688401688,27.8,2025-05-23 12:37:30
500107063,中山區,YouBike2.0_林森長春路口,25.05497,121.52536,28.0,8.9,4.383048152953731,18.9,2025-05-23 12:37:30
500107064,中山區,YouBike2.0_建國農安街口,25.06503,121.53678,50.0,21.0,12.710450643291745,29.0,2025-05-23 12:37:30
500107065,中山區,YouBike2.0_松江路77巷口,25.04985,121.53312,10.0,4.0,3.7712361663282534,6.0,2025-05-23 12:37:30
500107066,中山區,YouBike2.0_建國長安路口,25.04836,121.53669,20.0,8.4,6.432556084308771,11.6,2025-05-23 12:37:30
500107067,中山區,YouBike2.0_市民新生路口,25.04611,121.53193,15.0,6.5,2.5495097567963922,7.1,2025-05-23 12:37:30
500107068,中山區,YouBike2.0_民權吉林路口,25.06269,121.53061,15.0,5.8,2.485513584307633,9.2,2025-05-23 12:37:30
500107069,中山區,YouBike2.0_中山農安街口,25.0651,121.5224,29.0,12.9,11.551334699216941,15.9,2025-05-23 12:37:30
500107070,中山區,YouBike2.0_捷運行政大樓,25.05575,121.52168,14.0,7.3,4.715223571935199,5.9,2025-05-23 12:37:30
500107071,中山區,YouBike2.0_中吉公園(松江路188巷),25.0568,121.53191,22.0,8.7,6.03784361801095,13.3,2025-05-23 12:37:30
500107072,中山區,YouBike2.0_吉林路123巷口,25.05731,121.53021,22.0,9.375,5.730557190560593,12.375,2025-05-23 12:37:30
500107074,中山區,YouBike2.0_中原民生路口,25.05808,121.52887,15.0,5.6,1.577621275493231,9.4,2025-05-23 12:37:30
500107075,中山區,YouBike2.0_國立臺北大學(臺北校區),25.05794,121.54244,38.0,11.1,9.550450832872293,26.1,2025-05-23 12:37:30
500107076,中山區,YouBike2.0_錦州吉林路口,25.06028,121.52991,30.0,15.2,11.063453348751466,14.8,2025-05-23 12:37:30
500107078,中山區,YouBike2.0_永盛公園(民生東路一段23巷),25.05873,121.52488,24.0,10.1,4.483302354291979,13.7,2025-05-23 12:37:30
500107079,中山區,YouBike2.0_新生錦州街口,25.05955,121.52744,20.0,11.2,4.661902329879223,8.8,2025-05-23 12:37:30
500107080,中山區,YouBike2.0_濱江街199巷口,25.0734,121.53985,15.0,7.5,4.790035954399971,7.5,2025-05-23 12:37:30
500107081,中山區,YouBike2.0_大佳社區公園,25.07275,121.5373,15.0,8.1,2.6012817353502227,6.9,2025-05-23 12:37:30
500107082,中山區,YouBike2.0_濱江果菜市場,25.06807,121.53673,22.0,12.9,6.488451279003334,8.9,2025-05-23 12:37:30
500107083,中山區,YouBike2.0_興安合江路口,25.05619,121.53949,29.0,5.2,4.237399621885521,23.0,2025-05-23 12:37:30
500107084,中山區,YouBike2.0_復興北路514巷口東側,25.06597,121.54117,12.0,4.1,2.8848262031225076,7.5,2025-05-23 12:37:30
500107085,中山區,YouBike2.0_台泥大樓,25.06142,121.52305,18.0,4.7,2.7908580918579307,13.3,2025-05-23 12:37:30
500107086,中山區,YouBike2.0_植福樂群路口,25.08303,121.5604,10.0,3.9,0.7378647873726218,5.9,2025-05-23 12:37:30
500107087,中山區,YouBike2.0_新興公園,25.06157,121.52439,26.0,12.9,8.171087238958268,13.1,2025-05-23 12:37:30
500107088,中山區,YouBike2.0_南京伊通街口,25.05189,121.53517,11.0,7.5,2.4608038433722337,3.4,2025-05-23 12:37:30
500107089,中山區,YouBike2.0_南京龍江路口,25.05205,121.54012,24.0,16.2,5.2451035367389185,7.8,2025-05-23 12:37:30
500107090,中山區,YouBike2.0_撫順街41巷(崇德宮前),25.06389,121.51916,19.0,10.4,2.796823595120404,8.2,2025-05-23 12:37:30
500107091,中山區,YouBike2.0_臺北市立圖書館大直分館,25.08152,121.54646,20.0,9.1,3.0713731999438516,10.3,2025-05-23 12:37:30
500107092,中山區,YouBike2.0_捷運大直站(1號出口),25.0801,121.54708,27.0,11.4,7.848566748139433,15.6,2025-05-23 12:37:30
500107093,中山區,YouBike2.0_捷運松江南京站(4號出口),25.0512,121.53312,32.0,8.9,7.187179944564875,23.1,2025-05-23 12:37:30
500107095,中山區,YouBike2.0_中429公園,25.07864,121.55557,21.0,6.4,6.586180818788517,14.2,2025-05-23 12:37:30
500107096,中山區,YouBike2.0_長春路137巷口,25.05791,121.53114,23.0,10.4,3.717824931626316,12.6,2025-05-23 12:37:30
500107097,中山區,YouBike2.0_松江民生路口,25.05765,121.53299,21.0,9.9,6.539622822966679,11.1,2025-05-23 12:37:30
500107098,中山區,YouBike2.0_松江路132巷口,25.05277,121.53013,14.0,9.2,2.250925735484551,4.8,2025-05-23 12:37:30
500107099,中山區,YouBike2.0_長春吉林路口,25.05481,121.53032,10.0,5.6,1.776388345929897,4.4,2025-05-23 12:37:30
500107100,中山區,YouBike2.0_長春一江街口,25.05488,121.53142,11.0,5.2,3.0110906108363236,5.8,2025-05-23 12:37:30
500107101,中山區,YouBike2.0_捷運松江南京站(8號出口),25.05215,121.53276,29.0,8.0,6.69991708074726,20.8,2025-05-23 12:37:30
500107102,中山區,YouBike2.0_南京一江街口,25.05215,121.53171,20.0,9.4,6.168017869984202,10.6,2025-05-23 12:37:30
500107103,中山區,YouBike2.0_松江長春路口,25.05499,121.53295,16.0,9.4,3.1692971530679235,5.6,2025-05-23 12:37:30
500107104,中山區,YouBike2.0_經國七海文化園區,25.07802,121.53511,15.0,6.5,2.5495097567963922,8.5,2025-05-23 12:37:30
500107105,中山區,YouBike2.0_民族玉門街口,25.06873,121.52003,20.0,9.7,6.815831244650615,10.3,2025-05-23 12:37:30
500107106,中山區,YouBike2.0_新生農安街口,25.06493,121.52778,15.0,7.8,4.237399621885521,7.0,2025-05-23 12:37:30
500107107,中山區,YouBike2.0_稻江高級護理家事職業學校,25.06532,121.52848,14.0,7.8,4.366539438350084,6.0,2025-05-23 12:37:30
500107108,中山區,YouBike2.0_捷運大直站(3號出口)_1,25.07934,121.54671,18.0,5.2,2.820559440174157,12.8,2025-05-23 12:37:30
500107109,中山區,YouBike2.0_樂群二明水路口_1,25.07983,121.55236,34.0,15.4,7.441624673267107,18.4,2025-05-23 12:37:30
500107110,中山區,YouBike2.0_民權吉林路口(南側),25.06245,121.53043,16.0,7.6,5.232377832092956,8.4,2025-05-23 12:37:30
500107111,中山區,YouBike2.0_長春龍江路口,25.05473,121.54026,39.0,7.4,7.820201759261429,31.0,2025-05-23 12:37:30
500107112,中山區,YouBike2.0_民權新生路口,25.06305,121.52776,26.0,9.5,3.8369548110737797,16.5,2025-05-23 12:37:30
500107113,中山區,YouBike2.0_建國長春路口(北側),25.05476,121.53693,30.0,14.6,8.113089560840693,14.4,2025-05-23 12:37:30
500107114,中山區,YouBike2.0_中山行政中心,25.06432,121.53349,30.0,14.9,9.243015380996255,15.1,2025-05-23 12:37:30
500107115,中山區,YouBike2.0_臺北市立美術館_1,25.07063,121.52327,30.0,11.6,7.919034733546198,18.2,2025-05-23 12:37:30
500107116,中山區,YouBike2.0_劍潭社區_1,25.08476,121.53789,42.0,14.4,12.294533563968807,26.6,2025-05-23 12:37:30
500107117,中山區,YouBike2.0_濱江國小游泳池,25.07818,121.56175,16.0,9.2,3.794733192202055,6.8,2025-05-23 12:37:30
500107118,中山區,YouBike2.0_林森公園,25.05223,121.52581,42.0,20.2,8.778762251403478,21.6,2025-05-23 12:37:30
500107119,中山區,YouBike2.0_中428公園,25.07825,121.55337,15.0,6.9,2.0789954839350235,8.1,2025-05-23 12:37:30
500107120,中山區,YouBike2.0_復華公園,25.05339,121.5401,20.0,6.5,4.503085362035432,12.7,2025-05-23 12:37:30
500107121,中山區,YouBike2.0_新生民族路口(西南側),25.06819,121.52767,15.0,8.3,2.8303906287138374,6.7,2025-05-23 12:37:30
500107122,中山區,YouBike2.0_捷運南京復興站(1號出口),25.05253,121.54256,21.0,13.2,3.966526608171604,7.6,2025-05-23 12:37:30
500107123,中山區,YouBike2.0_八德市場(北側),25.04478,121.53661,26.0,4.6,3.6270588023294517,21.4,2025-05-23 12:37:30
500107124,中山區,YouBike2.0_龍江朱崙街口,25.05004,121.54043,14.0,5.5,3.5668224265054493,8.5,2025-05-23 12:37:30
500107125,中山區,YouBike2.0_大直街94巷,25.08431,121.54755,15.0,5.4,4.550946177566937,9.2,2025-05-23 12:37:30
500107126,中山區,YouBike2.0_捷運南京復興站(8號出口),25.05196,121.5433,25.0,13.9,7.34014834848573,11.1,2025-05-23 12:37:30
500107127,中山區,YouBike2.0_民權建國路口(南側),25.06228,121.53702,15.0,8.9,4.2282121254470875,6.1,2025-05-23 12:37:30
500107128,中山區,YouBike2.0_林森德惠街口,25.06688,121.5257,16.0,2.3,2.110818693198342,13.5,2025-05-23 12:37:30
500107129,中山區,YouBike2.0_新生濱江街口(東南側),25.07059,121.52812,21.0,12.0,3.7416573867739413,8.6,2025-05-23 12:37:30
500107130,中山區,YouBike2.0_新生北路一段62巷口,25.04699,121.53075,30.0,8.1,6.8710342097177115,21.3,2025-05-23 12:37:30
500107131,中山區,YouBike2.0_新生長春路口(東北側),25.05532,121.52769,19.0,9.6,4.742245131674331,9.2,2025-05-23 12:37:30
500107132,中山區,YouBike2.0_捷運劍南路站(1號出口),25.08519,121.55498,25.0,17.2,4.732863826479692,5.8,2025-05-23 12:37:30
500107134,中山區,YouBike2.0_長春路258巷2弄口,25.05427,121.53896,19.0,4.6,1.776388345929897,14.4,2025-05-23 12:37:30
500107135,中山區,YouBike2.0_長寧大廈社區(南側),25.05418,121.54332,15.0,9.1,3.5103022978402048,5.5,2025-05-23 12:37:30
500107136,中山區,YouBike2.0_建國五常街口,25.06419,121.53732,20.0,11.0,3.9157800414902435,9.0,2025-05-23 12:37:30
500107137,中山區,YouBike2.0_中山北路二段62巷口,25.05676,121.52268,12.0,6.4,2.7568097504180447,5.6,2025-05-23 12:37:30
500107138,中山區,YouBike2.0_市民安東街口,25.0448,121.54213,27.0,4.5,2.41522945769824,22.3,2025-05-23 12:37:30
500107139,中山區,YouBike2.0_市民大道二段5巷口,25.04812,121.52166,15.0,6.1,2.8067379246694517,8.7,2025-05-23 12:37:30
500107140,中山區,YouBike2.0_捷運中山站(3號出口),25.05236,121.52212,21.0,14.0,5.374838498865699,7.0,2025-05-23 12:37:30
500107141,中山區,YouBike2.0_建國北路高架橋下停車場G區,25.05959,121.53682,18.0,6.9,1.9692073983655907,11.1,2025-05-23 12:37:30
500107142,中山區,YouBike2.0_朱崙公園,25.04919,121.54198,20.0,11.2,3.583914681524163,8.8,2025-05-23 12:37:30
500107143,中山區,YouBike2.0_朱崙復興北路口,25.04992,121.54379,12.0,7.2,2.7406406388125952,4.8,2025-05-23 12:37:30
500107144,中山區,YouBike2.0_捷運行天宮站(4號出口),25.06037,121.53283,36.0,19.0,11.633285577743433,16.6,2025-05-23 12:37:30
500107145,中山區,YouBike2.0_建國北路三段86巷口,25.06617,121.53526,15.0,8.8,3.457680661303984,6.2,2025-05-23 12:37:30
500107146,中山區,YouBike2.0_正守公園,25.04808,121.52898,15.0,5.9,5.021066730398144,9.1,2025-05-23 12:37:30
500107147,中山區,YouBike2.0_四平松江路口,25.05366,121.53282,18.0,8.6,2.1705094128132942,8.6,2025-05-23 12:37:30
500107149,中山區,YouBike2.0_北安通北街口,25.07965,121.54148,17.0,9.1,3.6347092196090616,7.5,2025-05-23 12:37:30
500107150,中山區,YouBike2.0_民權東復興北路口(西北側),25.06246,121.54323,20.0,10.3,2.4060109910158114,9.7,2025-05-23 12:37:30
500107151,中山區,YouBike2.0_臺北市立大同高中,25.05484,121.53521,22.0,18.5,5.082650227325636,3.5,2025-05-23 12:37:30
500107152,中山區,YouBike2.0_中崙加油站,25.04634,121.53979,27.0,10.1,7.400450436741447,16.9,2025-05-23 12:37:30
500107153,中山區,YouBike2.0_北安明水路口(自強隧道),25.08578,121.55225,12.0,2.2,2.2010098692292237,9.8,2025-05-23 12:37:30
500107154,中山區,YouBike2.0_中正國小(南京東路三段48巷),25.05126,121.53845,15.0,3.9,2.960855732160327,11.1,2025-05-23 12:37:30
500107155,中山區,YouBike2.0_臺北時代廣場,25.08044,121.56152,35.0,13.1,7.370361064576296,21.9,2025-05-23 12:37:30
500107156,中山區,YouBike2.0_吉林農安街口(西北側),25.06493,121.53034,15.0,6.0,4.784233364802441,7.0,2025-05-23 12:37:30
500107157,中山區,YouBike2.0_濱江國中,25.07986,121.56152,26.0,14.3,4.808557187163549,11.7,2025-05-23 12:37:30
500107158,中山區,YouBike2.0_環山抽水站,25.07734,121.5631,21.0,6.3,3.0568684048294332,13.9,2025-05-23 12:37:30
500107159,中山區,YouBike2.0_民權中山路口(東北側),25.06292,121.52299,25.0,7.8,5.072803301265814,16.6,2025-05-23 12:37:30
500107160,中山區,YouBike2.0_復興五常街口(西南側),25.06409,121.54415,26.0,11.3,8.57710129744698,14.3,2025-05-23 12:37:30
500107161,中山區,YouBike2.0_松江長安路口,25.04819,121.53282,20.0,9.6,5.18973345494095,10.0,2025-05-23 12:37:30
500107162,中山區,YouBike2.0_長安國小,25.05018,121.53008,26.0,16.2,9.531235200352809,9.8,2025-05-23 12:37:30
500107163,中山區,YouBike2.0_中山市場,25.05007,121.52107,16.0,7.6,3.169297153067923,8.4,2025-05-23 12:37:30
500107164,中山區,YouBike2.0_捷運雙連站(1號出口),25.05767,121.52097,17.0,9.1,5.704773829385741,7.7,2025-05-23 12:37:30
500107165,中山區,YouBike2.0_吉林南京路口(西北側),25.05234,121.53003,22.0,14.2,3.8528488738133038,6.8,2025-05-23 12:37:30
500107166,中山區,YouBike2.0_龍江路345巷,25.06339,121.54116,23.0,12.0,3.496029493900505,11.0,2025-05-23 12:37:30
500107167,中山區,YouBike2.0_捷運劍南路站(3號出口),25.08444,121.55657,46.0,13.8,7.656515018088988,32.2,2025-05-23 12:37:30
500107168,中山區,YouBike2.0_一江南京東路口(西南側),25.05181,121.53146,22.0,11.4,6.275171533733382,10.6,2025-05-23 12:37:30
500107169,中山區,YouBike2.0_大直抽水站公車站,25.07756,121.54556,27.0,14.5,6.132789830991366,12.5,2025-05-23 12:37:30
500107170,中山區,YouBike2.0_民權東路三段39巷口,25.06596,121.54259,25.0,10.2,8.534895690308373,13.8,2025-05-23 12:37:30
500107171,中山區,YouBike2.0_臺北市立中山女高,25.04841,121.53889,33.0,11.4,7.515909052728677,21.4,2025-05-23 12:37:30
500107173,中山區,YouBike2.0_林森公園東北側,25.05381,121.52674,18.0,9.8,2.485513584307633,8.2,2025-05-23 12:37:30
500107174,中山區,YouBike2.0_康樂公園西北側,25.05377,121.52456,18.0,10.1,6.118278625016462,7.3,2025-05-23 12:37:30
500107175,中山區,YouBike2.0_中山北德惠街口,25.06671,121.52257,20.0,8.0,7.164728420068226,11.4,2025-05-23 12:37:30
500107176,中山區,YouBike2.0_晴光公園,25.06411,121.52446,15.0,10.5,3.922867431979941,4.5,2025-05-23 12:37:30
500107177,中山區,YouBike2.0_松江路25巷口,25.04628,121.53304,42.0,14.2,10.454132622503355,27.6,2025-05-23 12:37:30
500107178,中山區,YouBike2.0_民生東合江街口,25.05777,121.53951,20.0,5.4,4.087922591134904,14.6,2025-05-23 12:37:30
500107179,中山區,YouBike2.0_飛航服務總臺,25.07241,121.55117,23.0,9.8,3.155242550986462,13.2,2025-05-23 12:37:30
500107180,中山區,YouBike2.0_內湖堤頂大道(西南側),25.08462,121.56016,24.0,11.9,3.314949304120485,12.1,2025-05-23 12:37:30
500107181,中山區,YouBike2.0_大直派出所,25.07913,121.54422,30.0,13.5,6.258327785172863,15.7,2025-05-23 12:37:30
500107182,中山區,YouBike2.0_遼寧民生路口,25.05751,121.54215,19.0,8.0,6.782329983125267,11.0,2025-05-23 12:37:30
500107183,中山區,YouBike2.0_松江路184巷口,25.05623,121.53296,21.0,8.9,4.3576242252962665,11.9,2025-05-23 12:37:30
500107184,中山區,YouBike2.0_民權東路三段60巷,25.06058,121.54236,18.0,11.8,4.984420171338332,6.0,2025-05-23 12:37:30
500107185,中山區,YouBike2.0_長春路258巷2弄(北側),25.05474,121.5383,19.0,5.3,3.591656999213594,13.7,2025-05-23 12:37:30
500108001,內湖區,YouBike2.0_文湖街21巷118弄口,25.09122,121.55961,28.0,11.3,9.522488003551265,16.5,2025-05-23 12:37:30
500108002,內湖區,YouBike2.0_北勢湖環保公園,25.08378,121.56208,27.0,7.2,5.028805910838962,19.6,2025-05-23 12:37:30
500108003,內湖區,YouBike2.0_洲子一號公園,25.07977,121.56454,43.0,11.4,8.099382692526634,31.6,2025-05-23 12:37:30
500108004,內湖區,YouBike2.0_西康公園,25.08284,121.56449,21.0,4.6,5.18973345494095,16.4,2025-05-23 12:37:30
500108005,內湖區,YouBike2.0_文湖國小,25.08637,121.56088,43.0,18.4,12.294533563968809,24.0,2025-05-23 12:37:30
500108006,內湖區,YouBike2.0_文湖街81巷10號西側,25.08707,121.56406,21.0,11.4,6.449806198638839,9.2,2025-05-23 12:37:30
500108007,內湖區,YouBike2.0_德明財經科技大學,25.08637,121.56574,36.0,15.5,11.433381924094997,20.5,2025-05-23 12:37:30
500108008,內湖區,YouBike2.0_麗山國小,25.0826,121.57158,18.0,12.1,2.9981475762358474,5.9,2025-05-23 12:37:30
500108009,內湖區,YouBike2.0_麗山高中,25.08398,121.57725,33.0,19.6,2.7968235951204043,13.2,2025-05-23 12:37:30
500108010,內湖區,YouBike2.0_港華五號公園,25.08522,121.57462,16.0,6.8,5.287301349039561,9.2,2025-05-23 12:37:30
500108011,內湖區,YouBike2.0_大湖國小,25.08803,121.59958,29.0,9.3,7.746683878351505,19.3,2025-05-23 12:37:30
500108013,內湖區,YouBike2.0_東湖路113巷95弄,25.07177,121.61491,17.0,9.8,3.9665266081716055,6.8,2025-05-23 12:37:30
500108014,內湖區,YouBike2.0_瑞光計程車服務站,25.0745,121.57389,20.0,7.5,3.5355339059327378,12.5,2025-05-23 12:37:30
500108015,內湖區,YouBike2.0_文德三號公園(江南街71巷16弄),25.07524,121.5772,15.0,5.7,4.347413023856832,9.3,2025-05-23 12:37:30
500108016,內湖區,YouBike2.0_捷運大湖公園站(2號出口),25.08395,121.60185,46.0,18.8,4.4671641514002545,27.2,2025-05-23 12:37:30
500108018,內湖區,YouBike2.0_康寧星雲街口,25.07958,121.59336,19.0,9.2,2.250925735484551,9.6,2025-05-23 12:37:30
500108019,內湖區,YouBike2.0_星雲街47號,25.07864,121.59177,22.0,8.7,7.024560089033651,13.3,2025-05-23 12:37:30
500108020,內湖區,YouBike2.0_捷運西湖站(1號出口),25.08301,121.56638,23.0,12.5,7.516648189186454,10.5,2025-05-23 12:37:30
500108021,內湖區,YouBike2.0_捷運西湖站(2號出口),25.08205,121.56716,31.0,9.3,7.394442357458592,21.7,2025-05-23 12:37:30
500108022,內湖區,YouBike2.0_洲子二號公園,25.07932,121.56869,60.0,19.7,15.578118557058737,40.3,2025-05-23 12:37:30
500108023,內湖區,YouBike2.0_港都公園,25.08296,121.5752,15.0,7.0,2.309401076758503,8.0,2025-05-23 12:37:30
500108024,內湖區,YouBike2.0_環山路二段26巷口,25.08598,121.572,22.0,9.3,2.9078437983419185,12.7,2025-05-23 12:37:30
500108025,內湖區,YouBike2.0_成功金龍路口,25.08436,121.59478,29.0,12.2,2.9363620727393656,16.8,2025-05-23 12:37:30
500108026,內湖區,YouBike2.0_碧山公園,25.0878,121.59227,31.0,14.0,5.597618541248888,16.4,2025-05-23 12:37:30
500108027,內湖區,YouBike2.0_金瑞公園,25.08785,121.5879,30.0,10.2,8.52186729667989,19.8,2025-05-23 12:37:30
500108028,內湖區,YouBike2.0_捷運文德站(2號出口),25.07842,121.58464,49.0,9.8,7.083627444874397,39.2,2025-05-23 12:37:30
500108029,內湖區,YouBike2.0_陽光公園,25.07695,121.58764,16.0,4.0,2.6246692913372702,12.0,2025-05-23 12:37:30
500108030,內湖區,YouBike2.0_文德二號公園(南側),25.07504,121.58375,13.0,5.5,3.13581462037113,7.3,2025-05-23 12:37:30
500108031,內湖區,YouBike2.0_文德二號公園(北側),25.07758,121.58381,15.0,7.6,2.756809750418044,7.4,2025-05-23 12:37:30
500108032,內湖區,YouBike2.0_瑞陽公園,25.07777,121.57961,12.0,5.2,2.859681411936963,6.6,2025-05-23 12:37:30
500108033,內湖區,YouBike2.0_湖光國宅,25.07538,121.58079,37.0,11.6,5.440588203494177,25.0,2025-05-23 12:37:30
500108034,內湖區,YouBike2.0_潭美街213號,25.05575,121.58486,12.0,4.6,1.9550504398153572,7.4,2025-05-23 12:37:30
500108035,內湖區,YouBike2.0_南京東路六段180號,25.0559,121.57991,21.0,10.2,3.3928028399998595,9.8,2025-05-23 12:37:30
500108036,內湖區,YouBike2.0_潭美國小(南京舊宗路口),25.05768,121.58159,29.0,16.3,4.47337804249888,10.9,2025-05-23 12:37:30
500108037,內湖區,YouBike2.0_新明路343號,25.05653,121.58345,10.0,2.5,2.0138409955990952,7.5,2025-05-23 12:37:30
500108038,內湖區,YouBike2.0_成美長壽橋(潭美街),25.0539,121.58084,17.0,6.3,3.8600518131237562,10.7,2025-05-23 12:37:30
500108039,內湖區,YouBike2.0_內湖行政中心,25.06915,121.58898,25.0,5.1,3.4785054261852175,19.9,2025-05-23 12:37:30
500108040,內湖區,YouBike2.0_樂康公園,25.07007,121.62055,20.0,10.7,4.4234225060089685,9.3,2025-05-23 12:37:30
500108041,內湖區,YouBike2.0_安康路32巷24弄,25.06181,121.59447,21.0,6.0,3.3333333333333335,15.0,2025-05-23 12:37:30
500108043,內湖區,YouBike2.0_明美公園,25.06256,121.58607,30.0,14.7,4.877385456255112,15.3,2025-05-23 12:37:30
500108044,內湖區,YouBike2.0_南京東路六段368巷,25.05827,121.58707,73.0,22.9,20.201485093923168,49.5,2025-05-23 12:37:30
500108045,內湖區,YouBike2.0_新明成功路口,25.06058,121.5911,30.0,10.9,6.93541635375988,19.1,2025-05-23 12:37:30
500108046,內湖區,YouBike2.0_民權瑞光路口,25.06835,121.58323,32.0,14.0,8.055363982396381,18.0,2025-05-23 12:37:30
500108047,內湖區,YouBike2.0_瑞光公共住宅(瑞光路),25.07335,121.57951,18.0,7.9,4.1486276177925525,10.1,2025-05-23 12:37:30
500108048,內湖區,YouBike2.0_民權東路六段15巷,25.06853,121.57813,28.0,17.3,4.270050741306633,10.7,2025-05-23 12:37:30
500108049,內湖區,YouBike2.0_扶輪親恩公園,25.06709,121.58002,30.0,11.6,5.037636129950016,18.2,2025-05-23 12:37:30
500108050,內湖區,YouBike2.0_新湖三民善街口,25.06286,121.57497,15.0,6.9,1.7919573407620817,8.1,2025-05-23 12:37:30
500108051,內湖區,YouBike2.0_內湖119號綠地,25.05594,121.57865,41.0,16.6,7.933053216343208,24.4,2025-05-23 12:37:30
500108052,內湖區,YouBike2.0_行善公園,25.05301,121.57592,25.0,9.8,5.940445175985458,15.2,2025-05-23 12:37:30
500108054,內湖區,YouBike2.0_三軍總醫院,25.07151,121.58991,50.0,15.1,7.978443178688156,34.9,2025-05-23 12:37:30
500108055,內湖區,YouBike2.0_福華商場,25.06877,121.59265,25.0,14.4,5.929212051829109,10.6,2025-05-23 12:37:30
500108056,內湖區,YouBike2.0_臺北市網球中心,25.0674,121.59749,34.0,16.2,8.430104783848577,17.8,2025-05-23 12:37:30
500108057,內湖區,YouBike2.0_捷運葫洲站(1號出口),25.07249,121.60796,37.0,19.5,10.575128052810204,17.5,2025-05-23 12:37:30
500108058,內湖區,YouBike2.0_麗湖國小,25.07332,121.60223,27.0,14.6,6.2574400161372346,12.4,2025-05-23 12:37:30
500108059,內湖區,YouBike2.0_金湖路347巷125弄口,25.0733,121.59834,15.0,6.3,2.869378562220979,8.7,2025-05-23 12:37:30
500108060,內湖區,YouBike2.0_碧湖公園,25.07988,121.58287,25.0,12.4,8.315981935740094,12.6,2025-05-23 12:37:30
500108061,內湖區,YouBike2.0_碧湖公園(內湖路二段103巷),25.08317,121.58109,19.0,6.7,4.24394994210713,11.7,2025-05-23 12:37:30
500108062,內湖區,YouBike2.0_貿七社區,25.08357,121.58534,17.0,5.3,3.128720008068617,11.1,2025-05-23 12:37:30
500108063,內湖區,YouBike2.0_內湖區農會,25.08165,121.58891,12.0,4.7,2.94580681270476,7.3,2025-05-23 12:37:30
500108064,內湖區,YouBike2.0_捷運內湖站(2號出口),25.0835,121.59454,10.0,4.9,3.1780497164141406,4.1,2025-05-23 12:37:30
500108065,內湖區,YouBike2.0_康寧金湖路口,25.07896,121.59921,21.0,8.6,6.275171533733383,12.4,2025-05-23 12:37:30
500108066,內湖區,YouBike2.0_康寧路一段156巷20弄口,25.07792,121.59354,20.0,6.1,2.766867462592951,13.9,2025-05-23 12:37:30
500108067,內湖區,YouBike2.0_安康公園,25.06657,121.6136,25.0,6.4,4.115013163202924,18.4,2025-05-23 12:37:30
500108068,內湖區,YouBike2.0_安泰街83巷,25.07669,121.61709,34.0,14.3,6.799509786251751,19.7,2025-05-23 12:37:30
500108069,內湖區,YouBike2.0_內溝溪生態展示館,25.08722,121.62306,16.0,7.6,5.358275012642699,8.4,2025-05-23 12:37:30
500108070,內湖區,YouBike2.0_捷運港墘站(2號出口),25.07967,121.57584,47.0,12.4,12.222020200350585,34.2,2025-05-23 12:37:30
500108071,內湖區,YouBike2.0_東湖國中,25.07334,121.61962,42.0,18.3,11.245245909074445,23.5,2025-05-23 12:37:30
500108072,內湖區,YouBike2.0_石潭公園(安康路),25.06261,121.59334,20.0,7.3,6.945022198188666,12.7,2025-05-23 12:37:30
500108073,內湖區,YouBike2.0_內湖垃圾焚化廠,25.06209,121.60347,20.0,6.1,1.9692073983655907,13.9,2025-05-23 12:37:30
500108074,內湖區,YouBike2.0_康寧公園(北側),25.06927,121.61019,22.0,9.0,3.6209268304000717,13.0,2025-05-23 12:37:30
500108075,內湖區,YouBike2.0_康寧路三段54巷口,25.0716,121.60936,15.0,8.4,3.025814858109391,6.6,2025-05-23 12:37:30
500108076,內湖區,YouBike2.0_行善路25巷口,25.05707,121.57658,21.0,9.3,4.191260749066641,11.7,2025-05-23 12:37:30
500108077,內湖區,YouBike2.0_新明路460巷口,25.05503,121.57823,22.0,9.6,2.1186998109427604,11.8,2025-05-23 12:37:30
500108078,內湖區,YouBike2.0_下灣公園,25.06516,121.59561,30.0,15.4,4.452215428550401,14.2,2025-05-23 12:37:30
500108079,內湖區,YouBike2.0_民權東路六段245巷口,25.06708,121.60059,17.0,10.1,1.8529256146249724,6.9,2025-05-23 12:37:30
500108081,內湖區,YouBike2.0_東湖國小,25.06854,121.61532,29.0,11.0,9.357112565078799,17.8,2025-05-23 12:37:30
500108082,內湖區,YouBike2.0_捷運內湖站(1號出口),25.08373,121.59406,28.0,12.1,8.399074023036375,15.3,2025-05-23 12:37:30
500108083,內湖區,YouBike2.0_瑞光港墘路口,25.07611,121.57487,30.0,7.9,3.8427420765212266,21.7,2025-05-23 12:37:30
500108084,內湖區,YouBike2.0_瑞湖陽光街口,25.07296,121.57603,34.0,5.1,5.216427044549853,21.7,2025-05-23 12:37:30
500108085,內湖區,YouBike2.0_金龍公園,25.08554,121.59076,15.0,7.5,4.74341649025257,7.5,2025-05-23 12:37:30
500108086,內湖區,YouBike2.0_星雲街138巷1弄口,25.07943,121.59544,21.0,7.3,5.313504806936128,13.3,2025-05-23 12:37:30
500108087,內湖區,YouBike2.0_東湖一號公園,25.07567,121.6118,19.0,5.4,2.1705094128132942,13.4,2025-05-23 12:37:30
500108088,內湖區,YouBike2.0_東湖二號公園,25.07415,121.61075,25.0,10.3,7.803845206050669,14.5,2025-05-23 12:37:30
500108089,內湖區,YouBike2.0_康湖二號公園(康寧醫院),25.07514,121.60857,25.0,10.9,7.978443178688155,14.1,2025-05-23 12:37:30
500108090,內湖區,YouBike2.0_堤頂大道新湖一路口,25.05892,121.57354,20.0,8.7,2.9832867780352594,11.3,2025-05-23 12:37:30
500108091,內湖區,YouBike2.0_下灣公園(成功路),25.06682,121.5907,16.0,6.9,4.254409477236529,9.1,2025-05-23 12:37:30
500108092,內湖區,YouBike2.0_舊宗行善路口,25.05876,121.58062,22.0,11.3,6.667499947923176,10.1,2025-05-23 12:37:30
500108093,內湖區,YouBike2.0_新湖二路250巷口,25.06455,121.58262,20.0,4.5,1.5811388300841898,14.5,2025-05-23 12:37:30
500108094,內湖區,YouBike2.0_成功路四段41巷口,25.08105,121.59205,15.0,6.5,4.552166761249222,7.5,2025-05-23 12:37:30
500108095,內湖區,YouBike2.0_金湖星雲街口,25.08151,121.59764,30.0,11.0,7.3484692283495345,19.0,2025-05-23 12:37:30
500108096,內湖區,YouBike2.0_國防醫學院,25.06851,121.59559,25.0,9.3,3.6224607965059086,15.5,2025-05-23 12:37:30
500108097,內湖區,YouBike2.0_民權東路六段190巷117弄口,25.06434,121.59399,25.0,17.6,1.577621275493231,7.4,2025-05-23 12:37:30
500108098,內湖區,YouBike2.0_內湖運動中心,25.07848,121.57493,21.0,9.5,6.240548408949685,11.5,2025-05-23 12:37:30
500108099,內湖區,YouBike2.0_九華公園,25.08844,121.56122,25.0,12.5,9.360080721399315,11.3,2025-05-23 12:37:30
500108100,內湖區,YouBike2.0_內湖路二段179巷口,25.08454,121.584,22.0,8.6,2.2705848487901865,13.4,2025-05-23 12:37:30
500108102,內湖區,YouBike2.0_行善行愛路口,25.0606,121.58286,12.0,2.4,1.837873166945363,9.6,2025-05-23 12:37:30
500108103,內湖區,YouBike2.0_民善新湖二路口(家樂福內湖店),25.06017,121.57552,23.0,9.0,4.447221354708778,10.4,2025-05-23 12:37:30
500108104,內湖區,YouBike2.0_統振大樓,25.06007,121.60138,25.0,7.3,6.03784361801095,17.5,2025-05-23 12:37:30
500108105,內湖區,YouBike2.0_陽光街161巷口,25.07433,121.58584,16.0,5.7,2.7100635498903793,10.3,2025-05-23 12:37:30
500108106,內湖區,YouBike2.0_潭美公園(南京東路六段368巷),25.05928,121.58617,25.0,11.3,8.028421735033328,13.7,2025-05-23 12:37:30
500108107,內湖區,YouBike2.0_西康二號公園,25.08503,121.5637,21.0,11.1,6.402256546631733,9.8,2025-05-23 12:37:30
500108108,內湖區,YouBike2.0_三民國中(民權東路六段47巷),25.06935,121.58692,13.0,3.4,1.7126976771553502,9.0,2025-05-23 12:37:30
500108109,內湖區,YouBike2.0_瑞光路76巷口,25.07168,121.58125,12.0,3.7,1.9465068427541912,8.3,2025-05-23 12:37:30
500108110,內湖區,YouBike2.0_捷運東湖站,25.06664,121.61351,35.0,15.3,6.000925854492047,19.7,2025-05-23 12:37:30
500108111,內湖區,YouBike2.0_新湖國小,25.06874,121.58923,23.0,5.3,1.70293863659264,17.7,2025-05-23 12:37:30
500108112,內湖區,YouBike2.0_碧山內湖路口,25.08627,121.5914,16.0,7.9,4.383048152953731,8.1,2025-05-23 12:37:30
500108115,內湖區,YouBike2.0_民權東路六段413巷,25.07038,121.60352,25.0,12.8,6.178816859057871,12.2,2025-05-23 12:37:30
500108116,內湖區,YouBike2.0_宏匯瑞光廣場(瑞光路),25.07676,121.57433,16.0,4.9,5.065131346328104,10.9,2025-05-23 12:37:30
500108117,內湖區,YouBike2.0_宏匯瑞光廣場(港墘路),25.07777,121.57562,20.0,8.7,7.660142151277467,11.1,2025-05-23 12:37:30
500108118,內湖區,YouBike2.0_康樂街151巷,25.07192,121.61955,24.0,11.2,3.521363372331802,12.2,2025-05-23 12:37:30
500108119,內湖區,YouBike2.0_內湖路一段360巷,25.0812,121.57067,15.0,9.0,4.496912521077347,5.8,2025-05-23 12:37:30
500108120,內湖區,YouBike2.0_成功路三段83號前,25.07823,121.5898,17.0,7.3,2.263232692902394,9.5,2025-05-23 12:37:30
500108121,內湖區,YouBike2.0_內湖路一段47巷,25.08781,121.55872,22.0,7.2,6.303438215238834,14.6,2025-05-23 12:37:30
500108122,內湖區,YouBike2.0_陽光舊宗路口,25.07243,121.57416,20.0,2.4,0.5163977794943221,17.6,2025-05-23 12:37:30
500108123,內湖區,YouBike2.0_安湖公園,25.07392,121.61545,15.0,7.2,2.250925735484551,7.8,2025-05-23 12:37:30
500108124,內湖區,YouBike2.0_湖興公園,25.06671,121.58913,16.0,7.0,3.711842908553348,9.0,2025-05-23 12:37:30
500108126,內湖區,YouBike2.0_安泰街(康樂橋下),25.07849,121.61666,21.0,4.6,3.5023801430836525,16.4,2025-05-23 12:37:30
500108127,內湖區,YouBike2.0_康樂綠地,25.07539,121.6203,20.0,11.3,3.0930028559098792,8.7,2025-05-23 12:37:30
500108128,內湖區,YouBike2.0_捷運港墘站(1號出口),25.08004,121.57568,23.0,8.8,6.178816859057871,14.2,2025-05-23 12:37:30
500108129,內湖區,YouBike2.0_明美公園(行善路333巷),25.06058,121.5866,16.0,8.2,3.155242550986462,7.8,2025-05-23 12:37:30
500108131,內湖區,YouBike2.0_舊宗新湖三路口,25.06321,121.57681,25.0,18.8,5.072803301265814,6.2,2025-05-23 12:37:30
500108132,內湖區,YouBike2.0_內湖運動公園,25.06745,121.57513,25.0,5.2,3.0840089349921005,19.8,2025-05-23 12:37:30
500108133,內湖區,YouBike2.0_內湖路三段326巷口,25.08968,121.58352,20.0,4.7,2.496664441476534,15.3,2025-05-23 12:37:30
500108134,內湖區,YouBike2.0_成功公園,25.08416,121.59665,11.0,3.1,1.728840330651992,7.9,2025-05-23 12:37:30
500108135,內湖區,YouBike2.0_康寧路三段189巷93弄口,25.0735,121.61258,14.0,5.6,1.6465452046971292,8.4,2025-05-23 12:37:30
500108136,內湖區,YouBike2.0_中國醫藥大學附設醫院臺北分院,25.08227,121.5909,16.0,8.4,4.765617600176404,7.4,2025-05-23 12:37:30
500108137,內湖區,YouBike2.0_康樂抽水站,25.06643,121.61732,25.0,10.3,7.775317071062475,14.7,2025-05-23 12:37:30
500108138,內湖區,YouBike2.0_環山路三段16巷口,25.08464,121.57945,21.0,5.8,3.425395354310701,15.2,2025-05-23 12:37:30
500108139,內湖區,YouBike2.0_文德一號綠地,25.0786,121.58302,15.0,7.1,3.3813212407775355,7.9,2025-05-23 12:37:30
500108140,內湖區,YouBike2.0_臺北花市,25.06265,121.57427,30.0,9.3,1.4181364924121769,19.7,2025-05-23 12:37:30
500108141,內湖區,YouBike2.0_行善社會住宅,25.06126,121.58201,23.0,10.1,3.5418137224371984,12.9,2025-05-23 12:37:30
500108142,內湖區,YouBike2.0_康寧路三段99巷17弄口,25.0721,121.60991,15.0,6.9,3.5730472522297636,8.1,2025-05-23 12:37:30
500108143,內湖區,YouBike2.0_堤頂大道二段407巷口,25.08019,121.56316,15.0,4.4,2.3190036174568114,10.6,2025-05-23 12:37:30
500108144,內湖區,YouBike2.0_海德堡科技大樓,25.08156,121.56227,12.0,4.6,2.590581230363393,7.4,2025-05-23 12:37:30
500108145,內湖區,YouBike2.0_致伸科技大樓,25.08067,121.5656,17.0,4.7,2.496664441476534,12.1,2025-05-23 12:37:30
500108146,內湖區,YouBike2.0_內湖路一段288巷口,25.08202,121.56861,20.0,11.0,5.291502622129181,9.0,2025-05-23 12:37:30
