sno,sarea,sna,latitude,longitude,total,available_rent_bikes,available_rent_bikes_std,available_return_bikes,srcUpdateTime
500101001,大安區,YouBike2.0_捷運科技大樓站,25.02605,121.5436,28.0,9.5,7.837638128197259,18.375,2025-05-22 22:26:30
500101002,大安區,YouBike2.0_復興南路二段273號前,25.02565,121.54357,21.0,9.75,8.413424646700907,11.0,2025-05-22 22:26:30
500101003,大安區,YouBike2.0_國北教大實小東側門,25.02429,121.54124,28.0,11.5,8.141603913585719,16.375,2025-05-22 22:26:30
500101004,大安區,YouBike2.0_和平公園東側,25.02351,121.54282,11.0,6.0,3.4641016151377544,5.0,2025-05-22 22:26:30
500101005,大安區,YouBike2.0_辛亥復興路口西北側,25.02153,121.54299,16.0,2.375,2.50356888118884,13.5,2025-05-22 22:26:30
500101006,大安區,YouBike2.0_復興南路二段280號前,25.02429,121.54328,27.0,4.25,5.418223219575109,22.75,2025-05-22 22:26:30
500101007,大安區,YouBike2.0_復興南路二段340巷口,25.02253,121.54326,11.0,2.625,2.38671920665766,8.375,2025-05-22 22:26:30
500101008,大安區,YouBike2.0_新生南路三段52號前,25.02112,121.53407,17.0,11.75,4.621378891320517,4.875,2025-05-22 22:26:30
500101009,大安區,YouBike2.0_新生南路三段66號前,25.01976,121.53384,16.0,6.25,5.092010548749033,9.5,2025-05-22 22:26:30
500101010,大安區,YouBike2.0_新生南路三段82號前,25.01894,121.53361,20.0,3.5,2.7774602993176543,15.875,2025-05-22 22:26:30
500101012,大安區,YouBike2.0_辛亥路一段30號前,25.01986,121.52982,8.0,4.125,1.246423454758225,3.875,2025-05-22 22:26:30
500101013,大安區,YouBike2.0_和平復興路口西北側,25.02543,121.54332,9.0,5.75,2.2519832529192065,3.0,2025-05-22 22:26:30
500101014,大安區,YouBike2.0_羅斯福路三段311號前,25.01717,121.53202,11.0,3.875,2.5319388392523003,7.125,2025-05-22 22:26:30
500101015,大安區,YouBike2.0_大安運動中心停車場,25.02089,121.54697,19.0,5.5,5.264435935053794,13.5,2025-05-22 22:26:30
500101016,大安區,YouBike2.0_羅斯福路三段245號前,25.01927,121.52989,8.0,2.0,1.7728105208558367,6.0,2025-05-22 22:26:30
500101018,大安區,YouBike2.0_溫州公園,25.01895,121.53156,5.0,2.0,1.1952286093343936,3.0,2025-05-22 22:26:30
500101019,大安區,YouBike2.0_和平臥龍街口,25.024461,121.546705,24.0,12.0,5.80640040940045,12.0,2025-05-22 22:26:30
500101021,大安區,YouBike2.0_銘傳國小側門,25.01385,121.53549,7.0,2.75,2.121320343559643,4.125,2025-05-22 22:26:30
500101022,大安區,YouBike2.0_捷運公館站(2號出口),25.01491,121.53438,99.0,24.875,26.46527374288266,45.625,2025-05-22 22:26:30
500101023,大安區,YouBike2.0_第二學生活動中心,25.01244,121.53661,25.0,2.875,4.611708700997618,22.0,2025-05-22 22:26:30
500101024,大安區,YouBike2.0_臺灣科技大學正門,25.01451,121.54142,50.0,1.75,2.3754698783308417,48.25,2025-05-22 22:26:30
500101025,大安區,YouBike2.0_臺灣科技大學側門,25.01295,121.53973,99.0,3.875,4.793969425970806,94.875,2025-05-22 22:26:30
500101026,大安區,YouBike2.0_公館公園,25.01137,121.54062,30.0,12.375,9.226321043622967,17.25,2025-05-22 22:26:30
500101027,大安區,YouBike2.0_臺灣科技大學後門,25.01182,121.54165,39.0,19.0,12.421180068162375,19.625,2025-05-22 22:26:30
500101028,大安區,YouBike2.0_臺大醫學院附設癌醫中心,25.01426,121.54382,20.0,3.5,2.5634797778466227,16.5,2025-05-22 22:26:30
500101029,大安區,YouBike2.0_臺大環研大樓,25.01234,121.54503,15.0,4.5,3.5456210417116734,10.5,2025-05-22 22:26:30
500101030,大安區,YouBike2.0_臺大永齡生醫工程館,25.0136,121.54656,34.0,8.625,7.170126518110701,25.0,2025-05-22 22:26:30
500101031,大安區,YouBike2.0_臺大男七舍前,25.01537,121.54698,20.0,17.875,3.3567628964311944,2.0,2025-05-22 22:26:30
500101032,大安區,YouBike2.0_臺大男一舍前,25.01637,121.54535,61.0,52.125,9.187530369240381,8.375,2025-05-22 22:26:30
500101033,大安區,YouBike2.0_臺大男六舍前,25.01664,121.5452,40.0,29.625,9.19530159530243,9.75,2025-05-22 22:26:30
500101034,大安區,YouBike2.0_臺大動物醫院前,25.01576,121.54291,18.0,1.75,1.7525491637693282,16.125,2025-05-22 22:26:30
500101035,大安區,YouBike2.0_臺大土木研究大樓前,25.01787,121.5476,24.0,3.125,4.421942042651783,20.875,2025-05-22 22:26:30
500101036,大安區,YouBike2.0_臺大萬才館前,25.02032,121.54497,20.0,2.75,3.955105199973465,16.75,2025-05-22 22:26:30
500101037,大安區,YouBike2.0_臺大國青大樓宿舍前,25.02076,121.54432,20.0,7.0,6.347102826149446,13.0,2025-05-22 22:26:30
500101038,大安區,YouBike2.0_臺大社科院圖書館前,25.02101,121.54284,27.0,1.75,3.058944729337694,25.25,2025-05-22 22:26:30
500101039,大安區,YouBike2.0_臺大法人語言訓練中心前,25.02104,121.54081,28.0,1.875,2.8504385627478452,25.75,2025-05-22 22:26:30
500101040,大安區,YouBike2.0_臺大綜合體育館停車場前,25.0222,121.53626,25.0,5.125,8.322731351116479,19.875,2025-05-22 22:26:30
500101041,大安區,YouBike2.0_辛亥新生路口東南側,25.02218,121.53474,50.0,15.625,10.568653110563737,34.375,2025-05-22 22:26:30
500101042,大安區,YouBike2.0_基隆長興路口東側,25.01727,121.54471,15.0,11.75,1.7525491637693282,3.125,2025-05-22 22:26:30
500101091,大安區,YouBike2.0_國北教大側門南側,25.022864,121.546622,34.0,12.75,6.777062153217383,21.0,2025-05-22 22:26:30
500101092,大安區,YouBike2.0_和平實小東北側,25.021641,121.54704,25.0,10.375,6.988510979764267,14.375,2025-05-22 22:26:30
500101093,大安區,YouBike2.0_大安區健康服務中心,25.021469,121.544069,23.0,2.5,3.251373336211726,20.5,2025-05-22 22:26:30
500101094,大安區,YouBike2.0_辛亥泰順街口,25.02193,121.53165,20.0,11.625,5.125217765408328,8.25,2025-05-22 22:26:30
500101095,大安區,YouBike2.0_芳和國中,25.0189,121.55013,37.0,19.375,9.455723890095049,17.375,2025-05-22 22:26:30
500101097,大安區,YouBike2.0_臥龍樂業街口,25.01856,121.55558,41.0,34.0,6.324555320336759,6.875,2025-05-22 22:26:30
500101098,大安區,YouBike2.0_臥龍公園,25.01623,121.55037,25.0,10.625,2.445841952609133,14.375,2025-05-22 22:26:30
500101099,大安區,YouBike2.0_嘉興公園,25.021,121.55211,44.0,29.75,8.447315719040153,9.0,2025-05-22 22:26:30
500101100,大安區,YouBike2.0_捷運麟光站(2號出口),25.0181,121.55929,50.0,26.125,6.791538853603062,23.625,2025-05-22 22:26:30
500101101,大安區,YouBike2.0_捷運六張犁站,25.02397,121.55266,64.0,21.75,14.32031523994596,42.125,2025-05-22 22:26:30
500101102,大安區,YouBike2.0_喬治工商,25.02705,121.55551,22.0,15.375,5.527528509973641,6.5,2025-05-22 22:26:30
500101103,大安區,YouBike2.0_法治公園,25.02694,121.55325,29.0,11.625,5.208166663999915,12.875,2025-05-22 22:26:30
500101104,大安區,YouBike2.0_捷運臺電大樓站(2號出口),25.02021,121.52942,18.0,11.625,2.615202805574687,6.125,2025-05-22 22:26:30
500101105,大安區,YouBike2.0_和平金山路口,25.02669,121.52529,45.0,21.75,11.804962636838072,23.125,2025-05-22 22:26:30
500101107,大安區,YouBike2.0_和平龍泉街口,25.02638,121.52971,34.0,17.625,8.782084035125148,13.5,2025-05-22 22:26:30
500101108,大安區,YouBike2.0_和平泰順街口,25.02621,121.53171,19.0,11.125,3.044315545875155,5.875,2025-05-22 22:26:30
500101109,大安區,YouBike2.0_臺灣師範大學(圖書館),25.0266,121.52973,40.0,7.25,5.496752287877426,32.125,2025-05-22 22:26:30
500101110,大安區,YouBike2.0_捷運古亭站(6號出口),25.0276,121.52217,60.0,18.125,12.699128204048383,41.75,2025-05-22 22:26:30
500101113,大安區,YouBike2.0_臺北市立圖書館(總館),25.02895,121.5379,51.0,34.75,13.987239082208367,15.75,2025-05-22 22:26:30
500101114,大安區,YouBike2.0_新生和平路口東北側,25.02657,121.53515,51.0,13.375,10.595652747370364,37.375,2025-05-22 22:26:30
500101115,大安區,YouBike2.0_建國和平路口西北側,25.02606,121.53738,50.0,16.75,11.78073487884836,33.125,2025-05-22 22:26:30
500101116,大安區,YouBike2.0_金華公園,25.02984,121.53107,44.0,30.25,9.067209367511357,13.5,2025-05-22 22:26:30
500101118,大安區,YouBike2.0_金甌女中,25.03519,121.5245,15.0,5.375,4.0686080455816125,9.5,2025-05-22 22:26:30
500101119,大安區,YouBike2.0_金杭公園,25.03325,121.52436,20.0,11.5,4.3094580368566735,8.5,2025-05-22 22:26:30
500101120,大安區,YouBike2.0_愛國金山路口,25.03164,121.52661,43.0,7.25,7.55456342692472,35.5,2025-05-22 22:26:30
500101122,大安區,YouBike2.0_敦化南路二段293巷口南側,25.0237,121.54899,14.0,1.375,1.7677669529663689,12.625,2025-05-22 22:26:30
500101123,大安區,YouBike2.0_敦化基隆路口,25.02215,121.54839,38.0,11.5,6.187545093630776,26.25,2025-05-22 22:26:30
500101124,大安區,YouBike2.0_安和路二段181巷口,25.02721,121.54988,29.0,9.875,5.938674695827104,19.125,2025-05-22 22:26:30
500101125,大安區,YouBike2.0_臨江街夜市(通化街101巷口),25.02952,121.55406,30.0,11.75,5.650537269018887,7.125,2025-05-22 22:26:30
500101126,大安區,YouBike2.0_臨江街夜市(基隆路),25.02931,121.55721,29.0,15.875,9.701803955966128,13.0,2025-05-22 22:26:30
500101127,大安區,YouBike2.0_台北科技大學億光大樓,25.04177,121.53833,45.0,10.0,8.211490207542807,35.0,2025-05-22 22:26:30
500101128,大安區,YouBike2.0_新生南路一段119巷口,25.04003,121.53299,33.0,18.5,10.703804397102395,14.5,2025-05-22 22:26:30
500101129,大安區,YouBike2.0_幸安國小(仁愛路),25.03753,121.53523,28.0,10.5,5.879747322073336,17.125,2025-05-22 22:26:30
500101130,大安區,YouBike2.0_民榮公園,25.03534,121.5354,15.0,13.625,1.922609833384967,1.375,2025-05-22 22:26:30
500101131,大安區,YouBike2.0_復興南路1段340巷口,25.03701,121.54348,50.0,2.125,2.03100960115899,47.875,2025-05-22 22:26:30
500101132,大安區,YouBike2.0_建國濟南路口,25.03935,121.53828,54.0,11.5,6.164414002968977,42.25,2025-05-22 22:26:30
500101133,大安區,YouBike2.0_捷運忠孝復興站(2號出口),25.04035,121.5436,43.0,11.0,9.47176254528616,32.0,2025-05-22 22:26:30
500101134,大安區,YouBike2.0_捷運大安站(4號出口),25.0332,121.5439,13.0,1.625,1.9226098333849673,11.375,2025-05-22 22:26:30
500101135,大安區,YouBike2.0_捷運大安站(2號出口),25.03358,121.54141,26.0,3.25,2.7645717829090892,22.625,2025-05-22 22:26:30
500101136,大安區,YouBike2.0_信義大安路口(信維大樓),25.03317,121.54639,18.0,4.625,5.604526232048012,13.125,2025-05-22 22:26:30
500101137,大安區,YouBike2.0_龍門廣場,25.04092,121.54825,70.0,9.25,9.939100275463282,59.375,2025-05-22 22:26:30
500101138,大安區,YouBike2.0_仁愛安和路口,25.03754,121.55285,33.0,7.125,9.372261504796253,25.625,2025-05-22 22:26:30
500101139,大安區,YouBike2.0_信義敦化路口,25.03333,121.54977,52.0,19.375,13.637527006651275,32.25,2025-05-22 22:26:30
500101140,大安區,YouBike2.0_仁愛國中,25.03706,121.55166,25.0,4.75,6.923046397979103,20.25,2025-05-22 22:26:30
500101141,大安區,YouBike2.0_捷運信義安和站(2號出口),25.03304,121.55171,24.0,8.125,5.566160513059506,15.875,2025-05-22 22:26:30
500101142,大安區,YouBike2.0_八德市場,25.04463,121.53665,30.0,13.75,5.775564289066727,16.125,2025-05-22 22:26:30
500101143,大安區,YouBike2.0_昌隆公園,25.04448,121.53946,16.0,13.125,3.136763573220927,2.875,2025-05-22 22:26:30
500101144,大安區,YouBike2.0_捷運大安森林公園站(2號出口),25.03332,121.53435,69.0,45.0,20.170700108254618,21.125,2025-05-22 22:26:30
500101145,大安區,YouBike2.0_信義延吉街口,25.03318,121.55725,15.0,9.75,3.5355339059327373,5.125,2025-05-22 22:26:30
500101146,大安區,YouBike2.0_光信公園(光復南路456巷),25.03513,121.5561,25.0,12.875,7.698562017861331,11.375,2025-05-22 22:26:30
500101147,大安區,YouBike2.0_僑安地下停車場(2號出口)東南側,25.0391,121.5569,20.0,3.875,4.54933276112317,15.75,2025-05-22 22:26:30
500101148,大安區,YouBike2.0_建國南路一段279巷口,25.03635,121.53833,32.0,9.125,4.517821851923146,22.5,2025-05-22 22:26:30
500101149,大安區,YouBike2.0_捷運忠孝新生站(6號出口),25.04091,121.53295,15.0,9.0,5.6820519432432395,6.0,2025-05-22 22:26:30
500101150,大安區,YouBike2.0_捷運忠孝新生站(4號出口),25.04239,121.53324,46.0,6.5,7.464200272921789,39.5,2025-05-22 22:26:30
500101151,大安區,YouBike2.0_大安高工,25.03126,121.54339,23.0,3.625,3.067688753070345,19.375,2025-05-22 22:26:30
500101152,大安區,YouBike2.0_捷運忠孝新生站(3號出口),25.04189,121.53376,43.0,12.5,11.575836902790225,30.25,2025-05-22 22:26:30
500101153,大安區,YouBike2.0_瑠公公園,25.04201,121.54612,20.0,9.75,6.713525792862389,10.25,2025-05-22 22:26:30
500101154,大安區,YouBike2.0_敦化市民路口,25.04405,121.5486,23.0,15.625,6.674846172652328,7.25,2025-05-22 22:26:30
500101155,大安區,YouBike2.0_捷運大安森林公園站(5號出口),25.03336,121.5364,15.0,6.875,5.303300858899106,8.125,2025-05-22 22:26:30
500101156,大安區,YouBike2.0_信義建國路口,25.0328,121.53746,52.0,21.5,12.17726218350062,29.125,2025-05-22 22:26:30
500101157,大安區,YouBike2.0_東豐公園,25.03569,121.5451,19.0,10.75,4.0970372570571385,8.0,2025-05-22 22:26:30
500101158,大安區,YouBike2.0_德安公園(四維路66巷),25.03473,121.54767,22.0,13.75,4.367084676466507,8.25,2025-05-22 22:26:30
500101159,大安區,YouBike2.0_捷運忠孝復興站(5號出口),25.04253,121.54407,30.0,10.0,10.253919111386491,20.0,2025-05-22 22:26:30
500101160,大安區,YouBike2.0_捷運忠孝敦化站(2號出口),25.04153,121.5524,17.0,3.875,4.54933276112317,13.0,2025-05-22 22:26:30
500101161,大安區,YouBike2.0_捷運忠孝敦化站(7號出口),25.04159,121.54937,18.0,4.25,5.970163912561961,13.625,2025-05-22 22:26:30
500101162,大安區,YouBike2.0_忠孝東路四段223巷口(市民大道側),25.04427,121.55291,25.0,14.875,6.770471602058878,9.875,2025-05-22 22:26:30
500101163,大安區,YouBike2.0_瑞安街208巷,25.02979,121.54053,15.0,12.125,2.6958963523950885,2.875,2025-05-22 22:26:30
500101165,大安區,YouBike2.0_樂利路21巷口,25.0277,121.55132,17.0,8.125,3.181980515339464,5.5,2025-05-22 22:26:30
500101166,大安區,YouBike2.0_捷運科技大樓站(台北教育大學),25.02472,121.54417,54.0,13.25,10.885770528538622,40.625,2025-05-22 22:26:30
500101167,大安區,YouBike2.0_捷運國父紀念館站(2號出口),25.04122,121.55745,45.0,8.125,10.561892417013697,33.75,2025-05-22 22:26:30
500101168,大安區,YouBike2.0_仁愛醫院,25.03756,121.54587,36.0,4.25,4.832922806867792,31.625,2025-05-22 22:26:30
500101169,大安區,YouBike2.0_捷運信義安和站(4號出口),25.03305,121.55378,49.0,13.625,11.562717179427532,35.125,2025-05-22 22:26:30
500101170,大安區,YouBike2.0_成功國宅,25.02681,121.54668,36.0,22.875,9.493418773023762,12.875,2025-05-22 22:26:30
500101171,大安區,YouBike2.0_仁愛延吉街口,25.03748,121.55564,33.0,12.125,6.311836952447814,20.75,2025-05-22 22:26:30
500101172,大安區,YouBike2.0_捷運信義安和站(1號出口),25.03331,121.55265,33.0,9.75,9.130013299943371,23.0,2025-05-22 22:26:30
500101173,大安區,YouBike2.0_敦化南路二段103巷口,25.0287,121.54904,24.0,4.5,6.697547525560595,19.5,2025-05-22 22:26:30
500101174,大安區,YouBike2.0_復興南路二段128巷口,25.02861,121.54336,41.0,24.375,12.805551251591742,16.25,2025-05-22 22:26:30
500101175,大安區,YouBike2.0_和平東建國南路口,25.02575,121.5377,17.0,1.375,1.5979898086569353,15.125,2025-05-22 22:26:30
500101176,大安區,YouBike2.0_芳蘭山莊,25.01223,121.54788,16.0,11.0,2.3904572186687876,4.25,2025-05-22 22:26:30
500101177,大安區,YouBike2.0_復興南路一段126巷口,25.04311,121.54313,15.0,6.875,3.642506985972318,7.75,2025-05-22 22:26:30
500101179,大安區,YouBike2.0_捷運東門站(5號出口),25.03363,121.52962,28.0,10.625,10.676241981949588,16.875,2025-05-22 22:26:30
500101180,大安區,YouBike2.0_仁愛路四段48巷口,25.03597,121.54693,12.0,4.625,3.020761493398643,7.375,2025-05-22 22:26:30
500101181,大安區,YouBike2.0_捷運公館站(3號出口),25.01551,121.53374,99.0,52.625,37.301618118866024,42.375,2025-05-22 22:26:30
500101182,大安區,YouBike2.0_臺北科技大學(電機工程系),25.04196,121.53653,34.0,3.625,1.7677669529663689,30.375,2025-05-22 22:26:30
500101184,大安區,YouBike2.0_新生南路三段94巷口,25.01744,121.53334,15.0,2.125,2.6423744732991303,12.75,2025-05-22 22:26:30
500101185,大安區,YouBike2.0_辛亥新生路口西北側,25.02267,121.5341,24.0,11.625,8.943273609654513,12.125,2025-05-22 22:26:30
500101186,大安區,YouBike2.0_捷運大安站(6號出口),25.03479,121.54376,29.0,8.125,7.453426824526517,20.75,2025-05-22 22:26:30
500101187,大安區,YouBike2.0_臥龍街195巷口,25.01783,121.55224,14.0,8.875,3.833592123769634,4.625,2025-05-22 22:26:30
500101188,大安區,YouBike2.0_辛亥路三段157巷口,25.01727,121.54904,27.0,7.75,2.815771906346718,19.125,2025-05-22 22:26:30
500101189,大安區,YouBike2.0_臥龍基隆路口,25.02039,121.54853,28.0,3.875,4.120939559996343,24.0,2025-05-22 22:26:30
500101190,大安區,YouBike2.0_敦親公園,25.02347,121.54108,26.0,16.25,5.67576300723398,8.5,2025-05-22 22:26:30
500101191,大安區,YouBike2.0_大安運動中心,25.02054,121.54561,33.0,3.375,8.765802057671944,29.625,2025-05-22 22:26:30
500101192,大安區,YouBike2.0_和平敦化路口,25.02444,121.54908,36.0,13.5,7.764387566686396,22.375,2025-05-22 22:26:30
500101193,大安區,YouBike2.0_基隆長興路口,25.01705,121.54435,51.0,14.0,15.946338585572372,36.625,2025-05-22 22:26:30
500101194,大安區,YouBike2.0_仁愛路四段122巷口,25.03762,121.55009,25.0,4.75,4.743416490252569,20.0,2025-05-22 22:26:30
500101196,大安區,YouBike2.0_市民敦化路口,25.04464,121.54944,32.0,13.75,11.707750790456235,18.125,2025-05-22 22:26:30
500101197,大安區,YouBike2.0_忠孝東路四段49巷口,25.04172,121.54541,15.0,4.625,3.8890872965260113,10.375,2025-05-22 22:26:30
500101198,大安區,YouBike2.0_市民復興路口(東南側),25.04472,121.54401,16.0,5.625,4.627171304989074,10.0,2025-05-22 22:26:30
500101199,大安區,YouBike2.0_和平新生路口西南側,25.02604,121.534,17.0,11.5,3.585685828003181,5.375,2025-05-22 22:26:30
500101200,大安區,YouBike2.0_全安公園,25.02535,121.55101,16.0,7.375,4.373213921133975,6.75,2025-05-22 22:26:30
500101201,大安區,YouBike2.0_信義路三段134巷口,25.03333,121.53968,19.0,9.375,2.924648941081891,9.625,2025-05-22 22:26:30
500101202,大安區,YouBike2.0_仁愛敦南圓環(東南側),25.03715,121.54936,16.0,3.5,2.878491668515698,12.5,2025-05-22 22:26:30
500101203,大安區,YouBike2.0_臺北遠企購物中心,25.02709,121.54902,33.0,3.75,5.311712126450916,29.125,2025-05-22 22:26:30
500101204,大安區,YouBike2.0_外交部外交及國際事務學院,25.0371,121.54839,26.0,7.0,6.141195788629909,18.625,2025-05-22 22:26:30
500101205,大安區,YouBike2.0_四維路170巷口,25.02821,121.54864,22.0,6.5,5.3452248382484875,15.5,2025-05-22 22:26:30
500101206,大安區,YouBike2.0_捷運大安站(3號出口),25.03328,121.5425,46.0,11.0,11.376667852608312,35.0,2025-05-22 22:26:30
500101207,大安區,YouBike2.0_捷運臺電大樓站(2號出口)_1,25.02055,121.52855,38.0,20.125,10.204165815979275,17.75,2025-05-22 22:26:30
500101208,大安區,YouBike2.0_信義路四段199巷,25.03459,121.55164,15.0,6.625,3.7392703642746747,8.375,2025-05-22 22:26:30
500101209,大安區,YouBike2.0_臺大資訊大樓,25.02101,121.54153,40.0,5.0,7.782764841072134,35.0,2025-05-22 22:26:30
500101210,大安區,YouBike2.0_敦化南路二段81巷,25.03002,121.54893,40.0,10.625,11.350739434692601,29.25,2025-05-22 22:26:30
500101211,大安區,YouBike2.0_原臺北刑務所官舍,25.03054,121.52466,23.0,18.25,4.949747468305833,4.75,2025-05-22 22:26:30
500101212,大安區,YouBike2.0_捷運國父紀念館站(1號出口),25.04205,121.55657,24.0,6.75,5.574175147179049,17.125,2025-05-22 22:26:30
500101213,大安區,YouBike2.0_懷生國中,25.0401,121.54122,24.0,6.25,2.6049403612586386,17.75,2025-05-22 22:26:30
500101214,大安區,YouBike2.0_仁愛敦南圓環(西北側),25.03827,121.54802,20.0,1.875,2.6423744732991303,17.75,2025-05-22 22:26:30
500101215,大安區,YouBike2.0_立人國小,25.02974,121.55146,17.0,11.0,4.0708019567928595,5.875,2025-05-22 22:26:30
500101216,大安區,YouBike2.0_和平東路二段18巷口,25.02268,121.53608,24.0,20.5,3.9279220242478625,3.25,2025-05-22 22:26:30
500101217,大安區,YouBike2.0_捷運大安站(5號出口),25.03303,121.54372,26.0,4.0,6.740072064048828,22.0,2025-05-22 22:26:30
500101218,大安區,YouBike2.0_臨江公園,25.02832,121.55592,23.0,7.5,6.301927142889365,12.375,2025-05-22 22:26:30
500101219,大安區,YouBike2.0_羅斯福路四段113巷19弄口,25.01027,121.53998,14.0,5.375,3.113908889391045,8.375,2025-05-22 22:26:30
500101221,大安區,YouBike2.0_忠孝東路四段248巷口,25.04132,121.55393,25.0,1.75,2.434865792722759,23.125,2025-05-22 22:26:30
500101222,大安區,YouBike2.0_仁愛延吉路口(西北側),25.03795,121.55466,24.0,7.75,8.481071360893706,16.25,2025-05-22 22:26:30
500101223,大安區,YouBike2.0_樂利路101巷口,25.02528,121.55224,13.0,6.5,2.563479777846623,3.25,2025-05-22 22:26:30
500101224,大安區,YouBike2.0_羅斯福浦城街口,25.02208,121.52678,25.0,12.875,7.239524451627626,8.875,2025-05-22 22:26:30
500101225,大安區,YouBike2.0_敦化南路一段295巷口,25.03551,121.54951,18.0,8.75,5.063877678504601,9.125,2025-05-22 22:26:30
500101226,大安區,YouBike2.0_通安區民活動中心,25.02942,121.55294,28.0,11.875,4.38951673226759,8.75,2025-05-22 22:26:30
500101227,大安區,YouBike2.0_復興忠孝東路口(東南側),25.04061,121.54389,28.0,11.625,11.10903750491978,16.25,2025-05-22 22:26:30
500101228,大安區,YouBike2.0_仁愛大安路口(東北側),25.03813,121.54631,21.0,1.25,1.752549163769328,19.75,2025-05-22 22:26:30
500101229,大安區,YouBike2.0_臺灣師範大學(浦城街),25.02476,121.52803,20.0,9.25,4.621378891320518,10.0,2025-05-22 22:26:30
500101230,大安區,YouBike2.0_安和路二段69巷口,25.03056,121.55252,20.0,14.875,5.488624600025037,5.0,2025-05-22 22:26:30
500101231,大安區,YouBike2.0_大安國小,25.02014,121.55084,25.0,20.75,5.70087712549569,4.125,2025-05-22 22:26:30
500101232,大安區,YouBike2.0_捷運古亭站(3號出口),25.02572,121.52359,15.0,3.625,3.113908889391045,11.125,2025-05-22 22:26:30
500101233,大安區,YouBike2.0_捷運忠孝復興站(3號出口),25.04152,121.54414,37.0,8.0,8.48528137423857,29.0,2025-05-22 22:26:30
500101234,大安區,YouBike2.0_和平東路二段90巷,25.02468,121.53965,20.0,7.25,4.5591352563522705,12.5,2025-05-22 22:26:30
500101235,大安區,YouBike2.0_光復南路420巷口,25.03601,121.55742,16.0,10.125,4.454131308603925,5.875,2025-05-22 22:26:30
500101236,大安區,YouBike2.0_富陽臥龍街口,25.0187,121.55688,18.0,11.625,4.274091382136927,3.375,2025-05-22 22:26:30
500101237,大安區,YouBike2.0_仁愛復興路口,25.03817,121.544,25.0,2.125,3.6030740843261686,22.875,2025-05-22 22:26:30
500101238,大安區,YouBike2.0_仁愛敦南圓環(東側),25.03804,121.55042,26.0,3.75,3.2841611235921855,22.25,2025-05-22 22:26:30
500101239,大安區,YouBike2.0_古風公園,25.02187,121.52912,15.0,7.75,3.99106144134257,4.25,2025-05-22 22:26:30
500101240,大安區,YouBike2.0_和平東路二段76巷,25.02263,121.53906,40.0,29.875,6.174544517614234,10.125,2025-05-22 22:26:30
500101241,大安區,YouBike2.0_敦化信義路口(東南側),25.03276,121.54907,20.0,5.25,5.230405611149374,14.75,2025-05-22 22:26:30
500101242,大安區,YouBike2.0_和平東路三段308巷口,25.01883,121.5544,14.0,12.0,0.9258200997725519,0.375,2025-05-22 22:26:30
500101243,大安區,YouBike2.0_忠孝建國路口(東南側),25.04159,121.5378,21.0,5.5,2.7774602993176543,15.5,2025-05-22 22:26:30
500101244,大安區,YouBike2.0_浦城街26巷,25.02324,121.52618,17.0,10.5,4.035556254807296,3.125,2025-05-22 22:26:30
500101245,大安區,YouBike2.0_青峰活動中心,25.01524,121.55121,25.0,8.25,2.7645717829090897,16.75,2025-05-22 22:26:30
500101246,大安區,YouBike2.0_忠孝東路三段216巷口,25.04157,121.5402,28.0,9.125,8.219097969276886,18.75,2025-05-22 22:26:30
500101247,大安區,YouBike2.0_捷運忠孝復興站(4號出口),25.04173,121.54412,25.0,4.875,5.330170192940773,20.0,2025-05-22 22:26:30
500101248,大安區,YouBike2.0_和平溫州街口,25.02634,121.53342,23.0,14.875,3.9438016467073274,7.25,2025-05-22 22:26:30
500101250,大安區,YouBike2.0_國立臺北教育大學創意館,25.02305,121.54394,32.0,3.125,2.850438562747845,28.25,2025-05-22 22:26:30
500101251,大安區,YouBike2.0_捷運忠孝復興站(1號出口),25.04199,121.54362,27.0,9.125,9.030701602232876,17.625,2025-05-22 22:26:30
500101252,大安區,YouBike2.0_政大公企中心,25.03076,121.52781,13.0,7.5,3.251373336211726,5.375,2025-05-22 22:26:30
500101253,大安區,YouBike2.0_大安路二段90巷口,25.03117,121.54602,19.0,13.125,5.276294695549683,5.75,2025-05-22 22:26:30
500101254,大安區,YouBike2.0_師大附中運動中心,25.03626,121.53997,33.0,8.5,4.69041575982343,24.0,2025-05-22 22:26:30
500101256,大安區,YouBike2.0_敦化基隆路口(東北側),25.02196,121.54899,19.0,5.25,3.9551051999734645,13.75,2025-05-22 22:26:30
500101257,大安區,YouBike2.0_龍圖公園,25.0305,121.54184,20.0,12.75,5.418223219575109,6.875,2025-05-22 22:26:30
500101258,大安區,YouBike2.0_新生南路二段54巷口,25.02878,121.53412,26.0,11.5,5.855400437691199,14.375,2025-05-22 22:26:30
500101259,大安區,YouBike2.0_臺靜農人文會館,25.02462,121.53347,12.0,10.125,1.8850918886280927,1.25,2025-05-22 22:26:30
500103001,大同區,YouBike2.0_延平國宅,25.07894,121.51121,30.0,19.0,4.69041575982343,9.5,2025-05-22 22:26:30
500103002,大同區,YouBike2.0_臺北市立圖書館大同分館,25.0741,121.51349,40.0,9.0,5.606119105813881,30.75,2025-05-22 22:26:30
500103003,大同區,YouBike2.0_合昌宮,25.07717,121.50934,15.0,9.5,4.503966505838414,4.875,2025-05-22 22:26:30
500103004,大同區,YouBike2.0_民族延平路口,25.06864,121.5107,36.0,18.125,4.517821851923146,5.875,2025-05-22 22:26:30
500103005,大同區,YouBike2.0_重慶酒泉街口,25.07158,121.51368,44.0,25.25,8.102027964828135,14.625,2025-05-22 22:26:30
500103006,大同區,YouBike2.0_樹德公園,25.06647,121.5165,14.0,8.625,2.8753881725529062,4.25,2025-05-22 22:26:30
500103007,大同區,YouBike2.0_陳天來故居,25.05601,121.50895,16.0,7.25,3.882193783343198,7.875,2025-05-22 22:26:30
500103008,大同區,YouBike2.0_臺北孔廟,25.07378,121.51583,37.0,23.125,5.817154434453818,11.5,2025-05-22 22:26:30
500103009,大同區,YouBike2.0_捷運圓山站(1號出口),25.07133,121.52024,81.0,7.25,8.531454406237794,73.125,2025-05-22 22:26:30
500103010,大同區,YouBike2.0_酒泉延平路口,25.0722,121.51057,41.0,25.0,7.131419413913534,15.875,2025-05-22 22:26:30
500103011,大同區,YouBike2.0_重慶國中,25.07567,121.51862,64.0,12.25,12.803459353962563,51.5,2025-05-22 22:26:30
500103012,大同區,YouBike2.0_重慶北路三段383巷口,25.07598,121.51409,25.0,18.625,5.755432216610669,5.75,2025-05-22 22:26:30
500103013,大同區,YouBike2.0_台北數位產業園區,25.07447,121.52003,24.0,8.625,5.370222128951997,15.0,2025-05-22 22:26:30
500103019,大同區,YouBike2.0_民權延平路口(西北側),25.06326,121.51099,20.0,11.75,5.338539126015656,8.125,2025-05-22 22:26:30
500103020,大同區,YouBike2.0_民權迪化街口,25.06327,121.50943,47.0,35.375,5.95069023607466,11.25,2025-05-22 22:26:30
500103021,大同區,YouBike2.0_大稻埕公園,25.05915,121.51033,35.0,27.625,7.089982873241454,6.625,2025-05-22 22:26:30
500103022,大同區,YouBike2.0_大龍老人住宅,25.06853,121.51729,14.0,7.375,3.8521793460696654,6.375,2025-05-22 22:26:30
500103023,大同區,YouBike2.0_大龍峒社會住宅,25.0708,121.51826,34.0,7.75,6.08863109175031,26.0,2025-05-22 22:26:30
500103024,大同區,YouBike2.0_捷運大橋頭站(2號出口),25.06314,121.51308,57.0,12.75,11.961246948852306,43.625,2025-05-22 22:26:30
500103025,大同區,YouBike2.0_捷運大橋頭站(1A出口),25.06325,121.51162,30.0,8.875,6.957780844904091,20.75,2025-05-22 22:26:30
500103026,大同區,YouBike2.0_捷運民權西路站(2號出口),25.06174,121.51969,25.0,3.0,4.375255094603872,21.875,2025-05-22 22:26:30
500103027,大同區,YouBike2.0_捷運雙連站(2號出口),25.05826,121.52063,41.0,9.625,9.038607667745545,30.0,2025-05-22 22:26:30
500103028,大同區,YouBike2.0_捷運北門站(3號出口),25.04991,121.5104,62.0,22.0,15.583874449479593,39.5,2025-05-22 22:26:30
500103029,大同區,YouBike2.0_朝陽公園,25.05592,121.51367,10.0,7.5,2.82842712474619,2.25,2025-05-22 22:26:30
500103030,大同區,YouBike2.0_永樂市場,25.05454,121.51052,38.0,13.625,5.950690236074659,23.5,2025-05-22 22:26:30
500103031,大同區,YouBike2.0_大龍公園,25.07049,121.51596,26.0,14.75,7.722878811871719,11.0,2025-05-22 22:26:30
500103032,大同區,YouBike2.0_重慶涼州街口,25.06054,121.51338,13.0,5.25,3.1052950170405937,7.25,2025-05-22 22:26:30
500103033,大同區,YouBike2.0_圓山線形公園,25.06867,121.51993,26.0,11.875,6.685538764484772,14.125,2025-05-22 22:26:30
500103034,大同區,YouBike2.0_圓環站,25.05369,121.51418,31.0,16.625,7.029275516418053,13.625,2025-05-22 22:26:30
500103035,大同區,YouBike2.0_重慶民族路口,25.06853,121.51359,32.0,19.875,8.236460751699465,10.5,2025-05-22 22:26:30
500103036,大同區,YouBike2.0_承德路三段8巷口,25.06407,121.51822,21.0,3.875,5.02671434864337,16.375,2025-05-22 22:26:30
500103037,大同區,YouBike2.0_太原廣場,25.04925,121.51468,31.0,9.5,2.390457218668787,19.75,2025-05-22 22:26:30
500103038,大同區,YouBike2.0_國順公園,25.06594,121.51078,20.0,12.5,6.4142698058981855,6.5,2025-05-22 22:26:30
500103039,大同區,YouBike2.0_聯合醫院中興院區,25.05205,121.50818,40.0,15.75,7.796519369931321,24.25,2025-05-22 22:26:30
500103040,大同區,YouBike2.0_蔣渭水紀念公園,25.06011,121.51729,36.0,21.5,9.227288721117224,12.5,2025-05-22 22:26:30
500103041,大同區,YouBike2.0_迪化休閒運動公園,25.07491,121.5115,26.0,14.125,5.743008171432709,11.75,2025-05-22 22:26:30
500103042,大同區,YouBike2.0_大同運動中心,25.06496,121.51608,16.0,1.0,1.6035674514745464,14.5,2025-05-22 22:26:30
500103043,大同區,YouBike2.0_重慶保安街口(家樂福重慶店),25.05918,121.51373,20.0,7.625,5.974648824109127,11.875,2025-05-22 22:26:30
500103044,大同區,YouBike2.0_大稻埕碼頭,25.05662,121.50783,52.0,18.0,12.317235311314212,32.375,2025-05-22 22:26:30
500103045,大同區,YouBike2.0_歸綏戲曲公園,25.05805,121.51353,25.0,16.375,7.44383733605956,8.5,2025-05-22 22:26:30
500103046,大同區,YouBike2.0_民權國中(民權西路),25.06322,121.5144,25.0,7.375,5.153015760559192,17.0,2025-05-22 22:26:30
500103047,大同區,YouBike2.0_承德民權路口,25.06247,121.51839,36.0,5.75,6.64938235584973,30.0,2025-05-22 22:26:30
500103048,大同區,YouBike2.0_南京太原路口,25.05366,121.51638,29.0,6.375,4.8678977568791,22.5,2025-05-22 22:26:30
500103049,大同區,YouBike2.0_承德民生西路口,25.05756,121.51828,19.0,3.25,3.1959796173138706,15.25,2025-05-22 22:26:30
500103050,大同區,YouBike2.0_太原五原路口,25.05646,121.51698,32.0,17.875,8.078852464481397,14.0,2025-05-22 22:26:30
500103051,大同區,YouBike2.0_臺北轉運站(華陰街),25.04937,121.51914,20.0,6.875,5.5917669070569405,12.25,2025-05-22 22:26:30
500103052,大同區,YouBike2.0_捷運民權西路站(3號出口),25.06129,121.52021,50.0,13.125,10.06319318819117,36.5,2025-05-22 22:26:30
500103053,大同區,YouBike2.0_捷運中山站(5號出口),25.05296,121.51938,18.0,1.25,1.8322507626258087,16.625,2025-05-22 22:26:30
500103054,大同區,YouBike2.0_重慶長安路口,25.0515,121.51398,21.0,9.5,5.656854249492381,11.0,2025-05-22 22:26:30
500103055,大同區,YouBike2.0_承德昌吉街口,25.06587,121.51847,18.0,6.125,5.693040864574423,11.875,2025-05-22 22:26:30
500103056,大同區,YouBike2.0_大同16號廣場,25.05658,121.50826,14.0,7.125,4.2907708265199025,6.125,2025-05-22 22:26:30
500103058,大同區,YouBike2.0_樹德公園_1,25.06669,121.51615,40.0,24.375,5.50162313711664,14.75,2025-05-22 22:26:30
500103059,大同區,YouBike2.0_承德鄭州路口(市民高架下),25.04879,121.51626,38.0,24.25,7.245688373094719,11.625,2025-05-22 22:26:30
500103060,大同區,YouBike2.0_成淵高中,25.06036,121.51996,25.0,9.375,3.9618718519695424,15.5,2025-05-22 22:26:30
500103061,大同區,YouBike2.0_雙蓮國小,25.06157,121.51683,20.0,12.625,2.9730936268953445,7.375,2025-05-22 22:26:30
500103062,大同區,YouBike2.0_寧夏涼州街口,25.06095,121.51428,15.0,9.875,2.9001231500945415,4.875,2025-05-22 22:26:30
500103063,大同區,YouBike2.0_延平涼州街口,25.06092,121.51126,14.0,9.375,4.274091382136927,3.75,2025-05-22 22:26:30
500103064,大同區,YouBike2.0_大同行政中心,25.06603,121.51481,16.0,12.0,3.295017884191656,3.625,2025-05-22 22:26:30
500103065,大同區,YouBike2.0_大龍市場,25.07473,121.51451,15.0,12.5,3.505098327538656,2.25,2025-05-22 22:26:30
500103066,大同區,YouBike2.0_南京西寧北路口(西北側),25.05348,121.50855,13.0,9.5,2.138089935299395,3.125,2025-05-22 22:26:30
500103068,大同區,YouBike2.0_哈密街23巷19弄口,25.07563,121.51815,23.0,18.5,4.242640687119285,4.375,2025-05-22 22:26:30
500103069,大同區,YouBike2.0_民權西路160巷口,25.06289,121.51544,15.0,8.375,5.829420456369815,6.125,2025-05-22 22:26:30
500103070,大同區,YouBike2.0_重慶北路三段205巷口,25.06997,121.51388,19.0,13.75,3.5355339059327373,4.875,2025-05-22 22:26:30
500103071,大同區,YouBike2.0_承德路二段91巷口,25.05621,121.51847,20.0,4.125,4.4860896112315904,15.625,2025-05-22 22:26:30
500103072,大同區,YouBike2.0_酒泉庫倫街口,25.07194,121.51626,15.0,6.875,5.330170192940773,8.125,2025-05-22 22:26:30
500103073,大同區,YouBike2.0_民族西大龍街口,25.06864,121.51559,16.0,11.875,4.086126352846737,3.75,2025-05-22 22:26:30
500103074,大同區,YouBike2.0_承德路三段324巷口,25.07477,121.51977,45.0,19.25,6.923046397979103,24.625,2025-05-22 22:26:30
500103075,大同區,YouBike2.0_玉泉公園(鄭州路),25.05044,121.50766,20.0,4.125,4.67325215607779,15.75,2025-05-22 22:26:30
500103076,大同區,YouBike2.0_玉泉公園(忠孝西路),25.04888,121.50745,25.0,10.375,5.2355242608275905,14.25,2025-05-22 22:26:30
500103078,大同區,YouBike2.0_明倫高中,25.07576,121.52011,32.0,7.25,7.0457687403758245,24.625,2025-05-22 22:26:30
500104001,士林區,YouBike2.0_劍潭抽水站,25.08128,121.51784,17.0,5.5,2.0,6.875,2025-05-22 22:26:30
500104002,士林區,YouBike2.0_通河東街大南路口,25.08914,121.51542,15.0,7.25,3.8452196667699345,6.25,2025-05-22 22:26:30
500104003,士林區,YouBike2.0_福港街停車場,25.08695,121.51901,38.0,18.625,5.604526232048012,11.625,2025-05-22 22:26:30
500104004,士林區,YouBike2.0_百齡國小,25.08521,121.51918,50.0,29.5,3.6645015252516173,16.25,2025-05-22 22:26:30
500104005,士林區,YouBike2.0_雨聲街165巷口,25.10277,121.53357,24.0,8.125,4.257346591481601,15.875,2025-05-22 22:26:30
500104006,士林區,YouBike2.0_天和公園,25.12011,121.53357,16.0,5.375,1.5979898086569353,6.25,2025-05-22 22:26:30
500104007,士林區,YouBike2.0_中山天母路口,25.11856,121.52964,29.0,4.125,4.38951673226759,24.25,2025-05-22 22:26:30
500104008,士林區,YouBike2.0_天母運動公園,25.11633,121.53414,50.0,12.5,12.524262168173536,37.5,2025-05-22 22:26:30
500104009,士林區,YouBike2.0_臺北市立大學(天母校區),25.11356,121.53718,48.0,19.5,8.68496237346895,25.5,2025-05-22 22:26:30
500104010,士林區,YouBike2.0_忠誠路二段53巷,25.11127,121.53244,37.0,6.25,6.135377506140689,30.375,2025-05-22 22:26:30
500104012,士林區,YouBike2.0_天母棒球場,25.11341,121.53195,26.0,6.25,4.949747468305833,19.375,2025-05-22 22:26:30
500104013,士林區,YouBike2.0_天母北天玉街口,25.12011,121.52652,15.0,4.5,3.4226138716316967,10.375,2025-05-22 22:26:30
500104014,士林區,YouBike2.0_蘭興公園,25.11184,121.52589,56.0,34.375,7.46300399111702,20.5,2025-05-22 22:26:30
500104015,士林區,YouBike2.0_明勝公園,25.08009,121.51895,14.0,5.0,2.507132682112035,6.375,2025-05-22 22:26:30
500104016,士林區,YouBike2.0_劍潭海外青年活動中心,25.07994,121.52426,23.0,4.5,5.209880722517277,18.5,2025-05-22 22:26:30
500104018,士林區,YouBike2.0_忠誠路一段173巷口,25.10813,121.5304,11.0,4.75,2.3145502494313788,4.25,2025-05-22 22:26:30
500104019,士林區,YouBike2.0_雨農國小,25.1054,121.5295,21.0,9.5,3.7416573867739413,8.625,2025-05-22 22:26:30
500104020,士林區,YouBike2.0_忠誠公園,25.10399,121.52593,25.0,10.125,8.442029207652455,14.75,2025-05-22 22:26:30
500104021,士林區,YouBike2.0_芝山抽水站,25.10155,121.52832,41.0,20.625,5.604526232048012,12.5,2025-05-22 22:26:30
500104022,士林區,YouBike2.0_至誠路一段305巷口,25.10186,121.53083,21.0,11.125,2.2951812875799473,9.875,2025-05-22 22:26:30
500104023,士林區,YouBike2.0_華齡公園,25.08302,121.52069,32.0,21.75,6.923046397979103,9.625,2025-05-22 22:26:30
500104024,士林區,YouBike2.0_前港公園(福德宮),25.08671,121.52096,18.0,10.25,2.052872551885702,5.75,2025-05-22 22:26:30
500104025,士林區,YouBike2.0_華齡街185巷口,25.08828,121.51985,12.0,6.25,2.604940361258638,3.375,2025-05-22 22:26:30
500104026,士林區,YouBike2.0_前港公園(前港街),25.0848,121.52125,27.0,13.25,7.516648189186454,12.25,2025-05-22 22:26:30
500104027,士林區,YouBike2.0_百齡高中,25.08736,121.52272,27.0,1.75,3.1052950170405937,25.125,2025-05-22 22:26:30
500104028,士林區,YouBike2.0_捷運芝山站(2號出口),25.10364,121.52219,21.0,4.0,3.7032803990902057,17.0,2025-05-22 22:26:30
500104029,士林區,YouBike2.0_臺灣戲曲中心,25.10208,121.51979,25.0,6.75,3.8821937833431974,17.625,2025-05-22 22:26:30
500104030,士林區,YouBike2.0_捷運劍潭站(2號出口),25.08388,121.52535,49.0,8.75,7.45941399460153,40.0,2025-05-22 22:26:30
500104031,士林區,YouBike2.0_劍潭基河路口,25.08403,121.5249,66.0,2.0,2.97609523657138,63.625,2025-05-22 22:26:30
500104033,士林區,YouBike2.0_福林國小,25.09896,121.53025,14.0,8.5,3.8172540616821107,5.5,2025-05-22 22:26:30
500104034,士林區,YouBike2.0_中山中正路口,25.09651,121.52753,19.0,5.0,4.956957592256421,13.75,2025-05-22 22:26:30
500104035,士林區,YouBike2.0_士林運動中心,25.08911,121.52154,30.0,13.125,6.957780844904091,16.625,2025-05-22 22:26:30
500104036,士林區,YouBike2.0_陽明高中,25.09164,121.51706,36.0,10.0,9.086882225022428,25.75,2025-05-22 22:26:30
500104037,士林區,YouBike2.0_兒童新樂園,25.09631,121.51449,23.0,6.25,3.955105199973465,16.75,2025-05-22 22:26:30
500104038,士林區,YouBike2.0_臺北市立天文館,25.09598,121.51776,50.0,9.75,7.629828681843762,40.125,2025-05-22 22:26:30
500104039,士林區,YouBike2.0_華聲公園,25.09619,121.5223,35.0,16.0,6.233549779791836,12.625,2025-05-22 22:26:30
500104040,士林區,YouBike2.0_福林公園,25.09419,121.52833,25.0,5.625,5.50162313711664,18.75,2025-05-22 22:26:30
500104042,士林區,YouBike2.0_銘傳大學,25.08771,121.52677,26.0,5.375,4.438065859293728,20.375,2025-05-22 22:26:30
500104043,士林區,YouBike2.0_士林高商,25.09435,121.51702,26.0,6.375,3.50255009141299,19.25,2025-05-22 22:26:30
500104044,士林區,YouBike2.0_蘭雅公園,25.10991,121.53039,38.0,10.0,7.348469228349534,28.0,2025-05-22 22:26:30
500104045,士林區,YouBike2.0_聯合醫院陽明院區,25.10455,121.53195,25.0,6.75,3.3273756282434612,18.125,2025-05-22 22:26:30
500104046,士林區,YouBike2.0_捷運芝山站(1號出口),25.10225,121.52286,35.0,2.75,4.464142854857069,32.125,2025-05-22 22:26:30
500104047,士林區,YouBike2.0_至誠公園,25.10143,121.53585,20.0,10.25,3.5355339059327378,9.75,2025-05-22 22:26:30
500104048,士林區,YouBike2.0_原住民文化主題公園,25.10113,121.55159,21.0,8.125,3.5632048174962625,12.625,2025-05-22 22:26:30
500104049,士林區,YouBike2.0_通河東街2段10巷口,25.09106,121.51502,15.0,9.25,2.6049403612586386,5.625,2025-05-22 22:26:30
500104050,士林區,YouBike2.0_梅林新村,25.09755,121.54036,25.0,7.625,4.808846015417837,17.375,2025-05-22 22:26:30
500104051,士林區,YouBike2.0_延平北中正路口,25.08678,121.50948,30.0,16.75,4.267819784654187,12.875,2025-05-22 22:26:30
500104052,士林區,YouBike2.0_重慶北路四段190巷口,25.08505,121.51166,13.0,7.5,1.9272482233188633,5.375,2025-05-22 22:26:30
500104053,士林區,YouBike2.0_重慶北葫東街口,25.08393,121.51169,15.0,6.0,2.9277002188455996,8.625,2025-05-22 22:26:30
500104054,士林區,YouBike2.0_葫蘆國小,25.08254,121.5075,30.0,13.875,6.642665127793212,16.125,2025-05-22 22:26:30
500104055,士林區,YouBike2.0_士林3號廣場,25.10459,121.52417,38.0,8.25,10.938137736509681,29.75,2025-05-22 22:26:30
500104056,士林區,YouBike2.0_社正公園,25.08824,121.51054,15.0,6.625,3.3354160160315836,8.25,2025-05-22 22:26:30
500104058,士林區,YouBike2.0_社中街384巷口,25.09346,121.50376,24.0,15.375,3.3354160160315836,8.5,2025-05-22 22:26:30
500104059,士林區,YouBike2.0_忠誠路一段138號,25.10641,121.52944,15.0,7.75,1.2817398889233114,5.125,2025-05-22 22:26:30
500104060,士林區,YouBike2.0_社子公園,25.0902,121.50622,31.0,13.0,6.611677980232077,15.125,2025-05-22 22:26:30
500104061,士林區,YouBike2.0_國立故宮博物院,25.09833,121.54788,17.0,5.875,3.181980515339464,11.125,2025-05-22 22:26:30
500104062,士林區,YouBike2.0_泰北高中,25.09763,121.53402,23.0,4.375,2.263846284534354,18.625,2025-05-22 22:26:30
500104063,士林區,YouBike2.0_後港公園,25.09312,121.51419,15.0,7.125,1.8850918886280925,7.875,2025-05-22 22:26:30
500104064,士林區,YouBike2.0_重慶北路四段117號,25.08279,121.51219,24.0,13.75,4.301162633521314,9.75,2025-05-22 22:26:30
500104065,士林區,YouBike2.0_社子島島頭公園,25.10893,121.46639,22.0,8.875,2.416461403433896,12.625,2025-05-22 22:26:30
500104066,士林區,YouBike2.0_延平北路八段133巷口,25.10304,121.48297,22.0,9.0,2.267786838055364,12.75,2025-05-22 22:26:30
500104067,士林區,YouBike2.0_坤天亭,25.1064,121.4836,14.0,5.625,1.4078859531733585,8.25,2025-05-22 22:26:30
500104068,士林區,YouBike2.0_社子島濕地解說小築,25.11314,121.48974,15.0,7.875,1.457737973711325,7.0,2025-05-22 22:26:30
500104069,士林區,YouBike2.0_福安國中,25.10261,121.48819,25.0,10.125,3.9798600118956085,14.5,2025-05-22 22:26:30
500104070,士林區,YouBike2.0_福安消防分隊,25.09669,121.49706,20.0,6.875,1.6420805617960927,13.0,2025-05-22 22:26:30
500104071,士林區,YouBike2.0_聖山綠地,25.10696,121.53234,15.0,8.0,3.779644730092272,5.125,2025-05-22 22:26:30
500104072,士林區,YouBike2.0_芝山國小,25.11044,121.53595,38.0,21.25,8.514693182963201,13.375,2025-05-22 22:26:30
500104073,士林區,YouBike2.0_士林新天地,25.08899,121.51751,29.0,10.75,3.1052950170405937,12.5,2025-05-22 22:26:30
500104074,士林區,YouBike2.0_蘭雅國小,25.10775,121.52312,30.0,18.125,4.940720016932177,11.75,2025-05-22 22:26:30
500104075,士林區,YouBike2.0_中正基河路口,25.0933,121.51962,37.0,7.5,7.596991885890475,29.375,2025-05-22 22:26:30
500104076,士林區,YouBike2.0_福林公園(中正路),25.09609,121.53006,45.0,9.125,4.421942042651784,35.875,2025-05-22 22:26:30
500104077,士林區,YouBike2.0_至善臨溪路口,25.09709,121.54229,48.0,4.875,4.823676724538777,43.125,2025-05-22 22:26:30
500104078,士林區,YouBike2.0_市立圖書館葫蘆堵分館,25.08217,121.51074,13.0,8.375,2.326094212561969,4.5,2025-05-22 22:26:30
500104079,士林區,YouBike2.0_東山路110巷口,25.11306,121.53945,16.0,6.5,4.242640687119286,5.5,2025-05-22 22:26:30
500104080,士林區,YouBike2.0_永平社會住宅,25.08887,121.50314,15.0,6.125,3.7583240945932275,8.875,2025-05-22 22:26:30
500104081,士林區,YouBike2.0_雨農橋,25.10012,121.53253,16.0,4.25,2.2519832529192065,9.75,2025-05-22 22:26:30
500104082,士林區,YouBike2.0_通河街76巷/承德路四段10巷口,25.08019,121.5202,14.0,4.625,1.995530720671285,5.75,2025-05-22 22:26:30
500104083,士林區,YouBike2.0_芝山聖佑宮,25.10455,121.53025,25.0,10.875,5.617256574927962,13.75,2025-05-22 22:26:30
500104084,士林區,YouBike2.0_至誠雨聲街口,25.10199,121.52927,9.0,4.75,2.1213203435596424,3.25,2025-05-22 22:26:30
500104085,士林區,YouBike2.0_捷運線型公園(後街),25.09812,121.52449,28.0,10.5,5.099019513592785,11.25,2025-05-22 22:26:30
500104086,士林區,YouBike2.0_天母公園,25.12408,121.53003,12.0,5.875,2.695896352395088,5.875,2025-05-22 22:26:30
500104087,士林區,YouBike2.0_基河文林路口,25.08637,121.5247,50.0,12.5,10.433462649434407,37.0,2025-05-22 22:26:30
500104088,士林區,YouBike2.0_文林福華路口,25.10094,121.52243,19.0,9.625,4.657942525560892,9.0,2025-05-22 22:26:30
500104089,士林區,YouBike2.0_劍潭海外青年活動中心_1,25.0796,121.5237,39.0,5.625,4.596194077712559,32.875,2025-05-22 22:26:30
500104090,士林區,YouBike2.0_社子國小_1,25.09029,121.50189,50.0,26.125,8.322731351116479,23.25,2025-05-22 22:26:30
500104091,士林區,YouBike2.0_捷運劍潭站(1號出口),25.08577,121.52531,70.0,2.75,3.9188190640986296,67.0,2025-05-22 22:26:30
500104092,士林區,YouBike2.0_德行東山路口,25.1107,121.53999,12.0,5.75,2.7124053637210754,4.875,2025-05-22 22:26:30
500104094,士林區,YouBike2.0_重慶北通河西街口,25.08756,121.51177,12.0,5.625,2.774243783705493,5.125,2025-05-22 22:26:30
500104095,士林區,YouBike2.0_葫蘆國小(延平北路五段285巷),25.08406,121.5067,25.0,12.75,2.866057521105554,12.0,2025-05-22 22:26:30
500104096,士林區,YouBike2.0_社子市場,25.0881,121.50873,15.0,5.75,2.49284690951645,9.125,2025-05-22 22:26:30
500104097,士林區,YouBike2.0_士林區農會社子分部,25.08912,121.5049,8.0,4.25,1.7525491637693285,3.75,2025-05-22 22:26:30
500104098,士林區,YouBike2.0_承德劍潭路口,25.0841,121.52341,19.0,3.125,4.38951673226759,15.875,2025-05-22 22:26:30
500104099,士林區,YouBike2.0_文林路101巷口,25.08761,121.52608,17.0,8.875,4.642582409453969,8.0,2025-05-22 22:26:30
500104100,士林區,YouBike2.0_延平北路五段257巷15弄口,25.08408,121.50959,11.0,4.5,2.878491668515698,6.5,2025-05-22 22:26:30
500104101,士林區,YouBike2.0_延平北路五段257巷4弄口,25.08471,121.5089,15.0,6.625,3.5831949031954307,8.25,2025-05-22 22:26:30
500104102,士林區,YouBike2.0_啟明學校,25.11742,121.53472,16.0,4.75,3.24037034920393,11.25,2025-05-22 22:26:30
500104103,士林區,YouBike2.0_中山福國路口,25.10203,121.52561,14.0,6.75,4.0620192023179795,7.25,2025-05-22 22:26:30
500104104,士林區,YouBike2.0_德行公園,25.10585,121.52376,14.0,2.875,3.563204817496262,11.0,2025-05-22 22:26:30
500104105,士林區,YouBike2.0_承德後港街口,25.08238,121.52309,20.0,7.875,5.938674695827104,12.125,2025-05-22 22:26:30
500104106,士林區,YouBike2.0_中山北路五段698巷口,25.09765,121.52757,15.0,9.125,2.5319388392523,5.25,2025-05-22 22:26:30
500104107,士林區,YouBike2.0_捷運士林站(1號出口),25.09561,121.52552,38.0,5.75,8.564878449642054,32.0,2025-05-22 22:26:30
500104108,士林區,YouBike2.0_捷運芝山站(2號出口)_1,25.10336,121.52263,62.0,2.125,1.807721533549109,58.625,2025-05-22 22:26:30
500104109,士林區,YouBike2.0_銘傳大學(中山北路五段280巷口),25.08762,121.52711,23.0,4.75,1.9820624179302297,18.25,2025-05-22 22:26:30
500104110,士林區,YouBike2.0_海光公園南側,25.08036,121.5084,12.0,7.75,3.1509635714446826,3.0,2025-05-22 22:26:30
500104111,士林區,YouBike2.0_士商路40巷口,25.09013,121.52054,15.0,5.875,3.6030740843261686,5.125,2025-05-22 22:26:30
500104112,士林區,YouBike2.0_劍潭郵局,25.08182,121.52431,32.0,2.5,2.563479777846623,29.5,2025-05-22 22:26:30
500104113,士林區,YouBike2.0_士東路91巷口,25.11247,121.52914,16.0,6.875,2.997022331772464,6.0,2025-05-22 22:26:30
500104114,士林區,YouBike2.0_美崙公園,25.09677,121.51931,22.0,6.375,4.808846015417837,14.75,2025-05-22 22:26:30
500104115,士林區,YouBike2.0_臺北市立大學(忠誠路二段207巷),25.11642,121.53743,17.0,4.125,3.226563851175781,12.875,2025-05-22 22:26:30
500104116,士林區,YouBike2.0_天母東路8巷/忠誠路二段154巷口,25.11579,121.53113,14.0,4.375,3.4615231989895516,6.75,2025-05-22 22:26:30
500104117,士林區,YouBike2.0_美崙公園(東北側),25.09886,121.51835,25.0,15.25,3.7321001364608946,9.375,2025-05-22 22:26:30
500104118,士林區,YouBike2.0_福安河濱公園,25.09646,121.49358,14.0,6.0,1.9999999999999998,7.5,2025-05-22 22:26:30
500104119,士林區,YouBike2.0_忠誠忠義街口(北側),25.10566,121.52922,13.0,4.625,2.5599944196367748,7.25,2025-05-22 22:26:30
500104120,士林區,YouBike2.0_忠誠忠義街口(南側),25.10519,121.52869,14.0,9.375,1.8468119248354136,4.125,2025-05-22 22:26:30
500104121,士林區,YouBike2.0_士林國小,25.09204,121.52472,15.0,5.0,3.6645015252516173,9.875,2025-05-22 22:26:30
500104122,士林區,YouBike2.0_雙溪濕地公園,25.09762,121.51321,15.0,5.125,3.6815175442433286,9.875,2025-05-22 22:26:30
500104123,士林區,YouBike2.0_劍潭海外青年活動中心(志清大樓),25.07793,121.52357,30.0,13.25,6.541078984824621,15.625,2025-05-22 22:26:30
500104124,士林區,YouBike2.0_天和一號公園,25.11836,121.53466,15.0,5.125,3.090885217631258,9.125,2025-05-22 22:26:30
500104125,士林區,YouBike2.0_忠誠路二段178巷口,25.11633,121.53295,15.0,7.75,2.7645717829090897,7.125,2025-05-22 22:26:30
500104126,士林區,YouBike2.0_克強磺溪街口,25.10893,121.52319,14.0,7.25,1.3887301496588271,6.75,2025-05-22 22:26:30
500104128,士林區,YouBike2.0_蘭雅公園(西側),25.10985,121.52859,15.0,8.125,3.3567628964311944,2.625,2025-05-22 22:26:30
500104129,士林區,YouBike2.0_福林路100巷77弄口,25.09441,121.53285,18.0,8.125,2.748376143938713,9.625,2025-05-22 22:26:30
500104130,士林區,YouBike2.0_福林路100巷11弄口,25.09601,121.53262,15.0,9.75,2.91547594742265,5.125,2025-05-22 22:26:30
500104131,士林區,YouBike2.0_重慶北路四段190巷口(通河西街側),25.0848,121.51253,15.0,8.625,2.9730936268953445,6.375,2025-05-22 22:26:30
500104132,士林區,YouBike2.0_承德區民活動中心,25.07892,121.52157,25.0,13.625,4.34042460069124,7.25,2025-05-22 22:26:30
500104133,士林區,YouBike2.0_福林路255巷口,25.09854,121.53528,18.0,8.875,3.044315545875155,8.5,2025-05-22 22:26:30
500104134,士林區,YouBike2.0_中山北路五段378巷口,25.09064,121.52765,27.0,10.5,5.264435935053794,16.125,2025-05-22 22:26:30
500104135,士林區,YouBike2.0_中山北路六段405巷,25.11576,121.52693,21.0,12.125,5.356904756613521,8.625,2025-05-22 22:26:30
500104136,士林區,YouBike2.0_圓山育樂中心,25.08248,121.52548,22.0,9.0,5.291502622129181,13.0,2025-05-22 22:26:30
500104137,士林區,YouBike2.0_至善公園,25.09862,121.53749,25.0,6.375,4.438065859293728,18.625,2025-05-22 22:26:30
500104138,士林區,YouBike2.0_社子島抽水站,25.10844,121.49552,15.0,8.75,2.3145502494313788,5.875,2025-05-22 22:26:30
500104139,士林區,YouBike2.0_中山北路六段427巷口,25.11383,121.52698,10.0,7.375,2.774243783705493,2.25,2025-05-22 22:26:30
500104140,士林區,YouBike2.0_士林分局,25.09033,121.52687,24.0,7.375,2.8753881725529062,16.375,2025-05-22 22:26:30
500105001,文山區,YouBike2.0_台北花木批發市場,25.00402,121.54074,40.0,33.25,5.849297882163783,6.0,2025-05-22 22:26:30
500105002,文山區,YouBike2.0_捷運萬隆站(4號出口),25.0027,121.53861,22.0,4.125,3.3567628964311944,17.875,2025-05-22 22:26:30
500105003,文山區,YouBike2.0_捷運萬隆站(1號出口),25.00115,121.53916,34.0,5.875,9.789754119194503,28.0,2025-05-22 22:26:30
500105004,文山區,YouBike2.0_萬和二號公園,25.00154,121.5364,35.0,22.375,8.24512843181614,10.0,2025-05-22 22:26:30
500105005,文山區,YouBike2.0_捷運萬隆站(2號出口),25.00144,121.53983,18.0,1.5,1.927248223318863,16.5,2025-05-22 22:26:30
500105006,文山區,YouBike2.0_景仁公園,24.99621,121.54043,16.0,7.125,3.8706773124535787,8.625,2025-05-22 22:26:30
500105007,文山區,YouBike2.0_捷運景美站(2號出口),24.99366,121.54124,63.0,3.0,6.117889458675388,59.75,2025-05-22 22:26:30
500105008,文山區,YouBike2.0_羅斯福景隆街口,24.99898,121.5403,50.0,19.0,12.592514783450865,31.0,2025-05-22 22:26:30
500105009,文山區,YouBike2.0_景福街/羅斯福路6段142巷口,24.998336212959,121.53686287812,28.0,21.75,2.815771906346718,5.75,2025-05-22 22:26:30
500105010,文山區,YouBike2.0_興旺公園,25.00587,121.55012,30.0,22.875,4.223657859520077,6.125,2025-05-22 22:26:30
500105011,文山區,YouBike2.0_興福國中,25.00465,121.54916,25.0,17.25,2.7645717829090897,6.25,2025-05-22 22:26:30
500105012,文山區,YouBike2.0_興隆路2段203巷,25.00346,121.54709,32.0,20.5,4.140393356054125,6.125,2025-05-22 22:26:30
500105013,文山區,YouBike2.0_景美運動公園,25.00219,121.54454,26.0,16.0,4.375255094603872,10.0,2025-05-22 22:26:30
500105014,文山區,YouBike2.0_景美醫院,24.99136,121.54008,18.0,4.0,3.0237157840738176,13.875,2025-05-22 22:26:30
500105015,文山區,YouBike2.0_師範大學公館校區,25.00792,121.53731,14.0,8.75,4.77343841331532,5.25,2025-05-22 22:26:30
500105016,文山區,YouBike2.0_景華街128巷口,24.99543,121.54725,29.0,21.625,6.674846172652328,7.25,2025-05-22 22:26:30
500105017,文山區,YouBike2.0_仙跡岩登山口(景興路),24.99118,121.5436,22.0,3.875,4.733995594179856,17.875,2025-05-22 22:26:30
500105018,文山區,YouBike2.0_國立政治大學,24.98737,121.57726,62.0,12.875,9.948976975405202,48.125,2025-05-22 22:26:30
500105019,文山區,YouBike2.0_捷運動物園站,24.99873,121.57985,57.0,10.0,8.315218406202998,46.5,2025-05-22 22:26:30
500105020,文山區,YouBike2.0_捷運木柵站,24.99798,121.57455,31.0,6.375,6.802048010919736,24.5,2025-05-22 22:26:30
500105021,文山區,YouBike2.0_捷運萬芳社區站,24.99886,121.56769,48.0,12.375,10.99269237786111,35.5,2025-05-22 22:26:30
500105022,文山區,YouBike2.0_文山運動中心,24.99676,121.5596,36.0,17.5,8.928285709714139,18.5,2025-05-22 22:26:30
500105023,文山區,YouBike2.0_捷運辛亥站,25.00467,121.55684,42.0,3.125,7.239524451627626,38.75,2025-05-22 22:26:30
500105024,文山區,YouBike2.0_興豐公園,24.99982,121.54761,25.0,10.875,3.22656385117578,14.125,2025-05-22 22:26:30
500105025,文山區,YouBike2.0_木柵光輝路口,24.98816,121.55528,33.0,12.0,6.502746672423452,21.0,2025-05-22 22:26:30
500105026,文山區,YouBike2.0_考試院,24.98747,121.54984,39.0,9.375,5.629958132298016,29.625,2025-05-22 22:26:30
500105027,文山區,YouBike2.0_和興路26巷口,24.98573,121.54532,39.0,25.75,8.32809359080113,12.375,2025-05-22 22:26:30
500105028,文山區,YouBike2.0_世新大學,24.98859,121.54336,30.0,11.875,6.8959097607619135,18.125,2025-05-22 22:26:30
500105029,文山區,YouBike2.0_一壽橋,24.97837,121.55548,28.0,20.875,4.911720676097125,5.75,2025-05-22 22:26:30
500105030,文山區,YouBike2.0_臺北市立景美女中,24.98058,121.55624,25.0,13.875,9.264949309860562,11.0,2025-05-22 22:26:30
500105031,文山區,YouBike2.0_永安藝文館_表演36房,24.98414,121.56907,29.0,14.875,6.728139203587954,14.0,2025-05-22 22:26:30
500105032,文山區,YouBike2.0_忠順區民活動中心,24.98471,121.56332,31.0,20.75,3.918819064098629,10.25,2025-05-22 22:26:30
500105033,文山區,YouBike2.0_景文中學,24.98574,121.56745,36.0,5.625,5.5533130394644346,30.375,2025-05-22 22:26:30
500105034,文山區,YouBike2.0_老泉街籃球場,24.97619,121.5583,20.0,7.25,5.230405611149375,12.75,2025-05-22 22:26:30
500105035,文山區,YouBike2.0_文山行政中心,24.98959,121.56959,27.0,13.875,6.2891630149465385,13.0,2025-05-22 22:26:30
500105036,文山區,YouBike2.0_木柵公園,24.98718,121.56059,38.0,6.625,7.781617532915083,31.125,2025-05-22 22:26:30
500105037,文山區,YouBike2.0_興隆公共住宅D2區,24.98814,121.56356,27.0,13.5,3.4226138716316967,13.375,2025-05-22 22:26:30
500105038,文山區,YouBike2.0_木新路3段95巷口,24.98088,121.56313,24.0,18.0,2.82842712474619,4.5,2025-05-22 22:26:30
500105039,文山區,YouBike2.0_樟腳里公園,24.98181,121.56567,15.0,8.125,2.997022331772464,6.375,2025-05-22 22:26:30
500105040,文山區,YouBike2.0_實踐國中,24.98301,121.55404,13.0,5.0,2.267786838055363,8.0,2025-05-22 22:26:30
500105041,文山區,YouBike2.0_指南路3段2巷,24.98537,121.57959,13.0,10.5,3.251373336211726,2.375,2025-05-22 22:26:30
500105042,文山區,YouBike2.0_萊茵公園,24.98642,121.56514,21.0,10.25,4.399675312695569,10.75,2025-05-22 22:26:30
500105043,文山區,YouBike2.0_木柵社會住宅,24.98935,121.56651,12.0,6.5,2.7774602993176543,5.5,2025-05-22 22:26:30
500105044,文山區,YouBike2.0_秀明路一段185巷口,24.99151,121.56836,20.0,12.875,4.38951673226759,7.125,2025-05-22 22:26:30
500105045,文山區,YouBike2.0_秀明路一段129巷口,24.99111,121.56703,22.0,10.0,2.82842712474619,12.0,2025-05-22 22:26:30
500105046,文山區,YouBike2.0_恆光橋(老泉街),24.97989,121.56753,13.0,5.375,3.7008686239082533,7.5,2025-05-22 22:26:30
500105047,文山區,YouBike2.0_萬有3號公園,24.99889,121.5433,14.0,9.0,3.2071349029490923,4.75,2025-05-22 22:26:30
500105048,文山區,YouBike2.0_捷運萬芳醫院站(興隆路三段115巷),24.99939,121.55848,20.0,3.0,5.154748157905347,16.75,2025-05-22 22:26:30
500105049,文山區,YouBike2.0_興得閱覽室,24.99579,121.55498,24.0,15.166666666666666,3.868677637987774,5.0,2025-05-22 22:26:30
500105050,文山區,YouBike2.0_辛亥生態公園,25.00348,121.55642,23.0,2.375,3.3354160160315836,19.875,2025-05-22 22:26:30
500105051,文山區,YouBike2.0_博嘉運動公園,25.00079,121.57534,12.0,3.625,3.420004177106889,8.375,2025-05-22 22:26:30
500105053,文山區,YouBike2.0_仙岩公園,24.99797,121.54982,20.0,14.125,2.6423744732991308,5.75,2025-05-22 22:26:30
500105054,文山區,YouBike2.0_政大一街口,24.98543,121.58006,14.0,8.0,5.656854249492381,6.0,2025-05-22 22:26:30
500105055,文山區,YouBike2.0_文山第二行政中心,25.00115,121.55142,38.0,21.5,4.898979485566356,15.875,2025-05-22 22:26:30
500105056,文山區,YouBike2.0_移民署訓練中心,24.99271,121.55865,13.0,6.75,3.615443067098218,6.25,2025-05-22 22:26:30
500105057,文山區,YouBike2.0_海巡署(南側),24.99472,121.55949,10.0,4.875,2.9970223317724636,5.125,2025-05-22 22:26:30
500105058,文山區,YouBike2.0_明道國小東南側,24.98695,121.56456,28.0,8.25,3.24037034920393,19.75,2025-05-22 22:26:30
500105059,文山區,YouBike2.0_木南公園,24.98662,121.57071,17.0,7.625,4.438065859293728,9.375,2025-05-22 22:26:30
500105060,文山區,YouBike2.0_實踐國中(木新路三段310巷口),24.98339,121.55645,17.0,12.25,3.24037034920393,4.75,2025-05-22 22:26:30
500105061,文山區,YouBike2.0_師範大學公館校區_1,25.00753,121.53719,34.0,18.875,10.575409482109224,14.875,2025-05-22 22:26:30
500105063,文山區,YouBike2.0_政大水岸電梯,24.982,121.5717,10.0,5.0,2.9760952365713798,5.0,2025-05-22 22:26:30
500105064,文山區,YouBike2.0_敦南山林,25.00264,121.5768,14.0,8.125,2.695896352395088,5.875,2025-05-22 22:26:30
500105066,文山區,YouBike2.0_景美污水抽水站,25.01076,121.53637,15.0,10.875,3.399054490379851,4.125,2025-05-22 22:26:30
500105067,文山區,YouBike2.0_萬和三號公園(北側),25.00345,121.53636,13.0,8.5,3.3806170189140663,3.75,2025-05-22 22:26:30
500105068,文山區,YouBike2.0_景興國中,24.99609,121.54284,10.0,4.75,2.866057521105554,5.25,2025-05-22 22:26:30
500105069,文山區,YouBike2.0_景仁公園_1,24.9966,121.5403,30.0,17.125,4.823676724538777,12.75,2025-05-22 22:26:30
500105070,文山區,YouBike2.0_師大公館校區學二舍,25.00825,121.53419,40.0,31.0,9.426406677899212,9.0,2025-05-22 22:26:30
500105071,文山區,YouBike2.0_景行公園,24.99279,121.54255,15.0,0.75,0.7071067811865476,14.25,2025-05-22 22:26:30
500105072,文山區,YouBike2.0_萬興國小,24.98939,121.57682,25.0,14.75,5.338539126015656,10.0,2025-05-22 22:26:30
500105073,文山區,YouBike2.0_辛亥路四段77巷口,25.00743,121.55877,14.0,7.125,3.48209706929603,6.25,2025-05-22 22:26:30
500105074,文山區,YouBike2.0_景興路42巷口,24.99696,121.54454,12.0,8.0,2.8284271247461903,3.625,2025-05-22 22:26:30
500105075,文山區,YouBike2.0_木柵路三段48巷,24.98768,121.56565,15.0,6.125,4.54933276112317,8.875,2025-05-22 22:26:30
500105076,文山區,YouBike2.0_木柵路二段109巷,24.98944,121.56195,15.0,11.0,3.779644730092272,2.5,2025-05-22 22:26:30
500105077,文山區,YouBike2.0_試院公園,24.98808,121.54723,15.0,9.0,3.585685828003181,4.125,2025-05-22 22:26:30
500105079,文山區,YouBike2.0_樟樹公園,24.9825,121.55949,15.0,6.875,4.2573465914816,8.0,2025-05-22 22:26:30
500105080,文山區,YouBike2.0_萬美萬安街口,25.00223,121.57039,25.0,9.625,4.596194077712559,15.125,2025-05-22 22:26:30
500105081,文山區,YouBike2.0_興隆路二段203巷(敦南),25.00198,121.54856,27.0,19.75,5.625198409199193,7.125,2025-05-22 22:26:30
500105082,文山區,YouBike2.0_新光秀明路口,24.99197,121.57371,15.0,11.75,3.8078865529319543,3.25,2025-05-22 22:26:30
500105083,文山區,YouBike2.0_光輝路134巷口,24.98532,121.55831,15.0,7.5,3.070597894314954,6.25,2025-05-22 22:26:30
500105084,文山區,YouBike2.0_光輝公園,24.98655,121.5552,27.0,14.25,4.026696625558687,11.875,2025-05-22 22:26:30
500105085,文山區,YouBike2.0_木新公園,24.98217,121.55782,12.0,6.625,1.9226098333849673,5.375,2025-05-22 22:26:30
500105086,文山區,YouBike2.0_興隆路二段275巷1弄口,25.00268,121.55277,16.0,6.0,4.956957592256421,6.75,2025-05-22 22:26:30
500105087,文山區,YouBike2.0_中國科技大學,24.99925,121.55553,21.0,13.125,4.421942042651783,7.375,2025-05-22 22:26:30
500105088,文山區,YouBike2.0_樟新街8巷,24.97932,121.55406,17.0,9.0,3.3806170189140663,8.0,2025-05-22 22:26:30
500105089,文山區,YouBike2.0_仙岩路22巷口,24.99892,121.54887,28.0,21.875,3.226563851175781,4.875,2025-05-22 22:26:30
500105090,文山區,YouBike2.0_木柵萬芳路口,24.99509,121.57199,29.0,5.375,4.405759217854998,23.25,2025-05-22 22:26:30
500105091,文山區,YouBike2.0_福興路78巷,25.00437,121.55048,14.0,9.125,3.044315545875155,2.5,2025-05-22 22:26:30
500105092,文山區,YouBike2.0_辛亥木柵路口,24.98839,121.55238,20.0,12.375,3.50255009141299,4.875,2025-05-22 22:26:30
500105093,文山區,YouBike2.0_興泰公園,25.00492,121.55582,12.0,3.125,2.9001231500945415,8.875,2025-05-22 22:26:30
500105094,文山區,YouBike2.0_興岩社會福利綜合大樓,25.00061,121.54941,18.0,8.75,4.978525312350464,9.25,2025-05-22 22:26:30
500105095,文山區,YouBike2.0_興隆路二段22巷9弄口,24.99746,121.54543,13.0,8.166666666666666,3.3714487489307423,4.333333333333333,2025-05-22 22:26:30
500105096,文山區,YouBike2.0_木新路三段155巷口,24.98184,121.56125,15.0,8.625,3.8521793460696654,6.375,2025-05-22 22:26:30
500105097,文山區,YouBike2.0_景興路102巷口,24.99438,121.54376,14.0,3.0,2.0701966780270626,10.375,2025-05-22 22:26:30
500105098,文山區,YouBike2.0_景福街223巷,24.99442,121.53844,18.0,10.375,4.983902658989812,6.625,2025-05-22 22:26:30
500105100,文山區,YouBike2.0_達賢圖書館,24.9884,121.57786,27.0,3.375,3.0676887530703443,23.625,2025-05-22 22:26:30
500105101,文山區,YouBike2.0_捷運木柵站(西側),24.9983,121.57279,26.0,10.125,6.937218462755805,15.875,2025-05-22 22:26:30
500105102,文山區,YouBike2.0_世新大學(試院路),24.98981,121.54783,16.0,4.25,2.3754698783308417,10.875,2025-05-22 22:26:30
500105103,文山區,YouBike2.0_興隆社會住宅D1區,24.98783,121.55831,31.0,8.125,4.189698250300543,22.625,2025-05-22 22:26:30
500105104,文山區,YouBike2.0_名門社區,25.00516,121.56757,18.0,7.125,4.580626906564521,10.875,2025-05-22 22:26:30
500105106,文山區,YouBike2.0_政大國際會館,24.98994,121.57513,20.0,14.875,5.462534733462637,4.875,2025-05-22 22:26:30
500105107,文山區,YouBike2.0_萬芳出租國宅,25.00335,121.5655,36.0,11.375,5.730557190560592,24.625,2025-05-22 22:26:30
500105108,文山區,YouBike2.0_景美國小,24.9893,121.53976,25.0,8.5,6.782329983125267,16.5,2025-05-22 22:26:30
500105109,文山區,YouBike2.0_景文街142巷口,24.98826,121.54065,16.0,4.75,2.5495097567963922,11.25,2025-05-22 22:26:30
500105110,文山區,YouBike2.0_保儀路142巷,24.98327,121.56515,22.0,12.375,5.2355242608275905,9.625,2025-05-22 22:26:30
500105111,文山區,YouBike2.0_和興水岸社會住宅,24.98505,121.54953,29.0,18.25,6.341473465550867,9.0,2025-05-22 22:26:30
500105112,文山區,YouBike2.0_萬芳路107巷口,24.99715,121.56179,20.0,5.375,3.0676887530703447,14.625,2025-05-22 22:26:30
500105113,文山區,YouBike2.0_考選部國家考場,24.98703,121.54884,26.0,5.625,3.5025500914129895,20.125,2025-05-22 22:26:30
500105114,文山區,YouBike2.0_明道國小(明道國宅),24.98686,121.56301,26.0,8.25,4.891683905218266,17.75,2025-05-22 22:26:30
500105115,文山區,YouBike2.0_興隆社會住宅A區,24.988,121.56018,30.0,5.714285714285714,3.251373336211726,24.142857142857142,2025-05-23 22:26:30
500106001,中正區,YouBike2.0_臺北自來水事業處,25.013741,121.53068,20.0,7.0,4.342481186734475,12.75,2025-05-22 22:26:30
500106002,中正區,YouBike2.0_汀州思源街口東南側,25.014697,121.531908,20.0,6.0,3.070597894314954,14.0,2025-05-22 22:26:30
500106003,中正區,YouBike2.0_捷運公館站(1號出口),25.014529,121.534374,12.0,1.75,1.6690459207925603,10.25,2025-05-22 22:26:30
500106004,中正區,YouBike2.0_捷運公館站(4號出口),25.015069,121.533828,12.0,2.875,1.3562026818605373,9.125,2025-05-22 22:26:30
500106005,中正區,YouBike2.0_捷運古亭站(9號出口),25.02694,121.52224,24.0,1.5,0.7559289460184545,22.5,2025-05-22 22:26:30
500106006,中正區,YouBike2.0_捷運古亭站(2號出口),25.0255,121.52346,55.0,5.25,7.265377779972236,49.625,2025-05-22 22:26:30
500106007,中正區,YouBike2.0_捷運臺電大樓站(1號出口),25.0197,121.529,34.0,17.25,8.97217922246318,16.625,2025-05-22 22:26:30
500106008,中正區,YouBike2.0_客家文化主題公園,25.02069,121.52456,31.0,13.0,9.023778112773575,18.0,2025-05-22 22:26:30
500106009,中正區,YouBike2.0_河堤國小,25.02277,121.52289,39.0,25.0,7.270291799999699,13.875,2025-05-22 22:26:30
500106010,中正區,YouBike2.0_紀州庵,25.02092,121.52049,45.0,24.875,7.936128959205669,19.5,2025-05-22 22:26:30
500106011,中正區,YouBike2.0_捷運臺電大樓站(5號出口),25.02075,121.52771,21.0,8.625,2.8252686345094435,12.25,2025-05-22 22:26:30
500106012,中正區,YouBike2.0_捷運臺電大樓站(4號出口),25.02102,121.52751,13.0,7.625,4.749060057376767,5.25,2025-05-22 22:26:30
500106013,中正區,YouBike2.0_羅斯福三段金門街口,25.02345,121.52498,15.0,7.0,4.140393356054125,5.75,2025-05-22 22:26:30
500106014,中正區,YouBike2.0_牯嶺公園,25.02338,121.51889,58.0,32.375,10.225144078621653,11.5,2025-05-22 22:26:30
500106015,中正區,YouBike2.0_捷運古亭站(8號出口),25.02701,121.52164,15.0,0.625,0.7440238091428449,14.375,2025-05-22 22:26:30
500106016,中正區,YouBike2.0_捷運古亭站(7號出口),25.02805,121.52155,12.0,3.125,2.5319388392523003,8.875,2025-05-22 22:26:30
500106017,中正區,YouBike2.0_南昌公園,25.02698,121.52081,55.0,2.125,4.155461122770509,52.625,2025-05-22 22:26:30
500106018,中正區,YouBike2.0_和平重慶路口,25.02723,121.51659,69.0,31.25,10.37510757259206,37.5,2025-05-22 22:26:30
500106019,中正區,YouBike2.0_孫立人將軍官邸,25.02933,121.51854,23.0,9.0,7.348469228349534,13.75,2025-05-22 22:26:30
500106020,中正區,YouBike2.0_羅斯福路二段6巷口,25.02923,121.52058,22.0,4.5,2.9277002188455996,17.5,2025-05-22 22:26:30
500106021,中正區,YouBike2.0_金華杭州南路口,25.031,121.52211,35.0,11.625,10.112757148416902,23.25,2025-05-22 22:26:30
500106022,中正區,YouBike2.0_捷運中正紀念堂站(3號出口),25.03239,121.51866,36.0,2.5,2.390457218668787,33.5,2025-05-22 22:26:30
500106023,中正區,YouBike2.0_捷運中正紀念堂站(4號出口),25.03376,121.51772,24.0,5.5,4.928053803045811,18.5,2025-05-22 22:26:30
500106025,中正區,YouBike2.0_螢橋國小,25.02609,121.51389,41.0,31.125,6.895909760761913,8.375,2025-05-22 22:26:30
500106026,中正區,YouBike2.0_古亭智慧圖書館,25.02543,121.51052,21.0,14.375,3.9977672339873487,5.875,2025-05-22 22:26:30
500106027,中正區,YouBike2.0_永昌公園,25.02643,121.50936,29.0,19.25,6.158617655657106,4.75,2025-05-22 22:26:30
500106028,中正區,YouBike2.0_中華路二段409巷口,25.02598,121.50806,15.0,4.375,1.8468119248354136,6.0,2025-05-22 22:26:30
500106029,中正區,YouBike2.0_南機場夜市(中華路二段),25.02886,121.50518,41.0,17.125,7.698562017861332,17.875,2025-05-22 22:26:30
500106030,中正區,YouBike2.0_南海和平路口西南側,25.03024,121.50904,19.0,3.125,4.580626906564522,15.75,2025-05-22 22:26:30
500106031,中正區,YouBike2.0_莒光和平路口,25.03132,121.50745,20.0,5.5,3.6253078686998625,14.5,2025-05-22 22:26:30
500106037,中正區,YouBike2.0_水源路11_1號旁,25.01602,121.52565,31.0,16.5,4.928053803045811,14.125,2025-05-22 22:26:30
500106038,中正區,YouBike2.0_南門國中,25.03543,121.50834,40.0,8.0,12.78391846925548,32.0,2025-05-22 22:26:30
500106039,中正區,YouBike2.0_捷運小南門站(2號出口),25.03567,121.51006,24.0,4.75,7.685793945418299,19.125,2025-05-22 22:26:30
500106040,中正區,YouBike2.0_介壽公園,25.03907,121.5138,35.0,4.375,4.438065859293728,30.625,2025-05-22 22:26:30
500106041,中正區,YouBike2.0_中華貴陽街口,25.03938,121.50772,20.0,3.375,3.50255009141299,16.5,2025-05-22 22:26:30
500106042,中正區,YouBike2.0_華山文創園區,25.04367,121.52849,39.0,12.0,9.273618495495704,26.625,2025-05-22 22:26:30
500106043,中正區,YouBike2.0_捷運善導寺站(1號出口),25.04527,121.5222,46.0,3.0,4.750939756661683,42.375,2025-05-22 22:26:30
500106044,中正區,YouBike2.0_濟南紹興路口,25.04193,121.52459,39.0,11.0,8.635475005547093,28.0,2025-05-22 22:26:30
500106046,中正區,YouBike2.0_林森仁愛路口,25.03915,121.52163,13.0,1.125,1.6420805617960927,11.875,2025-05-22 22:26:30
500106047,中正區,YouBike2.0_中正運動中心,25.03786,121.51985,40.0,1.625,1.9226098333849673,38.375,2025-05-22 22:26:30
500106048,中正區,YouBike2.0_信義杭州路口,25.0357,121.5241,59.0,3.75,3.1509635714446826,55.0,2025-05-22 22:26:30
500106049,中正區,YouBike2.0_捷運善導寺站(3號出口),25.04428,121.52336,20.0,3.125,4.611708700997618,16.625,2025-05-22 22:26:30
500106050,中正區,YouBike2.0_捷運小南門站(1號出口),25.03648,121.50951,46.0,9.125,14.633010626661894,36.625,2025-05-22 22:26:30
500106051,中正區,YouBike2.0_延平南路133巷口,25.03792,121.50846,36.0,3.5,5.68205194324324,32.5,2025-05-22 22:26:30
500106052,中正區,YouBike2.0_捷運西門站(2號出口),25.0416,121.50842,36.0,6.25,8.29371534872727,29.5,2025-05-22 22:26:30
500106053,中正區,YouBike2.0_寶慶博愛路口,25.04129,121.5112,47.0,3.0,3.9641248358604595,43.75,2025-05-22 22:26:30
500106054,中正區,YouBike2.0_法務部,25.03705,121.51249,27.0,3.875,3.090885217631258,22.75,2025-05-22 22:26:30
500106055,中正區,YouBike2.0_臺北市立大學(博愛校區),25.03545,121.51327,81.0,5.25,4.6827952580239325,75.75,2025-05-22 22:26:30
500106056,中正區,YouBike2.0_國家圖書館,25.03763,121.51709,36.0,3.375,5.449442959737129,32.0,2025-05-22 22:26:30
500106057,中正區,YouBike2.0_市民金山路口,25.0459,121.53068,70.0,11.875,7.239524451627627,58.0,2025-05-22 22:26:30
500106058,中正區,YouBike2.0_聯合醫院和平院區,25.03516,121.50641,32.0,5.25,5.775564289066728,26.375,2025-05-22 22:26:30
500106059,中正區,YouBike2.0_中山堂,25.04412,121.51025,43.0,5.0,7.111359122659224,37.75,2025-05-22 22:26:30
500106060,中正區,YouBike2.0_中華漢口街口,25.04533,121.50944,19.0,1.625,1.9955307206712847,17.375,2025-05-22 22:26:30
500106061,中正區,YouBike2.0_中華路一段21巷口,25.04677,121.50989,22.0,2.75,1.9820624179302297,19.0,2025-05-22 22:26:30
500106062,中正區,YouBike2.0_捷運臺大醫院站(4號出口),25.04297,121.51643,60.0,10.75,11.91337783454262,48.375,2025-05-22 22:26:30
500106063,中正區,YouBike2.0_寶藏巖觀音亭,25.01027,121.5331,23.0,8.375,4.926241685388278,14.375,2025-05-22 22:26:30
500106064,中正區,YouBike2.0_師大水源路口,25.0203,121.52302,28.0,13.875,4.882549100038392,9.75,2025-05-22 22:26:30
500106065,中正區,YouBike2.0_中山徐州路口,25.04178,121.51907,41.0,5.625,7.424621202458749,35.0,2025-05-22 22:26:30
500106066,中正區,YouBike2.0_信義連雲街口,25.03377,121.53041,39.0,23.25,13.456278407175905,15.125,2025-05-22 22:26:30
500106067,中正區,YouBike2.0_臺北轉運站,25.04842,121.51994,68.0,36.0,15.766148184367308,30.375,2025-05-22 22:26:30
500106068,中正區,YouBike2.0_莒光大埔街口,25.03132,121.50519,32.0,16.5,5.830951894845301,14.125,2025-05-22 22:26:30
500106069,中正區,YouBike2.0_捷運忠孝新生站(2號出口),25.04235,121.53222,32.0,6.875,8.061150219239366,25.125,2025-05-22 22:26:30
500106070,中正區,YouBike2.0_光華商場,25.04478,121.53274,39.0,5.5,5.1269595556932455,32.875,2025-05-22 22:26:30
500106071,中正區,YouBike2.0_中山青島路口,25.04503,121.51968,40.0,9.625,9.545941546018392,29.75,2025-05-22 22:26:30
500106072,中正區,YouBike2.0_捷運中正紀念堂站(5號出口),25.03526,121.5168,29.0,2.875,2.5319388392523003,25.625,2025-05-22 22:26:30
500106073,中正區,YouBike2.0_北平東杭州北路口,25.04553,121.52736,20.0,5.625,5.730557190560592,14.25,2025-05-22 22:26:30
500106074,中正區,YouBike2.0_王貫英先生紀念圖書館,25.02266,121.52362,15.0,9.75,2.7124053637210754,3.125,2025-05-22 22:26:30
500106075,中正區,YouBike2.0_金山信義路口,25.03443,121.52721,25.0,11.375,8.262436513696013,13.5,2025-05-22 22:26:30
500106077,中正區,YouBike2.0_林森徐州路口,25.04094,121.52215,32.0,12.5,10.085350054127307,19.375,2025-05-22 22:26:30
500106078,中正區,YouBike2.0_徐州杭州路口,25.04023,121.52565,30.0,9.0,3.585685828003181,21.0,2025-05-22 22:26:30
500106079,中正區,YouBike2.0_捷運中正紀念堂站(6號出口),25.03615,121.5166,17.0,1.75,2.052872551885702,15.25,2025-05-22 22:26:30
500106080,中正區,YouBike2.0_捷運臺北車站(M2出口),25.04821,121.51903,20.0,10.625,7.6333385319175475,9.375,2025-05-22 22:26:30
500106083,中正區,YouBike2.0_臺北市國父史蹟館(逸仙公園),25.04779,121.52042,31.0,16.5,10.281745265969477,14.5,2025-05-22 22:26:30
500106084,中正區,YouBike2.0_捷運西門站(5號出口),25.04244,121.50864,30.0,3.875,3.758324094593227,25.25,2025-05-22 22:26:30
500106085,中正區,YouBike2.0_弘道國中,25.03828,121.51524,33.0,3.125,2.5319388392523,29.875,2025-05-22 22:26:30
500106086,中正區,YouBike2.0_臺北市第一女子高級中學,25.0385,121.51288,28.0,2.125,2.6423744732991303,25.875,2025-05-22 22:26:30
500106087,中正區,YouBike2.0_台北市替代役中心,25.01808,121.5275,15.0,10.75,4.652188425123938,3.625,2025-05-22 22:26:30
500106088,中正區,YouBike2.0_紹興徐州路口,25.04051,121.52401,18.0,8.375,3.77728171346236,9.375,2025-05-22 22:26:30
500106089,中正區,YouBike2.0_羅斯福寧波東街口,25.03145,121.51941,26.0,4.875,5.0832357523811265,21.125,2025-05-22 22:26:30
500106090,中正區,YouBike2.0_自來水園區,25.01328,121.53004,40.0,12.375,6.968039281503185,27.375,2025-05-22 22:26:30
500106091,中正區,YouBike2.0_仁愛林森路口,25.03895,121.52233,31.0,1.125,1.2464234547582247,29.875,2025-05-22 22:26:30
500106092,中正區,YouBike2.0_捷運西門站(3號出口),25.04178,121.50869,36.0,3.125,3.563204817496262,32.375,2025-05-22 22:26:30
500106093,中正區,YouBike2.0_仁愛金山路口,25.0384,121.52801,9.0,5.875,3.399054490379851,2.875,2025-05-22 22:26:30
500106094,中正區,YouBike2.0_杭州南路一段101巷口,25.03746,121.52799,14.0,6.75,4.200340122282616,6.875,2025-05-22 22:26:30
500106095,中正區,YouBike2.0_仁愛杭州路口,25.03846,121.52497,25.0,13.375,8.331309278001525,11.625,2025-05-22 22:26:30
500106096,中正區,YouBike2.0_龍興里活動中心,25.02815,121.51108,21.0,16.75,3.494894235064305,2.375,2025-05-22 22:26:30
500106097,中正區,YouBike2.0_植物園,25.0299,121.51033,29.0,11.625,6.717514421272201,17.375,2025-05-22 22:26:30
500106098,中正區,YouBike2.0_郵政博物館,25.03158,121.51464,24.0,4.125,5.667892024377317,19.5,2025-05-22 22:26:30
500106099,中正區,YouBike2.0_林森北平路口,25.04659,121.52377,20.0,5.625,6.4572771793867245,14.375,2025-05-22 22:26:30
500106100,中正區,YouBike2.0_北平紹興路口,25.04597,121.52579,39.0,8.75,7.55456342692472,30.0,2025-05-22 22:26:30
500106101,中正區,YouBike2.0_天津北平路口,25.04692,121.52208,25.0,6.125,5.617256574927962,18.875,2025-05-22 22:26:30
500106102,中正區,YouBike2.0_捷運忠孝新生站(1號出口),25.04272,121.53207,19.0,2.75,3.3273756282434617,16.25,2025-05-22 22:26:30
500106103,中正區,YouBike2.0_捷運忠孝新生站(5號出口),25.04113,121.53273,13.0,5.625,4.34042460069124,7.0,2025-05-22 22:26:30
500106104,中正區,YouBike2.0_捷運臺大醫院站(1號出口),25.04074,121.51586,19.0,4.5,3.6645015252516173,14.5,2025-05-22 22:26:30
500106105,中正區,YouBike2.0_臺大醫院兒童醫院,25.04461,121.5188,22.0,4.0,5.070925528371099,17.75,2025-05-22 22:26:30
500106106,中正區,YouBike2.0_林森濟南路口(東北側),25.0425,121.5227,26.0,7.0,9.211793682944862,18.875,2025-05-22 22:26:30
500106107,中正區,YouBike2.0_仁愛紹興街口(南側),25.03837,121.52345,17.0,1.75,1.6690459207925603,15.25,2025-05-22 22:26:30
500106108,中正區,YouBike2.0_中華南海路口,25.02703,121.50686,15.0,4.0,3.9641248358604595,5.375,2025-05-22 22:26:30
500106109,中正區,YouBike2.0_立法院台北會館,25.03371,121.51068,15.0,4.875,2.1671244937540095,10.125,2025-05-22 22:26:30
500106110,中正區,YouBike2.0_捷運善導寺站(3號出口)(忠孝東路側),25.04467,121.52357,31.0,2.25,2.1213203435596424,28.0,2025-05-22 22:26:30
500106111,中正區,YouBike2.0_國家音樂廳,25.03788,121.51904,22.0,3.125,4.67325215607779,18.5,2025-05-22 22:26:30
500106112,中正區,YouBike2.0_忠孝西重慶南路口,25.04724,121.51272,33.0,4.75,5.725881092523166,28.0,2025-05-22 22:26:30
500106113,中正區,YouBike2.0_濟南路二段8巷口,25.04127,121.52697,14.0,10.25,4.496029994816062,3.375,2025-05-22 22:26:30
500106114,中正區,YouBike2.0_仁愛金山路口(東南側),25.03811,121.52855,14.0,12.125,2.2951812875799473,1.875,2025-05-22 22:26:30
500106115,中正區,YouBike2.0_臺灣文學基地,25.04148,121.5287,23.0,14.125,4.323936698360485,8.25,2025-05-22 22:26:30
500106116,中正區,YouBike2.0_重慶南詔安街口,25.02507,121.51645,19.0,13.75,2.659215781283755,2.625,2025-05-22 22:26:30
500106117,中正區,YouBike2.0_文光公園,25.03898,121.53058,28.0,19.0,7.91021039994693,9.0,2025-05-22 22:26:30
500106118,中正區,YouBike2.0_捷運中正紀念堂站(2號出口),25.03212,121.51861,12.0,4.125,4.2573465914816,7.375,2025-05-22 22:26:30
500106119,中正區,YouBike2.0_螢圃里小公園,25.02484,121.51973,25.0,11.75,5.063877678504601,9.75,2025-05-22 22:26:30
500106120,中正區,YouBike2.0_螢橋公園,25.02682,121.51737,29.0,19.375,5.804862493757159,7.125,2025-05-22 22:26:30
500106121,中正區,YouBike2.0_泉州寧波西街口,25.02965,121.51415,49.0,5.875,5.986592162013855,41.625,2025-05-22 22:26:30
500106122,中正區,YouBike2.0_和平西路二段98巷口,25.0289,121.5097,16.0,11.5,4.3094580368566735,4.5,2025-05-22 22:26:30
500106123,中正區,YouBike2.0_仁愛新生路口(西南側),25.03796,121.53261,18.0,12.625,5.343554194407635,4.875,2025-05-22 22:26:30
500106124,中正區,YouBike2.0_幸安市場,25.04032,121.53141,15.0,7.5,2.9760952365713798,7.125,2025-05-22 22:26:30
500106125,中正區,YouBike2.0_龍口市場,25.0275,121.51013,14.0,9.375,2.9246489410818914,1.375,2025-05-22 22:26:30
500106126,中正區,YouBike2.0_捷運善導寺站(5號出口),25.04418,121.52552,31.0,5.375,4.779046527738113,25.375,2025-05-22 22:26:30
500106127,中正區,YouBike2.0_青島杭州路口,25.04281,121.52629,17.0,4.0,3.964124835860459,12.875,2025-05-22 22:26:30
500106128,中正區,YouBike2.0_詔安街37巷口,25.02542,121.51233,28.0,18.375,5.878228596147944,7.875,2025-05-22 22:26:30
500106129,中正區,YouBike2.0_南海路112巷口,25.02757,121.50771,31.0,18.5,5.732115042211108,11.0,2025-05-22 22:26:30
500106130,中正區,YouBike2.0_牯嶺街95巷,25.0255,121.52067,16.0,8.0,4.3094580368566735,6.375,2025-05-22 22:26:30
500106131,中正區,YouBike2.0_仁愛紹興路口(北側),25.03862,121.52385,23.0,4.0,3.8172540616821107,19.0,2025-05-22 22:26:30
500106132,中正區,YouBike2.0_貴陽博愛路口,25.03896,121.51093,69.0,7.25,10.646931147384342,61.75,2025-05-22 22:26:30
500106133,中正區,YouBike2.0_國立臺灣博物館南門館,25.03351,121.5156,21.0,5.125,2.6423744732991303,15.625,2025-05-22 22:26:30
500106134,中正區,YouBike2.0_汀州路一段106巷口,25.03008,121.50768,21.0,11.75,4.0970372570571385,8.125,2025-05-22 22:26:30
500106135,中正區,YouBike2.0_羅斯福路四段108巷口,25.01346,121.5355,20.0,5.0,3.927922024247863,14.5,2025-05-22 22:26:30
500106136,中正區,YouBike2.0_公館水岸廣場,25.01193,121.52861,27.0,11.125,9.87692115127844,15.75,2025-05-22 22:26:30
500106137,中正區,YouBike2.0_捷運小南門站(3號出口),25.03532,121.51117,19.0,4.25,4.9208013284713825,14.625,2025-05-22 22:26:30
500106138,中正區,YouBike2.0_臨沂街停車場,25.0426,121.53006,33.0,10.25,7.066015244009273,22.625,2025-05-22 22:26:30
500106141,中正區,YouBike2.0_愛國東路116巷口,25.03276,121.52135,25.0,5.5,5.398412465054624,19.5,2025-05-22 22:26:30
500106142,中正區,YouBike2.0_愛國東羅斯福路口,25.03454,121.51733,24.0,2.0,2.138089935299395,21.75,2025-05-22 22:26:30
500107001,中山區,YouBike2.0_通北街65巷口,25.08251,121.54004,16.0,8.25,2.4928469095164494,6.875,2025-05-22 22:26:30
500107002,中山區,YouBike2.0_圓山風景區,25.07805,121.5295,15.0,3.375,3.3354160160315836,11.625,2025-05-22 22:26:30
500107003,中山區,YouBike2.0_樂群二堤頂大道口,25.0803,121.56251,20.0,5.75,6.181770435262516,14.25,2025-05-22 22:26:30
500107004,中山區,YouBike2.0_劍潭社區,25.08524,121.53748,13.0,8.0,2.672612419124244,5.0,2025-05-22 22:26:30
500107005,中山區,YouBike2.0_培英公園,25.08258,121.54462,40.0,8.5,7.289914755527471,31.25,2025-05-22 22:26:30
500107006,中山區,YouBike2.0_樂群二明水路口,25.08009,121.55226,20.0,9.125,5.566160513059505,10.75,2025-05-22 22:26:30
500107007,中山區,YouBike2.0_北安大直街口,25.08474,121.54968,31.0,9.125,7.754031209635412,21.875,2025-05-22 22:26:30
500107008,中山區,YouBike2.0_捷運劍南路站(2號出口),25.084751813542,121.555090270105,40.0,2.75,4.464142854857069,37.125,2025-05-22 22:26:30
500107009,中山區,YouBike2.0_樂群二敬業三路口,25.07985,121.55609,20.0,10.25,5.035587637718447,9.625,2025-05-22 22:26:30
500107010,中山區,YouBike2.0_樂群二敬業四路口,25.07976,121.55813,36.0,20.375,6.823017765517794,15.375,2025-05-22 22:26:30
500107011,中山區,YouBike2.0_捷運大直站(3號出口),25.07923,121.5473,34.0,8.125,6.978282637685906,25.625,2025-05-22 22:26:30
500107012,中山區,YouBike2.0_復興市民路口,25.04585,121.54375,52.0,10.75,12.646286863288031,41.25,2025-05-22 22:26:30
500107013,中山區,YouBike2.0_南京遼寧街口,25.05176,121.54217,42.0,5.0,6.676183683170241,36.5,2025-05-22 22:26:30
500107014,中山區,YouBike2.0_伊通長安路口,25.04833,121.53469,21.0,4.25,3.5757117173668083,16.5,2025-05-22 22:26:30
500107015,中山區,YouBike2.0_新生長安路口,25.04861,121.52935,30.0,21.25,6.408699444616557,8.75,2025-05-22 22:26:30
500107016,中山區,YouBike2.0_市民林森路口,25.04765,121.52589,40.0,27.0,10.37854930682924,12.625,2025-05-22 22:26:30
500107017,中山區,YouBike2.0_南京新生路口,25.05194,121.52766,34.0,23.875,5.642631098546644,9.125,2025-05-22 22:26:30
500107018,中山區,YouBike2.0_一江公園,25.05316,121.53146,37.0,6.875,5.356904756613521,30.125,2025-05-22 22:26:30
500107020,中山區,YouBike2.0_新生長春路口,25.05639,121.52752,32.0,22.875,7.318030570349609,8.375,2025-05-22 22:26:30
500107021,中山區,YouBike2.0_第二果菜批發市場,25.06642,121.53735,40.0,27.125,10.829028448704765,12.875,2025-05-22 22:26:30
500107022,中山區,YouBike2.0_民生建國路口,25.05778,121.53692,47.0,11.0,7.1514234347336165,35.875,2025-05-22 22:26:30
500107023,中山區,YouBike2.0_興安華城,25.05606,121.54175,62.0,43.75,8.77903346453518,16.5,2025-05-22 22:26:30
500107024,中山區,YouBike2.0_捷運中山國中站,25.06106,121.54406,61.0,4.25,5.230405611149374,55.625,2025-05-22 22:26:30
500107025,中山區,YouBike2.0_龍江錦州街口,25.06045,121.54077,16.0,9.0,5.1269595556932455,6.375,2025-05-22 22:26:30
500107026,中山區,YouBike2.0_建國長春路口,25.05469,121.53686,16.0,6.875,4.223657859520077,9.125,2025-05-22 22:26:30
500107027,中山區,YouBike2.0_南京建國路口,25.05214,121.5368,42.0,8.875,11.08973141501375,33.125,2025-05-22 22:26:30
500107028,中山區,YouBike2.0_捷運松江南京站(7號出口),25.05246,121.5332,75.0,9.25,10.660340385881547,65.625,2025-05-22 22:26:30
500107029,中山區,YouBike2.0_朱崙商場,25.04762,121.54043,37.0,11.875,10.815828348173008,25.125,2025-05-22 22:26:30
500107030,中山區,YouBike2.0_中吉公園,25.05604,121.53166,30.0,20.25,4.559135256352271,9.25,2025-05-22 22:26:30
500107031,中山區,YouBike2.0_華山公園,25.0471,121.5277,19.0,11.5,4.535573676110727,5.25,2025-05-22 22:26:30
500107032,中山區,YouBike2.0_建國北路一段17巷,25.04699,121.53735,45.0,12.5,4.566962103755937,32.0,2025-05-22 22:26:30
500107033,中山區,YouBike2.0_江寧公園,25.0614,121.53929,15.0,8.25,4.234214381508266,6.0,2025-05-22 22:26:30
500107034,中山區,YouBike2.0_民權龍江路口,25.06225,121.54107,32.0,11.75,9.035643703846292,20.25,2025-05-22 22:26:30
500107035,中山區,YouBike2.0_捷運中山國小站(2號出口),25.06246,121.52705,59.0,19.875,12.147163102081548,37.875,2025-05-22 22:26:30
500107036,中山區,YouBike2.0_捷運行天宮站(3號出口),25.05992,121.5333,48.0,3.25,1.9086270308410553,44.5,2025-05-22 22:26:30
500107037,中山區,YouBike2.0_林森農安街口,25.06531,121.52565,23.0,12.75,5.849297882163782,10.125,2025-05-22 22:26:30
500107038,中山區,YouBike2.0_捷運中山國小站(4號出口),25.06283,121.52697,20.0,5.25,6.923046397979103,14.625,2025-05-22 22:26:30
500107039,中山區,YouBike2.0_農安雙城街口,25.06491,121.52449,15.0,8.25,4.0620192023179795,5.875,2025-05-22 22:26:30
500107040,中山區,YouBike2.0_新生德惠街口,25.06652,121.52762,35.0,26.625,7.981004233267175,8.25,2025-05-22 22:26:30
500107041,中山區,YouBike2.0_民族林森路口,25.06847,121.52559,37.0,14.375,8.450486038430824,22.625,2025-05-22 22:26:30
500107042,中山區,YouBike2.0_臺北市立美術館,25.06987,121.52291,24.0,5.0,5.5549205986353085,18.625,2025-05-22 22:26:30
500107043,中山區,YouBike2.0_中山民族路口,25.06816,121.52265,16.0,4.375,5.040904113917888,11.625,2025-05-22 22:26:30
500107044,中山區,YouBike2.0_新生高架停車場(林森北路107巷口),25.04983,121.52853,14.0,9.75,2.9154759474226504,3.75,2025-05-22 22:26:30
500107045,中山區,YouBike2.0_南京林森路口(東南側),25.05201,121.52556,10.0,6.375,2.445841952609133,3.625,2025-05-22 22:26:30
500107046,中山區,YouBike2.0_仁德公園,25.05337,121.5289,18.0,12.375,3.543101950067402,5.625,2025-05-22 22:26:30
500107047,中山區,YouBike2.0_中原公園,25.05583,121.52821,15.0,12.25,3.453776401067595,2.625,2025-05-22 22:26:30
500107048,中山區,YouBike2.0_下埤公園,25.06682,121.54213,24.0,14.875,4.155461122770509,4.5,2025-05-22 22:26:30
500107049,中山區,YouBike2.0_五常國中,25.06505,121.54366,16.0,10.25,4.590362575159894,5.625,2025-05-22 22:26:30
500107050,中山區,YouBike2.0_榮星花園,25.06424,121.54037,46.0,26.0,10.155927192672126,12.25,2025-05-22 22:26:30
500107051,中山區,YouBike2.0_民權建國路口,25.06251,121.53765,50.0,18.75,10.673732778581794,29.125,2025-05-22 22:26:30
500107052,中山區,YouBike2.0_松江路431巷口,25.06585,121.53338,15.0,10.625,3.6620642110310255,4.375,2025-05-22 22:26:30
500107053,中山區,YouBike2.0_新喜公園,25.06533,121.53177,13.0,9.125,2.2320714274285347,1.625,2025-05-22 22:26:30
500107054,中山區,YouBike2.0_吉林路407巷口,25.06595,121.53041,15.0,7.625,2.9246489410818914,2.875,2025-05-22 22:26:30
500107055,中山區,YouBike2.0_民族松江路口,25.06833,121.5328,17.0,7.125,4.120939559996343,9.5,2025-05-22 22:26:30
500107056,中山區,YouBike2.0_林安泰古厝,25.07154,121.53058,36.0,16.75,9.662150012142373,19.0,2025-05-22 22:26:30
500107058,中山區,YouBike2.0_渭水八德路口,25.04573,121.53508,23.0,15.125,5.303300858899106,7.75,2025-05-22 22:26:30
500107059,中山區,YouBike2.0_捷運中山站(2號出口),25.05228,121.52176,33.0,5.125,7.160157619972981,27.25,2025-05-22 22:26:30
500107060,中山區,YouBike2.0_撫順公園,25.06416,121.52203,30.0,8.0,7.819389819088005,21.75,2025-05-22 22:26:30
500107061,中山區,YouBike2.0_新生公園,25.06839,121.53032,29.0,19.75,4.743416490252569,9.25,2025-05-22 22:26:30
500107062,中山區,YouBike2.0_捷運行天宮站(1號出口),25.05867,121.53305,49.0,15.75,14.95469348207636,32.75,2025-05-22 22:26:30
500107063,中山區,YouBike2.0_林森長春路口,25.05497,121.52536,28.0,16.25,9.528153771099324,11.625,2025-05-22 22:26:30
500107064,中山區,YouBike2.0_建國農安街口,25.06503,121.53678,50.0,26.25,9.662150012142373,23.375,2025-05-22 22:26:30
500107065,中山區,YouBike2.0_松江路77巷口,25.04985,121.53312,10.0,2.625,2.669269563007828,7.375,2025-05-22 22:26:30
500107066,中山區,YouBike2.0_建國長安路口,25.04836,121.53669,20.0,11.125,3.8335921237696335,8.75,2025-05-22 22:26:30
500107067,中山區,YouBike2.0_市民新生路口,25.04611,121.53193,15.0,6.75,4.334248987508019,7.25,2025-05-22 22:26:30
500107068,中山區,YouBike2.0_民權吉林路口,25.06269,121.53061,15.0,6.5,6.023762469230862,8.5,2025-05-22 22:26:30
500107069,中山區,YouBike2.0_中山農安街口,25.0651,121.5224,29.0,5.875,6.812540956626557,22.875,2025-05-22 22:26:30
500107070,中山區,YouBike2.0_捷運行政大樓,25.05575,121.52168,14.0,3.25,2.4928469095164494,10.25,2025-05-22 22:26:30
500107071,中山區,YouBike2.0_中吉公園(松江路188巷),25.0568,121.53191,22.0,13.625,6.864765108872991,8.125,2025-05-22 22:26:30
500107072,中山區,YouBike2.0_吉林路123巷口,25.05731,121.53021,22.0,14.4,6.348228099241551,7.6,2025-05-22 22:26:30
500107074,中山區,YouBike2.0_中原民生路口,25.05808,121.52887,15.0,6.5,2.2677868380553634,8.375,2025-05-22 22:26:30
500107075,中山區,YouBike2.0_國立臺北大學(臺北校區),25.05794,121.54244,38.0,4.0,5.976143046671969,33.625,2025-05-22 22:26:30
500107076,中山區,YouBike2.0_錦州吉林路口,25.06028,121.52991,30.0,25.625,3.925648263117098,3.625,2025-05-22 22:26:30
500107078,中山區,YouBike2.0_永盛公園(民生東路一段23巷),25.05873,121.52488,24.0,17.375,3.3354160160315836,6.25,2025-05-22 22:26:30
500107079,中山區,YouBike2.0_新生錦州街口,25.05955,121.52744,20.0,13.0,4.535573676110728,7.0,2025-05-22 22:26:30
500107080,中山區,YouBike2.0_濱江街199巷口,25.0734,121.53985,15.0,8.875,3.181980515339464,6.125,2025-05-22 22:26:30
500107081,中山區,YouBike2.0_大佳社區公園,25.07275,121.5373,15.0,6.375,4.34042460069124,8.625,2025-05-22 22:26:30
500107082,中山區,YouBike2.0_濱江果菜市場,25.06807,121.53673,22.0,8.625,5.5533130394644346,13.25,2025-05-22 22:26:30
500107083,中山區,YouBike2.0_興安合江路口,25.05619,121.53949,29.0,21.0,6.6332495807108005,4.875,2025-05-22 22:26:30
500107084,中山區,YouBike2.0_復興北路514巷口東側,25.06597,121.54117,12.0,7.75,3.615443067098218,3.125,2025-05-22 22:26:30
500107085,中山區,YouBike2.0_台泥大樓,25.06142,121.52305,18.0,2.75,2.3145502494313788,15.25,2025-05-22 22:26:30
500107086,中山區,YouBike2.0_植福樂群路口,25.08303,121.5604,10.0,1.125,1.7268882005337973,8.875,2025-05-22 22:26:30
500107087,中山區,YouBike2.0_新興公園,25.06157,121.52439,26.0,15.0,5.5549205986353085,10.875,2025-05-22 22:26:30
500107088,中山區,YouBike2.0_南京伊通街口,25.05189,121.53517,11.0,2.5,2.267786838055364,8.5,2025-05-22 22:26:30
500107089,中山區,YouBike2.0_南京龍江路口,25.05205,121.54012,24.0,1.0,1.1952286093343936,22.75,2025-05-22 22:26:30
500107090,中山區,YouBike2.0_撫順街41巷(崇德宮前),25.06389,121.51916,19.0,3.25,2.49284690951645,15.375,2025-05-22 22:26:30
500107091,中山區,YouBike2.0_臺北市立圖書館大直分館,25.08152,121.54646,20.0,4.375,3.204349722308279,15.125,2025-05-22 22:26:30
500107092,中山區,YouBike2.0_捷運大直站(1號出口),25.0801,121.54708,27.0,4.0,3.116774889895918,23.0,2025-05-22 22:26:30
500107093,中山區,YouBike2.0_捷運松江南京站(4號出口),25.0512,121.53312,32.0,5.625,5.3967582862307255,26.375,2025-05-22 22:26:30
500107095,中山區,YouBike2.0_中429公園,25.07864,121.55557,21.0,7.625,4.749060057376767,12.875,2025-05-22 22:26:30
500107096,中山區,YouBike2.0_長春路137巷口,25.05791,121.53114,23.0,15.75,4.367084676466507,7.125,2025-05-22 22:26:30
500107097,中山區,YouBike2.0_松江民生路口,25.05765,121.53299,21.0,4.25,3.24037034920393,16.75,2025-05-22 22:26:30
500107098,中山區,YouBike2.0_松江路132巷口,25.05277,121.53013,14.0,3.875,3.22656385117578,10.0,2025-05-22 22:26:30
500107099,中山區,YouBike2.0_長春吉林路口,25.05481,121.53032,10.0,5.125,2.799872446074234,4.875,2025-05-22 22:26:30
500107100,中山區,YouBike2.0_長春一江街口,25.05488,121.53142,11.0,6.75,3.575711717366808,4.25,2025-05-22 22:26:30
500107101,中山區,YouBike2.0_捷運松江南京站(8號出口),25.05215,121.53276,29.0,3.875,4.85320218294802,25.125,2025-05-22 22:26:30
500107102,中山區,YouBike2.0_南京一江街口,25.05215,121.53171,20.0,2.0,3.0237157840738176,18.0,2025-05-22 22:26:30
500107103,中山區,YouBike2.0_松江長春路口,25.05499,121.53295,16.0,2.875,4.793969425970806,13.125,2025-05-22 22:26:30
500107104,中山區,YouBike2.0_經國七海文化園區,25.07802,121.53511,15.0,6.875,2.997022331772464,8.125,2025-05-22 22:26:30
500107105,中山區,YouBike2.0_民族玉門街口,25.06873,121.52003,20.0,5.625,4.718883039751796,14.375,2025-05-22 22:26:30
500107106,中山區,YouBike2.0_新生農安街口,25.06493,121.52778,15.0,5.0,3.5456210417116734,9.875,2025-05-22 22:26:30
500107107,中山區,YouBike2.0_稻江高級護理家事職業學校,25.06532,121.52848,14.0,8.375,3.852179346069665,4.75,2025-05-22 22:26:30
500107108,中山區,YouBike2.0_捷運大直站(3號出口)_1,25.07934,121.54671,18.0,4.75,3.1509635714446826,13.25,2025-05-22 22:26:30
500107109,中山區,YouBike2.0_樂群二明水路口_1,25.07983,121.55236,34.0,14.5,7.111359122659224,19.5,2025-05-22 22:26:30
500107110,中山區,YouBike2.0_民權吉林路口(南側),25.06245,121.53043,16.0,8.375,5.578978401105349,7.5,2025-05-22 22:26:30
500107111,中山區,YouBike2.0_長春龍江路口,25.05473,121.54026,39.0,14.75,9.254342609978146,24.0,2025-05-22 22:26:30
500107112,中山區,YouBike2.0_民權新生路口,25.06305,121.52776,26.0,10.25,4.267819784654187,15.75,2025-05-22 22:26:30
500107113,中山區,YouBike2.0_建國長春路口(北側),25.05476,121.53693,30.0,9.75,7.045768740375825,19.5,2025-05-22 22:26:30
500107114,中山區,YouBike2.0_中山行政中心,25.06432,121.53349,30.0,21.5,10.198039027185569,8.375,2025-05-22 22:26:30
500107115,中山區,YouBike2.0_臺北市立美術館_1,25.07063,121.52327,30.0,8.25,5.946187253790688,21.75,2025-05-22 22:26:30
500107116,中山區,YouBike2.0_劍潭社區_1,25.08476,121.53789,42.0,27.0,5.3718844791323335,14.125,2025-05-22 22:26:30
500107117,中山區,YouBike2.0_濱江國小游泳池,25.07818,121.56175,16.0,7.75,3.8452196667699345,8.25,2025-05-22 22:26:30
500107118,中山區,YouBike2.0_林森公園,25.05223,121.52581,42.0,28.375,12.24671967741333,11.5,2025-05-22 22:26:30
500107119,中山區,YouBike2.0_中428公園,25.07825,121.55337,15.0,7.0,3.3380918415851206,7.625,2025-05-22 22:26:30
500107120,中山區,YouBike2.0_復華公園,25.05339,121.5401,20.0,4.5,3.891382420536067,15.125,2025-05-22 22:26:30
500107121,中山區,YouBike2.0_新生民族路口(西南側),25.06819,121.52767,15.0,9.0,3.7032803990902057,5.875,2025-05-22 22:26:30
500107122,中山區,YouBike2.0_捷運南京復興站(1號出口),25.05253,121.54256,21.0,1.5,2.390457218668787,19.5,2025-05-22 22:26:30
500107123,中山區,YouBike2.0_八德市場(北側),25.04478,121.53661,26.0,7.375,4.68851179556401,18.5,2025-05-22 22:26:30
500107124,中山區,YouBike2.0_龍江朱崙街口,25.05004,121.54043,14.0,4.25,5.230405611149374,9.75,2025-05-22 22:26:30
500107125,中山區,YouBike2.0_大直街94巷,25.08431,121.54755,15.0,8.5,2.390457218668787,6.0,2025-05-22 22:26:30
500107126,中山區,YouBike2.0_捷運南京復興站(8號出口),25.05196,121.5433,25.0,4.625,6.802048010919737,20.375,2025-05-22 22:26:30
500107127,中山區,YouBike2.0_民權建國路口(南側),25.06228,121.53702,15.0,3.375,2.5035688811888406,11.625,2025-05-22 22:26:30
500107128,中山區,YouBike2.0_林森德惠街口,25.06688,121.5257,16.0,11.25,3.770183777256185,4.625,2025-05-22 22:26:30
500107129,中山區,YouBike2.0_新生濱江街口(東南側),25.07059,121.52812,21.0,8.5,4.342481186734476,12.25,2025-05-22 22:26:30
500107130,中山區,YouBike2.0_新生北路一段62巷口,25.04699,121.53075,30.0,14.625,6.631903411324901,15.0,2025-05-22 22:26:30
500107131,中山區,YouBike2.0_新生長春路口(東北側),25.05532,121.52769,19.0,15.125,5.221863378417434,3.75,2025-05-22 22:26:30
500107132,中山區,YouBike2.0_捷運劍南路站(1號出口),25.08519,121.55498,25.0,6.125,5.540435774506241,18.0,2025-05-22 22:26:30
500107134,中山區,YouBike2.0_長春路258巷2弄口,25.05427,121.53896,19.0,13.125,2.6958963523950885,5.875,2025-05-22 22:26:30
500107135,中山區,YouBike2.0_長寧大廈社區(南側),25.05418,121.54332,15.0,4.125,2.748376143938713,10.625,2025-05-22 22:26:30
500107136,中山區,YouBike2.0_建國五常街口,25.06419,121.53732,20.0,13.125,4.189698250300543,6.625,2025-05-22 22:26:30
500107137,中山區,YouBike2.0_中山北路二段62巷口,25.05676,121.52268,12.0,4.5,3.7416573867739413,7.375,2025-05-22 22:26:30
500107138,中山區,YouBike2.0_市民安東街口,25.0448,121.54213,27.0,11.5,8.668497975016038,15.375,2025-05-22 22:26:30
500107139,中山區,YouBike2.0_市民大道二段5巷口,25.04812,121.52166,15.0,8.125,3.833592123769634,6.875,2025-05-22 22:26:30
500107140,中山區,YouBike2.0_捷運中山站(3號出口),25.05236,121.52212,21.0,3.125,6.243568119044018,17.875,2025-05-22 22:26:30
500107141,中山區,YouBike2.0_建國北路高架橋下停車場G區,25.05959,121.53682,18.0,13.0,2.878491668515698,4.875,2025-05-22 22:26:30
500107142,中山區,YouBike2.0_朱崙公園,25.04919,121.54198,20.0,9.375,7.4821215478728265,10.375,2025-05-22 22:26:30
500107143,中山區,YouBike2.0_朱崙復興北路口,25.04992,121.54379,12.0,3.125,3.8706773124535783,8.75,2025-05-22 22:26:30
500107144,中山區,YouBike2.0_捷運行天宮站(4號出口),25.06037,121.53283,36.0,13.25,12.244532307465704,22.375,2025-05-22 22:26:30
500107145,中山區,YouBike2.0_建國北路三段86巷口,25.06617,121.53526,15.0,7.375,3.9618718519695424,7.625,2025-05-22 22:26:30
500107146,中山區,YouBike2.0_正守公園,25.04808,121.52898,15.0,8.125,4.580626906564522,6.875,2025-05-22 22:26:30
500107147,中山區,YouBike2.0_四平松江路口,25.05366,121.53282,18.0,2.625,3.2043497223082786,15.125,2025-05-22 22:26:30
500107149,中山區,YouBike2.0_北安通北街口,25.07965,121.54148,17.0,3.375,3.204349722308278,13.625,2025-05-22 22:26:30
500107150,中山區,YouBike2.0_民權東復興北路口(西北側),25.06246,121.54323,20.0,3.375,4.274091382136927,16.625,2025-05-22 22:26:30
500107151,中山區,YouBike2.0_臺北市立大同高中,25.05484,121.53521,22.0,6.875,6.770471602058879,15.0,2025-05-22 22:26:30
500107152,中山區,YouBike2.0_中崙加油站,25.04634,121.53979,27.0,4.5,3.7416573867739413,22.5,2025-05-22 22:26:30
500107153,中山區,YouBike2.0_北安明水路口(自強隧道),25.08578,121.55225,12.0,4.5,3.070597894314954,7.375,2025-05-22 22:26:30
500107154,中山區,YouBike2.0_中正國小(南京東路三段48巷),25.05126,121.53845,15.0,3.375,2.263846284534354,11.625,2025-05-22 22:26:30
500107155,中山區,YouBike2.0_臺北時代廣場,25.08044,121.56152,35.0,5.875,2.5877458475338284,29.125,2025-05-22 22:26:30
500107156,中山區,YouBike2.0_吉林農安街口(西北側),25.06493,121.53034,15.0,7.5,3.8913824205360674,2.875,2025-05-22 22:26:30
500107157,中山區,YouBike2.0_濱江國中,25.07986,121.56152,26.0,8.375,3.420004177106889,17.5,2025-05-22 22:26:30
500107158,中山區,YouBike2.0_環山抽水站,25.07734,121.5631,21.0,10.0,4.750939756661683,10.625,2025-05-22 22:26:30
500107159,中山區,YouBike2.0_民權中山路口(東北側),25.06292,121.52299,25.0,6.0,4.242640687119285,18.625,2025-05-22 22:26:30
500107160,中山區,YouBike2.0_復興五常街口(西南側),25.06409,121.54415,26.0,16.125,5.938674695827102,9.25,2025-05-22 22:26:30
500107161,中山區,YouBike2.0_松江長安路口,25.04819,121.53282,20.0,5.0,4.27617987059879,14.625,2025-05-22 22:26:30
500107162,中山區,YouBike2.0_長安國小,25.05018,121.53008,26.0,12.75,4.6827952580239325,13.25,2025-05-22 22:26:30
500107163,中山區,YouBike2.0_中山市場,25.05007,121.52107,16.0,4.75,3.9188190640986296,11.125,2025-05-22 22:26:30
500107164,中山區,YouBike2.0_捷運雙連站(1號出口),25.05767,121.52097,17.0,6.0,5.529143565818179,10.75,2025-05-22 22:26:30
500107165,中山區,YouBike2.0_吉林南京路口(西北側),25.05234,121.53003,22.0,11.0,5.855400437691199,11.0,2025-05-22 22:26:30
500107166,中山區,YouBike2.0_龍江路345巷,25.06339,121.54116,23.0,13.875,5.540435774506242,9.125,2025-05-22 22:26:30
500107167,中山區,YouBike2.0_捷運劍南路站(3號出口),25.08444,121.55657,46.0,1.0,1.7728105208558367,45.0,2025-05-22 22:26:30
500107168,中山區,YouBike2.0_一江南京東路口(西南側),25.05181,121.53146,22.0,3.875,6.998724373565718,17.75,2025-05-22 22:26:30
500107169,中山區,YouBike2.0_大直抽水站公車站,25.07756,121.54556,27.0,10.625,5.902481318419036,16.25,2025-05-22 22:26:30
500107170,中山區,YouBike2.0_民權東路三段39巷口,25.06596,121.54259,25.0,17.125,4.823676724538776,3.625,2025-05-22 22:26:30
500107171,中山區,YouBike2.0_臺北市立中山女高,25.04841,121.53889,33.0,7.375,4.718883039751796,25.625,2025-05-22 22:26:30
500107173,中山區,YouBike2.0_林森公園東北側,25.05381,121.52674,18.0,12.875,2.2951812875799464,4.625,2025-05-22 22:26:30
500107174,中山區,YouBike2.0_康樂公園西北側,25.05377,121.52456,18.0,8.375,5.2355242608275905,9.0,2025-05-22 22:26:30
500107175,中山區,YouBike2.0_中山北德惠街口,25.06671,121.52257,20.0,7.875,3.0908852176312576,11.75,2025-05-22 22:26:30
500107176,中山區,YouBike2.0_晴光公園,25.06411,121.52446,15.0,6.75,2.2519832529192065,8.125,2025-05-22 22:26:30
500107177,中山區,YouBike2.0_松江路25巷口,25.04628,121.53304,42.0,15.125,13.02127380207372,26.625,2025-05-22 22:26:30
500107178,中山區,YouBike2.0_民生東合江街口,25.05777,121.53951,20.0,10.375,5.423164600647327,9.625,2025-05-22 22:26:30
500107179,中山區,YouBike2.0_飛航服務總臺,25.07241,121.55117,23.0,6.125,2.850438562747845,16.875,2025-05-22 22:26:30
500107180,中山區,YouBike2.0_內湖堤頂大道(西南側),25.08462,121.56016,24.0,10.5,5.042675027063655,13.5,2025-05-22 22:26:30
500107181,中山區,YouBike2.0_大直派出所,25.07913,121.54422,30.0,11.375,6.232117273791125,18.625,2025-05-22 22:26:30
500107182,中山區,YouBike2.0_遼寧民生路口,25.05751,121.54215,19.0,4.125,4.15546112277051,14.875,2025-05-22 22:26:30
500107183,中山區,YouBike2.0_松江路184巷口,25.05623,121.53296,21.0,7.375,4.983902658989812,13.625,2025-05-22 22:26:30
500107184,中山區,YouBike2.0_民權東路三段60巷,25.06058,121.54236,18.0,5.125,5.139135558215436,12.625,2025-05-22 22:26:30
500107185,中山區,YouBike2.0_長春路258巷2弄(北側),25.05474,121.5383,19.0,7.75,6.041522986797287,11.125,2025-05-22 22:26:30
500108001,內湖區,YouBike2.0_文湖街21巷118弄口,25.09122,121.55961,28.0,15.875,4.940720016932176,11.25,2025-05-22 22:26:30
500108002,內湖區,YouBike2.0_北勢湖環保公園,25.08378,121.56208,27.0,6.375,5.2355242608275905,20.625,2025-05-22 22:26:30
500108003,內湖區,YouBike2.0_洲子一號公園,25.07977,121.56454,43.0,5.0,4.105745103771404,37.5,2025-05-22 22:26:30
500108004,內湖區,YouBike2.0_西康公園,25.08284,121.56449,21.0,7.5,4.6291004988627575,13.5,2025-05-22 22:26:30
500108005,內湖區,YouBike2.0_文湖國小,25.08637,121.56088,43.0,28.0,9.47176254528616,14.75,2025-05-22 22:26:30
500108006,內湖區,YouBike2.0_文湖街81巷10號西側,25.08707,121.56406,21.0,11.5,4.566962103755937,9.5,2025-05-22 22:26:30
500108007,內湖區,YouBike2.0_德明財經科技大學,25.08637,121.56574,36.0,22.75,7.025463889106743,13.125,2025-05-22 22:26:30
500108008,內湖區,YouBike2.0_麗山國小,25.0826,121.57158,18.0,6.25,5.092010548749033,11.5,2025-05-22 22:26:30
500108009,內湖區,YouBike2.0_麗山高中,25.08398,121.57725,33.0,11.125,8.592978861505811,21.75,2025-05-22 22:26:30
500108010,內湖區,YouBike2.0_港華五號公園,25.08522,121.57462,16.0,8.125,3.0443155458751545,7.75,2025-05-22 22:26:30
500108011,內湖區,YouBike2.0_大湖國小,25.08803,121.59958,29.0,16.625,4.779046527738112,12.25,2025-05-22 22:26:30
500108013,內湖區,YouBike2.0_東湖路113巷95弄,25.07177,121.61491,17.0,10.625,4.373213921133976,6.125,2025-05-22 22:26:30
500108014,內湖區,YouBike2.0_瑞光計程車服務站,25.0745,121.57389,20.0,7.0,4.342481186734475,13.0,2025-05-22 22:26:30
500108015,內湖區,YouBike2.0_文德三號公園(江南街71巷16弄),25.07524,121.5772,15.0,3.0,2.138089935299395,12.0,2025-05-22 22:26:30
500108016,內湖區,YouBike2.0_捷運大湖公園站(2號出口),25.08395,121.60185,46.0,13.25,9.300537618869138,32.75,2025-05-22 22:26:30
500108018,內湖區,YouBike2.0_康寧星雲街口,25.07958,121.59336,19.0,8.875,3.603074084326169,8.875,2025-05-22 22:26:30
500108019,內湖區,YouBike2.0_星雲街47號,25.07864,121.59177,22.0,12.25,3.7701837772561846,8.625,2025-05-22 22:26:30
500108020,內湖區,YouBike2.0_捷運西湖站(1號出口),25.08301,121.56638,23.0,2.5,3.854496446637726,20.5,2025-05-22 22:26:30
500108021,內湖區,YouBike2.0_捷運西湖站(2號出口),25.08205,121.56716,31.0,4.375,5.829420456369815,26.5,2025-05-22 22:26:30
500108022,內湖區,YouBike2.0_洲子二號公園,25.07932,121.56869,60.0,10.875,7.120142454433658,48.875,2025-05-22 22:26:30
500108023,內湖區,YouBike2.0_港都公園,25.08296,121.5752,15.0,7.25,3.882193783343198,7.625,2025-05-22 22:26:30
500108024,內湖區,YouBike2.0_環山路二段26巷口,25.08598,121.572,22.0,13.125,4.764076885549662,8.75,2025-05-22 22:26:30
500108025,內湖區,YouBike2.0_成功金龍路口,25.08436,121.59478,29.0,2.75,3.5757117173668074,25.75,2025-05-22 22:26:30
500108026,內湖區,YouBike2.0_碧山公園,25.0878,121.59227,31.0,13.125,4.155461122770509,14.375,2025-05-22 22:26:30
500108027,內湖區,YouBike2.0_金瑞公園,25.08785,121.5879,30.0,15.25,3.1052950170405937,14.625,2025-05-22 22:26:30
500108028,內湖區,YouBike2.0_捷運文德站(2號出口),25.07842,121.58464,49.0,7.5,6.928203230275509,41.25,2025-05-22 22:26:30
500108029,內湖區,YouBike2.0_陽光公園,25.07695,121.58764,16.0,4.375,3.020761493398643,11.625,2025-05-22 22:26:30
500108030,內湖區,YouBike2.0_文德二號公園(南側),25.07504,121.58375,13.0,7.125,3.090885217631258,5.25,2025-05-22 22:26:30
500108031,內湖區,YouBike2.0_文德二號公園(北側),25.07758,121.58381,15.0,5.375,3.6228441865473595,9.625,2025-05-22 22:26:30
500108032,內湖區,YouBike2.0_瑞陽公園,25.07777,121.57961,12.0,4.625,3.0676887530703447,7.25,2025-05-22 22:26:30
500108033,內湖區,YouBike2.0_湖光國宅,25.07538,121.58079,37.0,14.375,6.4793628434548145,22.375,2025-05-22 22:26:30
500108034,內湖區,YouBike2.0_潭美街213號,25.05575,121.58486,12.0,7.0,2.2038926600773587,5.0,2025-05-22 22:26:30
500108035,內湖區,YouBike2.0_南京東路六段180號,25.0559,121.57991,21.0,13.125,4.911720676097125,7.125,2025-05-22 22:26:30
500108036,內湖區,YouBike2.0_潭美國小(南京舊宗路口),25.05768,121.58159,29.0,19.0,4.780914437337574,9.625,2025-05-22 22:26:30
500108037,內湖區,YouBike2.0_新明路343號,25.05653,121.58345,10.0,6.0,2.9760952365713798,3.375,2025-05-22 22:26:30
500108038,內湖區,YouBike2.0_成美長壽橋(潭美街),25.0539,121.58084,17.0,6.375,1.9226098333849673,10.125,2025-05-22 22:26:30
500108039,內湖區,YouBike2.0_內湖行政中心,25.06915,121.58898,25.0,6.25,3.9188190640986296,18.75,2025-05-22 22:26:30
500108040,內湖區,YouBike2.0_樂康公園,25.07007,121.62055,20.0,11.5,4.6598589800857395,8.125,2025-05-22 22:26:30
500108041,內湖區,YouBike2.0_安康路32巷24弄,25.06181,121.59447,21.0,4.375,1.9226098333849673,16.625,2025-05-22 22:26:30
500108043,內湖區,YouBike2.0_明美公園,25.06256,121.58607,30.0,10.0,4.566962103755937,20.0,2025-05-22 22:26:30
500108044,內湖區,YouBike2.0_南京東路六段368巷,25.05827,121.58707,73.0,7.5,3.7416573867739413,65.125,2025-05-22 22:26:30
500108045,內湖區,YouBike2.0_新明成功路口,25.06058,121.5911,30.0,8.0,4.342481186734475,21.875,2025-05-22 22:26:30
500108046,內湖區,YouBike2.0_民權瑞光路口,25.06835,121.58323,32.0,16.625,3.925648263117098,15.125,2025-05-22 22:26:30
500108047,內湖區,YouBike2.0_瑞光公共住宅(瑞光路),25.07335,121.57951,18.0,5.375,1.9226098333849673,12.375,2025-05-22 22:26:30
500108048,內湖區,YouBike2.0_民權東路六段15巷,25.06853,121.57813,28.0,13.25,2.49284690951645,14.75,2025-05-22 22:26:30
500108049,內湖區,YouBike2.0_扶輪親恩公園,25.06709,121.58002,30.0,15.25,7.0457687403758245,14.75,2025-05-22 22:26:30
500108050,內湖區,YouBike2.0_新湖三民善街口,25.06286,121.57497,15.0,4.0,3.116774889895918,11.0,2025-05-22 22:26:30
500108051,內湖區,YouBike2.0_內湖119號綠地,25.05594,121.57865,41.0,23.0,6.782329983125269,18.0,2025-05-22 22:26:30
500108052,內湖區,YouBike2.0_行善公園,25.05301,121.57592,25.0,11.875,4.580626906564521,12.75,2025-05-22 22:26:30
500108054,內湖區,YouBike2.0_三軍總醫院,25.07151,121.58991,50.0,13.25,6.3639610306789285,36.75,2025-05-22 22:26:30
500108055,內湖區,YouBike2.0_福華商場,25.06877,121.59265,25.0,10.5,4.69041575982343,14.375,2025-05-22 22:26:30
500108056,內湖區,YouBike2.0_臺北市網球中心,25.0674,121.59749,34.0,17.0,7.4258236676383005,16.875,2025-05-22 22:26:30
500108057,內湖區,YouBike2.0_捷運葫洲站(1號出口),25.07249,121.60796,37.0,7.875,6.685538764484772,29.125,2025-05-22 22:26:30
500108058,內湖區,YouBike2.0_麗湖國小,25.07332,121.60223,27.0,15.75,5.007137762377681,10.625,2025-05-22 22:26:30
500108059,內湖區,YouBike2.0_金湖路347巷125弄口,25.0733,121.59834,15.0,6.75,1.6690459207925603,8.125,2025-05-22 22:26:30
500108060,內湖區,YouBike2.0_碧湖公園,25.07988,121.58287,25.0,6.875,6.642665127793211,18.125,2025-05-22 22:26:30
500108061,內湖區,YouBike2.0_碧湖公園(內湖路二段103巷),25.08317,121.58109,19.0,7.75,3.615443067098218,7.0,2025-05-22 22:26:30
500108062,內湖區,YouBike2.0_貿七社區,25.08357,121.58534,17.0,6.0,3.251373336211726,10.75,2025-05-22 22:26:30
500108063,內湖區,YouBike2.0_內湖區農會,25.08165,121.58891,12.0,4.625,2.5035688811888406,7.375,2025-05-22 22:26:30
500108064,內湖區,YouBike2.0_捷運內湖站(2號出口),25.0835,121.59454,10.0,2.0,1.927248223318863,7.75,2025-05-22 22:26:30
500108065,內湖區,YouBike2.0_康寧金湖路口,25.07896,121.59921,21.0,10.25,4.920801328471382,10.625,2025-05-22 22:26:30
500108066,內湖區,YouBike2.0_康寧路一段156巷20弄口,25.07792,121.59354,20.0,10.875,4.454131308603925,8.25,2025-05-22 22:26:30
500108067,內湖區,YouBike2.0_安康公園,25.06657,121.6136,25.0,7.125,2.9489707647632875,17.875,2025-05-22 22:26:30
500108068,內湖區,YouBike2.0_安泰街83巷,25.07669,121.61709,34.0,20.75,5.338539126015656,12.875,2025-05-22 22:26:30
500108069,內湖區,YouBike2.0_內溝溪生態展示館,25.08722,121.62306,16.0,7.125,4.4860896112315904,8.875,2025-05-22 22:26:30
500108070,內湖區,YouBike2.0_捷運港墘站(2號出口),25.07967,121.57584,47.0,13.75,10.039208847599213,33.25,2025-05-22 22:26:30
500108071,內湖區,YouBike2.0_東湖國中,25.07334,121.61962,42.0,21.75,9.528153771099324,20.25,2025-05-22 22:26:30
500108072,內湖區,YouBike2.0_石潭公園(安康路),25.06261,121.59334,20.0,6.125,4.2907708265199025,13.875,2025-05-22 22:26:30
500108073,內湖區,YouBike2.0_內湖垃圾焚化廠,25.06209,121.60347,20.0,3.25,3.284161123592186,16.75,2025-05-22 22:26:30
500108074,內湖區,YouBike2.0_康寧公園(北側),25.06927,121.61019,22.0,7.625,2.7222627143085005,14.375,2025-05-22 22:26:30
500108075,內湖區,YouBike2.0_康寧路三段54巷口,25.0716,121.60936,15.0,3.375,3.204349722308279,11.625,2025-05-22 22:26:30
500108076,內湖區,YouBike2.0_行善路25巷口,25.05707,121.57658,21.0,6.0,4.9856938190329,15.0,2025-05-22 22:26:30
500108077,內湖區,YouBike2.0_新明路460巷口,25.05503,121.57823,22.0,11.25,3.4121631178560525,10.0,2025-05-22 22:26:30
500108078,內湖區,YouBike2.0_下灣公園,25.06516,121.59561,30.0,16.5,5.209880722517276,13.5,2025-05-22 22:26:30
500108079,內湖區,YouBike2.0_民權東路六段245巷口,25.06708,121.60059,17.0,9.75,2.604940361258638,7.25,2025-05-22 22:26:30
500108081,內湖區,YouBike2.0_東湖國小,25.06854,121.61532,29.0,14.875,5.718079098038831,14.125,2025-05-22 22:26:30
500108082,內湖區,YouBike2.0_捷運內湖站(1號出口),25.08373,121.59406,28.0,4.625,5.31675249968034,22.75,2025-05-22 22:26:30
500108083,內湖區,YouBike2.0_瑞光港墘路口,25.07611,121.57487,30.0,5.75,6.017830648521585,24.0,2025-05-22 22:26:30
500108084,內湖區,YouBike2.0_瑞湖陽光街口,25.07296,121.57603,34.0,8.875,5.767829500154901,23.25,2025-05-22 22:26:30
500108085,內湖區,YouBike2.0_金龍公園,25.08554,121.59076,15.0,6.0,4.0,9.0,2025-05-22 22:26:30
500108086,內湖區,YouBike2.0_星雲街138巷1弄口,25.07943,121.59544,21.0,9.25,3.882193783343198,8.5,2025-05-22 22:26:30
500108087,內湖區,YouBike2.0_東湖一號公園,25.07567,121.6118,19.0,8.875,2.1001700611413083,10.125,2025-05-22 22:26:30
500108088,內湖區,YouBike2.0_東湖二號公園,25.07415,121.61075,25.0,17.125,4.940720016932176,7.875,2025-05-22 22:26:30
500108089,內湖區,YouBike2.0_康湖二號公園(康寧醫院),25.07514,121.60857,25.0,16.375,4.838461975226661,8.625,2025-05-22 22:26:30
500108090,內湖區,YouBike2.0_堤頂大道新湖一路口,25.05892,121.57354,20.0,8.25,4.367084676466507,11.375,2025-05-22 22:26:30
500108091,內湖區,YouBike2.0_下灣公園(成功路),25.06682,121.5907,16.0,7.375,2.8753881725529062,8.625,2025-05-22 22:26:30
500108092,內湖區,YouBike2.0_舊宗行善路口,25.05876,121.58062,22.0,5.125,3.8706773124535787,16.875,2025-05-22 22:26:30
500108093,內湖區,YouBike2.0_新湖二路250巷口,25.06455,121.58262,20.0,7.375,3.662064211031025,12.5,2025-05-22 22:26:30
500108094,內湖區,YouBike2.0_成功路四段41巷口,25.08105,121.59205,15.0,4.625,3.2486260832190936,8.625,2025-05-22 22:26:30
500108095,內湖區,YouBike2.0_金湖星雲街口,25.08151,121.59764,30.0,16.75,7.126409634992524,12.75,2025-05-22 22:26:30
500108096,內湖區,YouBike2.0_國防醫學院,25.06851,121.59559,25.0,7.0,5.477225575051661,17.875,2025-05-22 22:26:30
500108097,內湖區,YouBike2.0_民權東路六段190巷117弄口,25.06434,121.59399,25.0,16.5,3.6645015252516178,8.5,2025-05-22 22:26:30
500108098,內湖區,YouBike2.0_內湖運動中心,25.07848,121.57493,21.0,1.25,1.7525491637693282,19.75,2025-05-22 22:26:30
500108099,內湖區,YouBike2.0_九華公園,25.08844,121.56122,25.0,10.375,3.814914340921881,13.25,2025-05-22 22:26:30
500108100,內湖區,YouBike2.0_內湖路二段179巷口,25.08454,121.584,22.0,11.25,3.1052950170405937,10.375,2025-05-22 22:26:30
500108102,內湖區,YouBike2.0_行善行愛路口,25.0606,121.58286,12.0,4.25,2.434865792722759,7.75,2025-05-22 22:26:30
500108103,內湖區,YouBike2.0_民善新湖二路口(家樂福內湖店),25.06017,121.57552,23.0,6.25,5.599744892148468,15.625,2025-05-22 22:26:30
500108104,內湖區,YouBike2.0_統振大樓,25.06007,121.60138,25.0,2.75,4.301162633521313,22.25,2025-05-22 22:26:30
500108105,內湖區,YouBike2.0_陽光街161巷口,25.07433,121.58584,16.0,5.625,3.335416016031583,9.0,2025-05-22 22:26:30
500108106,內湖區,YouBike2.0_潭美公園(南京東路六段368巷),25.05928,121.58617,25.0,15.375,5.44944295973713,9.375,2025-05-22 22:26:30
500108107,內湖區,YouBike2.0_西康二號公園,25.08503,121.5637,21.0,9.0,5.656854249492381,11.5,2025-05-22 22:26:30
500108108,內湖區,YouBike2.0_三民國中(民權東路六段47巷),25.06935,121.58692,13.0,5.25,2.2519832529192065,7.375,2025-05-22 22:26:30
500108109,內湖區,YouBike2.0_瑞光路76巷口,25.07168,121.58125,12.0,3.875,3.1367635732209265,8.125,2025-05-22 22:26:30
500108110,內湖區,YouBike2.0_捷運東湖站,25.06664,121.61351,35.0,7.25,3.453776401067595,27.75,2025-05-22 22:26:30
500108111,內湖區,YouBike2.0_新湖國小,25.06874,121.58923,23.0,7.125,4.356850107261306,15.875,2025-05-22 22:26:30
500108112,內湖區,YouBike2.0_碧山內湖路口,25.08627,121.5914,16.0,6.875,2.695896352395088,8.0,2025-05-22 22:26:30
500108115,內湖區,YouBike2.0_民權東路六段413巷,25.07038,121.60352,25.0,15.125,5.436319658424385,9.5,2025-05-22 22:26:30
500108116,內湖區,YouBike2.0_宏匯瑞光廣場(瑞光路),25.07676,121.57433,16.0,4.5,2.563479777846623,11.375,2025-05-22 22:26:30
500108117,內湖區,YouBike2.0_宏匯瑞光廣場(港墘路),25.07777,121.57562,20.0,5.75,5.849297882163783,14.125,2025-05-22 22:26:30
500108118,內湖區,YouBike2.0_康樂街151巷,25.07192,121.61955,24.0,9.5,4.928053803045811,14.375,2025-05-22 22:26:30
500108119,內湖區,YouBike2.0_內湖路一段360巷,25.0812,121.57067,15.0,3.0,3.464101615137755,12.0,2025-05-22 22:26:30
500108120,內湖區,YouBike2.0_成功路三段83號前,25.07823,121.5898,17.0,9.625,3.7008686239082538,7.125,2025-05-22 22:26:30
500108121,內湖區,YouBike2.0_內湖路一段47巷,25.08781,121.55872,22.0,11.125,3.8706773124535787,9.5,2025-05-22 22:26:30
500108122,內湖區,YouBike2.0_陽光舊宗路口,25.07243,121.57416,20.0,5.375,4.0333431719675366,14.625,2025-05-22 22:26:30
500108123,內湖區,YouBike2.0_安湖公園,25.07392,121.61545,15.0,8.25,4.590362575159894,6.75,2025-05-22 22:26:30
