timestamp,sno,sarea,sna,latitude,longitude,total,available_rent_bikes,available_return_bikes,act,srcUpdateTime
2025-06-14T20:45+00:00,500101002,大安區,YouBike2.0_復興南路二段273號前,25.02565,121.54357,21,9,12,1,2025-06-15 04:19:29
2025-06-14T20:45+00:00,500101003,大安區,YouBike2.0_國北教大實小東側門,25.02429,121.54124,28,15,13,1,2025-06-15 04:21:29
2025-06-14T20:45+00:00,500101006,大安區,YouBike2.0_復興南路二段280號前,25.02429,121.54328,27,8,19,1,2025-06-15 04:19:29
2025-06-14T20:45+00:00,500101007,大安區,YouBike2.0_復興南路二段340巷口,25.02253,121.54326,11,10,1,1,2025-06-15 04:19:29
2025-06-14T20:45+00:00,500101009,大安區,YouBike2.0_新生南路三段66號前,25.01976,121.53384,16,6,10,1,2025-06-15 04:19:29
2025-06-14T20:45+00:00,500101013,大安區,YouBike2.0_和平復興路口西北側,25.02543,121.54332,9,9,0,1,2025-06-15 04:19:29
2025-06-14T20:45+00:00,500101016,大安區,YouBike2.0_羅斯福路三段245號前,25.01927,121.52989,8,0,7,1,2025-06-15 04:19:29
2025-06-14T20:45+00:00,500101020,大安區,YouBike2.0_溫州停車場,25.02093,121.5331,5,0,5,0,2025-06-15 04:19:29
2025-06-14T20:45+00:00,500101024,大安區,YouBike2.0_臺灣科技大學正門,25.01451,121.54142,50,4,46,1,2025-06-15 04:19:29
2025-06-14T20:45+00:00,500101025,大安區,YouBike2.0_臺灣科技大學側門,25.01295,121.53973,99,13,86,1,2025-06-15 04:19:29
2025-06-14T20:45+00:00,500101027,大安區,YouBike2.0_臺灣科技大學後門,25.01182,121.54165,39,23,16,1,2025-06-15 04:19:29
2025-06-14T20:45+00:00,500101028,大安區,YouBike2.0_臺大醫學院附設癌醫中心,25.01426,121.54382,20,7,13,1,2025-06-15 04:19:29
2025-06-14T20:45+00:00,500101031,大安區,YouBike2.0_臺大男七舍前,25.01537,121.54698,20,20,0,1,2025-06-15 04:19:29
2025-06-14T20:45+00:00,500101033,大安區,YouBike2.0_臺大男六舍前,25.01664,121.5452,40,33,0,1,2025-06-15 04:19:29
2025-06-14T20:45+00:00,500101036,大安區,YouBike2.0_臺大萬才館前,25.02032,121.54497,20,2,18,1,2025-06-15 04:19:29
2025-06-14T20:45+00:00,500101037,大安區,YouBike2.0_臺大國青大樓宿舍前,25.02076,121.54432,20,16,4,1,2025-06-15 04:19:29
2025-06-14T20:45+00:00,500101038,大安區,YouBike2.0_臺大社科院圖書館前,25.02101,121.54284,27,2,25,1,2025-06-15 04:19:29
2025-06-14T20:45+00:00,500101039,大安區,YouBike2.0_臺大法人語言訓練中心前,25.02104,121.54081,28,5,23,1,2025-06-15 04:19:29
2025-06-14T20:45+00:00,500101040,大安區,YouBike2.0_臺大綜合體育館停車場前,25.0222,121.53626,25,10,15,1,2025-06-15 04:17:30
2025-06-14T20:45+00:00,500101040,大安區,YouBike2.0_臺大綜合體育館停車場前,25.0222,121.53626,25,10,15,1,2025-06-15 04:19:29
2025-06-14T20:45+00:00,500101091,大安區,YouBike2.0_國北教大側門南側,25.022864,121.546622,34,28,5,1,2025-06-15 04:19:29
2025-06-14T20:45+00:00,500101095,大安區,YouBike2.0_芳和國中,25.0189,121.55013,37,37,0,1,2025-06-15 04:19:29
2025-06-14T20:45+00:00,500101097,大安區,YouBike2.0_臥龍樂業街口,25.01856,121.55558,41,35,6,1,2025-06-15 04:19:29
2025-06-14T20:45+00:00,500101099,大安區,YouBike2.0_嘉興公園,25.021,121.55211,44,30,14,1,2025-06-15 04:19:29
2025-06-14T20:45+00:00,500101103,大安區,YouBike2.0_法治公園,25.02694,121.55325,29,26,2,1,2025-06-15 04:19:29
2025-06-14T20:45+00:00,500101105,大安區,YouBike2.0_和平金山路口,25.02669,121.52529,45,5,40,1,2025-06-15 04:19:29
2025-06-14T20:45+00:00,500101108,大安區,YouBike2.0_和平泰順街口,25.02621,121.53171,19,8,9,1,2025-06-15 04:19:29
2025-06-14T20:45+00:00,500101116,大安區,YouBike2.0_金華公園,25.02984,121.53107,44,28,16,1,2025-06-15 04:19:29
2025-06-14T20:45+00:00,500101117,大安區,YouBike2.0_捷運東門站(3號出口),25.03383,121.52815,18,0,0,0,2025-06-15 04:19:29
2025-06-14T20:45+00:00,500101119,大安區,YouBike2.0_金杭公園,25.03325,121.52436,20,5,15,1,2025-06-15 04:19:29
2025-06-14T20:45+00:00,500101122,大安區,YouBike2.0_敦化南路二段293巷口南側,25.0237,121.54899,14,13,1,1,2025-06-15 04:19:29
2025-06-14T20:45+00:00,500101123,大安區,YouBike2.0_敦化基隆路口,25.02215,121.54839,38,22,16,1,2025-06-15 04:19:29
2025-06-14T20:45+00:00,500101124,大安區,YouBike2.0_安和路二段181巷口,25.02721,121.54988,29,3,25,1,2025-06-15 04:19:29
2025-06-14T20:45+00:00,500101130,大安區,YouBike2.0_民榮公園,25.03534,121.5354,15,15,0,1,2025-06-15 04:19:29
2025-06-14T20:45+00:00,500101133,大安區,YouBike2.0_捷運忠孝復興站(2號出口),25.04035,121.5436,43,29,13,1,2025-06-15 04:19:29
2025-06-14T20:45+00:00,500101141,大安區,YouBike2.0_捷運信義安和站(2號出口),25.03304,121.55171,24,17,6,1,2025-06-15 04:19:29
2025-06-14T20:45+00:00,500101142,大安區,YouBike2.0_八德市場,25.04463,121.53665,30,14,16,1,2025-06-15 04:19:29
2025-06-14T20:45+00:00,500101151,大安區,YouBike2.0_大安高工,25.03126,121.54339,23,9,14,1,2025-06-15 04:19:29
2025-06-14T20:45+00:00,500101153,大安區,YouBike2.0_瑠公公園,25.04201,121.54612,20,7,12,1,2025-06-15 04:19:29
2025-06-14T20:45+00:00,500101158,大安區,YouBike2.0_德安公園(四維路66巷),25.03473,121.54767,22,18,4,1,2025-06-15 04:19:29
2025-06-14T20:45+00:00,500101160,大安區,YouBike2.0_捷運忠孝敦化站(2號出口),25.04153,121.5524,17,2,14,1,2025-06-15 04:19:29
2025-06-14T20:45+00:00,500101162,大安區,YouBike2.0_忠孝東路四段223巷口(市民大道側),25.04427,121.55291,25,12,13,1,2025-06-15 04:19:29
2025-06-14T20:45+00:00,500101168,大安區,YouBike2.0_仁愛醫院,25.03756,121.54587,36,2,34,1,2025-06-15 04:19:29
2025-06-14T20:45+00:00,500101176,大安區,YouBike2.0_芳蘭山莊,25.01223,121.54788,16,13,3,1,2025-06-15 04:19:29
2025-06-14T20:45+00:00,500101177,大安區,YouBike2.0_復興南路一段126巷口,25.04311,121.54313,15,3,12,1,2025-06-15 04:19:29
2025-06-14T20:45+00:00,500101186,大安區,YouBike2.0_捷運大安站(6號出口),25.03479,121.54376,29,4,25,1,2025-06-15 04:19:29
2025-06-14T20:45+00:00,500101188,大安區,YouBike2.0_辛亥路三段157巷口,25.01727,121.54904,27,17,10,1,2025-06-15 04:19:29
2025-06-14T20:45+00:00,500101192,大安區,YouBike2.0_和平敦化路口,25.02444,121.54908,36,28,8,1,2025-06-15 04:19:29
2025-06-14T20:45+00:00,500101205,大安區,YouBike2.0_四維路170巷口,25.02821,121.54864,22,19,3,1,2025-06-15 04:19:29
2025-06-14T20:45+00:00,500101206,大安區,YouBike2.0_捷運大安站(3號出口),25.03328,121.5425,46,29,17,1,2025-06-15 04:19:29
2025-06-14T20:45+00:00,500101209,大安區,YouBike2.0_臺大資訊大樓,25.02101,121.54153,40,4,36,1,2025-06-15 04:19:29
2025-06-14T20:45+00:00,500101212,大安區,YouBike2.0_捷運國父紀念館站(1號出口),25.04205,121.55657,24,2,22,1,2025-06-15 04:19:29
2025-06-14T20:45+00:00,500101215,大安區,YouBike2.0_立人國小,25.02974,121.55146,17,3,14,1,2025-06-15 04:19:29
2025-06-14T20:45+00:00,500101216,大安區,YouBike2.0_和平東路二段18巷口,25.02268,121.53608,24,23,1,1,2025-06-15 04:19:29
2025-06-14T20:45+00:00,500101232,大安區,YouBike2.0_捷運古亭站(3號出口),25.02572,121.52359,15,2,13,1,2025-06-15 04:19:29
2025-06-14T20:45+00:00,500101233,大安區,YouBike2.0_捷運忠孝復興站(3號出口),25.04152,121.54414,37,2,34,1,2025-06-15 04:19:29
2025-06-14T20:45+00:00,500101235,大安區,YouBike2.0_光復南路420巷口,25.03601,121.55742,16,9,7,1,2025-06-15 04:19:29
2025-06-14T20:45+00:00,500101245,大安區,YouBike2.0_青峰活動中心,25.01524,121.55121,25,12,13,1,2025-06-15 04:19:29
2025-06-14T20:45+00:00,500101246,大安區,YouBike2.0_忠孝東路三段216巷口,25.04157,121.5402,28,21,7,1,2025-06-15 04:19:29
2025-06-14T20:45+00:00,500101247,大安區,YouBike2.0_捷運忠孝復興站(4號出口),25.04173,121.54412,25,11,14,1,2025-06-15 04:19:29
2025-06-14T20:45+00:00,500101251,大安區,YouBike2.0_捷運忠孝復興站(1號出口),25.04199,121.54362,27,14,13,1,2025-06-15 04:19:29
2025-06-14T20:45+00:00,500101252,大安區,YouBike2.0_政大公企中心,25.03076,121.52781,13,3,10,1,2025-06-15 04:19:29
2025-06-14T20:45+00:00,500101259,大安區,YouBike2.0_臺靜農人文會館,25.02462,121.53347,12,11,0,1,2025-06-15 04:19:29
2025-06-14T20:45+00:00,500103002,大同區,YouBike2.0_臺北市立圖書館大同分館,25.0741,121.51349,40,3,36,1,2025-06-15 04:19:29
2025-06-14T20:45+00:00,500103006,大同區,YouBike2.0_樹德公園,25.06647,121.5165,14,12,2,1,2025-06-15 04:19:29
2025-06-14T20:45+00:00,500103011,大同區,YouBike2.0_重慶國中,25.07567,121.51862,64,15,49,1,2025-06-15 04:19:29
2025-06-14T20:45+00:00,500103012,大同區,YouBike2.0_重慶北路三段383巷口,25.07598,121.51409,34,21,13,1,2025-06-15 04:19:29
2025-06-14T20:45+00:00,500103020,大同區,YouBike2.0_民權迪化街口,25.06327,121.50943,47,36,11,1,2025-06-15 04:19:29
2025-06-14T20:45+00:00,500103022,大同區,YouBike2.0_大龍老人住宅,25.06853,121.51729,14,3,11,1,2025-06-15 04:19:29
2025-06-14T20:45+00:00,500103029,大同區,YouBike2.0_朝陽公園,25.05592,121.51367,10,4,6,1,2025-06-15 04:19:29
2025-06-14T20:45+00:00,500103030,大同區,YouBike2.0_永樂市場,25.05454,121.51052,38,20,18,1,2025-06-15 04:19:29
2025-06-14T20:45+00:00,500103036,大同區,YouBike2.0_承德路三段8巷口,25.06407,121.51822,21,8,13,1,2025-06-15 04:19:29
2025-06-14T20:45+00:00,500103040,大同區,YouBike2.0_蔣渭水紀念公園,25.06011,121.51729,36,18,18,1,2025-06-15 04:19:29
2025-06-14T20:45+00:00,500103049,大同區,YouBike2.0_承德民生西路口,25.05756,121.51828,19,2,17,1,2025-06-15 04:19:29
2025-06-14T20:45+00:00,500103054,大同區,YouBike2.0_重慶長安路口,25.0515,121.51398,21,6,15,1,2025-06-15 04:19:29
2025-06-14T20:45+00:00,500103061,大同區,YouBike2.0_雙蓮國小,25.06157,121.51683,20,10,10,1,2025-06-15 04:19:29
2025-06-14T20:45+00:00,500103062,大同區,YouBike2.0_寧夏涼州街口,25.06095,121.51428,15,12,2,1,2025-06-15 04:19:29
2025-06-14T20:45+00:00,500103068,大同區,YouBike2.0_哈密街23巷19弄口,25.07563,121.51815,23,16,7,1,2025-06-15 04:19:29
2025-06-14T20:45+00:00,500103069,大同區,YouBike2.0_民權西路160巷口,25.06289,121.51544,15,9,5,1,2025-06-15 04:19:29
2025-06-14T20:45+00:00,500103071,大同區,YouBike2.0_承德路二段91巷口,25.05621,121.51847,20,13,7,1,2025-06-15 04:19:29
2025-06-14T20:45+00:00,500104004,士林區,YouBike2.0_百齡國小,25.08521,121.51918,50,48,2,1,2025-06-15 04:19:29
2025-06-14T20:45+00:00,500104005,士林區,YouBike2.0_雨聲街165巷口,25.10277,121.53357,24,10,14,1,2025-06-15 04:19:29
2025-06-14T20:45+00:00,500104006,士林區,YouBike2.0_天和公園,25.12011,121.53357,16,9,2,1,2025-06-15 04:19:29
2025-06-14T20:45+00:00,500104007,士林區,YouBike2.0_中山天母路口,25.11856,121.52964,29,18,11,1,2025-06-15 04:19:29
2025-06-14T20:45+00:00,500104012,士林區,YouBike2.0_天母棒球場,25.11341,121.53195,26,2,24,1,2025-06-15 04:19:29
2025-06-14T20:45+00:00,500104013,士林區,YouBike2.0_天母北天玉街口,25.12011,121.52652,15,13,2,1,2025-06-15 04:19:29
2025-06-14T20:45+00:00,500104019,士林區,YouBike2.0_雨農國小,25.1054,121.5295,21,18,2,1,2025-06-15 04:19:29
2025-06-14T20:45+00:00,500104020,士林區,YouBike2.0_忠誠公園,25.10399,121.52593,25,7,18,1,2025-06-15 04:19:29
2025-06-14T20:45+00:00,500104022,士林區,YouBike2.0_至誠路一段305巷口,25.10186,121.53083,21,9,11,1,2025-06-15 04:19:29
2025-06-14T20:45+00:00,500104027,士林區,YouBike2.0_百齡高中,25.08736,121.52272,27,8,18,1,2025-06-15 04:19:29
2025-06-14T20:45+00:00,500104028,士林區,YouBike2.0_捷運芝山站(2號出口),25.10364,121.52219,21,7,13,1,2025-06-15 04:19:29
2025-06-14T20:45+00:00,500104032,士林區,YouBike2.0_志成公園,25.09716,121.53214,23,19,4,1,2025-06-15 04:19:29
2025-06-14T20:45+00:00,500104034,士林區,YouBike2.0_中山中正路口,25.09651,121.52753,19,6,13,1,2025-06-15 04:19:29
2025-06-14T20:45+00:00,500104043,士林區,YouBike2.0_士林高商,25.09435,121.51702,26,3,23,1,2025-06-15 04:19:29
2025-06-14T20:45+00:00,500104044,士林區,YouBike2.0_蘭雅公園,25.10991,121.53039,38,12,26,1,2025-06-15 04:19:29
2025-06-14T20:45+00:00,500104046,士林區,YouBike2.0_捷運芝山站(1號出口),25.10225,121.52286,35,6,29,1,2025-06-15 04:19:29
2025-06-14T20:45+00:00,500104049,士林區,YouBike2.0_通河東街2段10巷口,25.09106,121.51502,15,6,9,1,2025-06-15 04:19:29
2025-06-14T20:45+00:00,500104050,士林區,YouBike2.0_梅林新村,25.09755,121.54036,25,14,10,1,2025-06-15 04:19:29
2025-06-14T20:45+00:00,500104053,士林區,YouBike2.0_重慶北葫東街口,25.08393,121.51169,15,7,8,1,2025-06-15 04:19:29
2025-06-14T20:45+00:00,500104055,士林區,YouBike2.0_士林3號廣場,25.10459,121.52417,38,6,32,1,2025-06-15 04:19:29
2025-06-14T20:45+00:00,500104057,士林區,YouBike2.0_社子國小,25.09058,121.50142,15,0,15,0,2025-06-15 04:19:29
2025-06-14T20:45+00:00,500104067,士林區,YouBike2.0_坤天亭,25.1064,121.4836,14,13,1,1,2025-06-15 04:19:29
2025-06-14T20:45+00:00,500104069,士林區,YouBike2.0_福安國中,25.10261,121.48819,25,8,17,1,2025-06-15 04:19:29
2025-06-14T20:45+00:00,500104070,士林區,YouBike2.0_福安消防分隊,25.09669,121.49706,20,9,11,1,2025-06-15 04:17:30
2025-06-14T20:45+00:00,500104070,士林區,YouBike2.0_福安消防分隊,25.09669,121.49706,20,9,11,1,2025-06-15 04:19:29
2025-06-14T20:45+00:00,500104072,士林區,YouBike2.0_芝山國小,25.11044,121.53595,38,20,15,1,2025-06-15 04:19:29
2025-06-14T20:45+00:00,500104074,士林區,YouBike2.0_蘭雅國小,25.10775,121.52312,30,28,2,1,2025-06-15 04:17:30
2025-06-14T20:45+00:00,500104076,士林區,YouBike2.0_福林公園(中正路),25.09609,121.53006,45,4,41,1,2025-06-15 04:19:29
2025-06-14T20:45+00:00,500104078,士林區,YouBike2.0_市立圖書館葫蘆堵分館,25.08217,121.51074,13,7,6,1,2025-06-15 04:19:29
2025-06-14T20:45+00:00,500104079,士林區,YouBike2.0_東山路110巷口,25.11306,121.53945,16,11,1,1,2025-06-15 04:19:29
2025-06-14T20:45+00:00,500104080,士林區,YouBike2.0_永平社會住宅,25.08887,121.50314,15,7,7,1,2025-06-15 04:17:30
2025-06-14T20:45+00:00,500104081,士林區,YouBike2.0_雨農橋,25.10012,121.53253,16,9,2,1,2025-06-15 04:19:29
2025-06-14T20:45+00:00,500104082,士林區,YouBike2.0_通河街76巷/承德路四段10巷口,25.08019,121.5202,14,11,1,1,2025-06-15 04:19:29
2025-06-14T20:45+00:00,500104086,士林區,YouBike2.0_天母公園,25.12408,121.53003,12,10,2,1,2025-06-15 04:19:29
2025-06-14T20:45+00:00,500104088,士林區,YouBike2.0_文林福華路口,25.10094,121.52243,19,12,7,1,2025-06-15 04:19:29
2025-06-14T20:45+00:00,500104091,士林區,YouBike2.0_捷運劍潭站(1號出口),25.08577,121.52531,70,1,69,1,2025-06-15 04:19:29
2025-06-14T20:45+00:00,500104095,士林區,YouBike2.0_葫蘆國小(延平北路五段285巷),25.08406,121.5067,25,17,8,1,2025-06-15 04:19:29
2025-06-14T20:45+00:00,500104099,士林區,YouBike2.0_文林路101巷口,25.08761,121.52608,17,3,14,1,2025-06-15 04:19:29
2025-06-14T20:45+00:00,500104102,士林區,YouBike2.0_啟明學校,25.11742,121.53472,16,12,4,1,2025-06-15 04:17:30
2025-06-14T20:45+00:00,500104103,士林區,YouBike2.0_中山福國路口,25.10203,121.52561,14,12,2,1,2025-06-15 04:19:29
2025-06-14T20:45+00:00,500104106,士林區,YouBike2.0_中山北路五段698巷口,25.09765,121.52757,15,10,5,1,2025-06-15 04:19:29
2025-06-14T20:45+00:00,500104108,士林區,YouBike2.0_捷運芝山站(2號出口)_1,25.10336,121.52263,62,3,59,1,2025-06-15 04:19:29
2025-06-14T20:45+00:00,500104109,士林區,YouBike2.0_銘傳大學(中山北路五段280巷口),25.08762,121.52711,23,6,17,1,2025-06-15 04:19:29
2025-06-14T20:45+00:00,500104112,士林區,YouBike2.0_劍潭郵局,25.08182,121.52431,32,3,29,1,2025-06-15 04:19:29
2025-06-14T20:45+00:00,500104113,士林區,YouBike2.0_士東路91巷口,25.11247,121.52914,16,14,1,1,2025-06-15 04:19:29
2025-06-14T20:45+00:00,500104114,士林區,YouBike2.0_美崙公園,25.09677,121.51931,22,7,15,1,2025-06-15 04:19:29
2025-06-14T20:45+00:00,500104116,士林區,YouBike2.0_天母東路8巷/忠誠路二段154巷口,25.11579,121.53113,14,7,3,1,2025-06-15 04:19:29
2025-06-14T20:45+00:00,500104117,士林區,YouBike2.0_美崙公園(東北側),25.09886,121.51835,25,10,15,1,2025-06-15 04:19:29
2025-06-14T20:45+00:00,500104119,士林區,YouBike2.0_忠誠忠義街口(北側),25.10566,121.52922,13,11,2,1,2025-06-15 04:19:29
2025-06-14T20:45+00:00,500104120,士林區,YouBike2.0_忠誠忠義街口(南側),25.10519,121.52869,14,12,2,1,2025-06-15 04:19:29
2025-06-14T20:45+00:00,500104121,士林區,YouBike2.0_士林國小,25.09204,121.52472,15,11,3,1,2025-06-15 04:19:29
2025-06-14T20:45+00:00,500104122,士林區,YouBike2.0_雙溪濕地公園,25.09762,121.51321,15,9,6,1,2025-06-15 04:19:29
2025-06-14T20:45+00:00,500104124,士林區,YouBike2.0_天和一號公園,25.11836,121.53466,15,14,1,1,2025-06-15 04:19:29
2025-06-14T20:45+00:00,500104125,士林區,YouBike2.0_忠誠路二段178巷口,25.11633,121.53295,15,9,6,1,2025-06-15 04:17:30
2025-06-14T20:45+00:00,500104131,士林區,YouBike2.0_重慶北路四段190巷口(通河西街側),25.0848,121.51253,16,10,6,1,2025-06-15 04:19:29
2025-06-14T20:45+00:00,500104135,士林區,YouBike2.0_中山北路六段405巷,25.11576,121.52693,21,15,6,1,2025-06-15 04:19:29
2025-06-14T20:45+00:00,500104138,士林區,YouBike2.0_社子島抽水站,25.10844,121.49552,15,9,6,1,2025-06-15 04:19:29
2025-06-14T20:45+00:00,500104139,士林區,YouBike2.0_中山北路六段427巷口,25.11383,121.52698,10,7,3,1,2025-06-15 04:19:29
2025-06-14T20:45+00:00,500105007,文山區,YouBike2.0_捷運景美站(2號出口),24.99366,121.54124,63,1,61,1,2025-06-15 04:19:29
2025-06-14T20:45+00:00,500105008,文山區,YouBike2.0_羅斯福景隆街口,24.99898,121.5403,50,3,47,1,2025-06-15 04:19:29
2025-06-14T20:45+00:00,500105010,文山區,YouBike2.0_興旺公園,25.00587,121.55012,30,26,4,1,2025-06-15 04:19:29
2025-06-14T20:45+00:00,500105012,文山區,YouBike2.0_興隆路2段203巷,25.00346,121.54709,32,28,4,1,2025-06-15 04:19:29
2025-06-14T20:45+00:00,500105017,文山區,YouBike2.0_仙跡岩登山口(景興路),24.99118,121.5436,22,2,20,1,2025-06-15 04:19:29
2025-06-14T20:45+00:00,500105018,文山區,YouBike2.0_國立政治大學,24.98737,121.57726,62,50,12,1,2025-06-15 04:19:29
2025-06-14T20:45+00:00,500105022,文山區,YouBike2.0_文山運動中心,24.99676,121.5596,36,28,8,1,2025-06-15 04:19:29
2025-06-14T20:45+00:00,500105028,文山區,YouBike2.0_世新大學,24.98859,121.54336,30,10,19,1,2025-06-15 04:19:29
2025-06-14T20:45+00:00,500105030,文山區,YouBike2.0_臺北市立景美女中,24.98058,121.55624,25,7,18,1,2025-06-15 04:19:29
2025-06-14T20:45+00:00,500105031,文山區,YouBike2.0_永安藝文館_表演36房,24.98414,121.56907,29,25,3,1,2025-06-15 04:19:29
2025-06-14T20:45+00:00,500105032,文山區,YouBike2.0_忠順區民活動中心,24.98471,121.56332,31,23,6,1,2025-06-15 04:19:29
2025-06-14T20:45+00:00,500105034,文山區,YouBike2.0_老泉街籃球場,24.97619,121.5583,20,3,17,1,2025-06-15 04:19:29
2025-06-14T20:45+00:00,500105038,文山區,YouBike2.0_木新路3段95巷口,24.98088,121.56313,24,18,6,1,2025-06-15 04:19:29
2025-06-14T20:45+00:00,500105042,文山區,YouBike2.0_萊茵公園,24.98642,121.56514,21,10,11,1,2025-06-15 04:19:29
2025-06-14T20:45+00:00,500105045,文山區,YouBike2.0_秀明路一段129巷口,24.99111,121.56703,22,17,5,1,2025-06-15 04:19:29
2025-06-14T20:45+00:00,500105046,文山區,YouBike2.0_恆光橋(老泉街),24.97989,121.56753,13,11,1,1,2025-06-15 04:19:29
2025-06-14T20:45+00:00,500105061,文山區,YouBike2.0_師範大學公館校區_1,25.00753,121.53719,34,18,15,1,2025-06-15 04:19:29
2025-06-14T20:45+00:00,500105063,文山區,YouBike2.0_政大水岸電梯,24.982,121.5717,10,2,7,1,2025-06-15 04:19:29
2025-06-14T20:45+00:00,500105067,文山區,YouBike2.0_萬和三號公園(北側),25.00345,121.53636,13,10,1,1,2025-06-15 04:19:29
2025-06-14T20:45+00:00,500105073,文山區,YouBike2.0_辛亥路四段77巷口,25.00743,121.55877,14,13,1,1,2025-06-15 04:19:29
2025-06-14T20:45+00:00,500105076,文山區,YouBike2.0_木柵路二段109巷,24.98944,121.56195,15,7,5,1,2025-06-15 04:19:29
2025-06-14T20:45+00:00,500105077,文山區,YouBike2.0_試院公園,24.98808,121.54723,15,7,7,1,2025-06-15 04:19:29
2025-06-14T20:45+00:00,500105079,文山區,YouBike2.0_樟樹公園,24.9825,121.55949,15,11,4,1,2025-06-15 04:19:29
2025-06-14T20:45+00:00,500105080,文山區,YouBike2.0_萬美萬安街口,25.00223,121.57039,25,3,22,1,2025-06-15 04:19:29
2025-06-14T20:45+00:00,500105082,文山區,YouBike2.0_新光秀明路口,24.99197,121.57371,15,9,6,1,2025-06-15 04:19:29
2025-06-14T20:45+00:00,500105085,文山區,YouBike2.0_木新公園,24.98217,121.55782,12,9,3,1,2025-06-15 04:19:29
2025-06-14T20:45+00:00,500105086,文山區,YouBike2.0_興隆路二段275巷1弄口,25.00268,121.55277,16,12,4,1,2025-06-15 04:19:29
2025-06-14T20:45+00:00,500105087,文山區,YouBike2.0_中國科技大學,24.99925,121.55553,21,15,6,1,2025-06-15 04:19:29
2025-06-14T20:45+00:00,500105088,文山區,YouBike2.0_樟新街8巷,24.97932,121.55406,17,11,4,1,2025-06-15 04:19:29
2025-06-14T20:45+00:00,500105089,文山區,YouBike2.0_仙岩路22巷口,24.99892,121.54887,28,21,7,1,2025-06-15 04:19:29
2025-06-14T20:45+00:00,500105092,文山區,YouBike2.0_辛亥木柵路口,24.98839,121.55238,20,16,4,1,2025-06-15 04:19:29
2025-06-14T20:45+00:00,500105093,文山區,YouBike2.0_興泰公園,25.00492,121.55582,12,6,6,1,2025-06-15 04:19:29
2025-06-14T20:45+00:00,500105097,文山區,YouBike2.0_景興路102巷口,24.99438,121.54376,14,2,12,1,2025-06-15 04:19:29
2025-06-14T20:45+00:00,500105098,文山區,YouBike2.0_景福街223巷,24.99442,121.53844,18,16,2,1,2025-06-15 04:19:29
2025-06-14T20:45+00:00,500105102,文山區,YouBike2.0_世新大學(試院路),24.98981,121.54783,16,11,5,1,2025-06-15 04:17:30
2025-06-14T20:45+00:00,500105102,文山區,YouBike2.0_世新大學(試院路),24.98981,121.54783,16,11,5,1,2025-06-15 04:19:29
2025-06-14T20:45+00:00,500105103,文山區,YouBike2.0_興隆社會住宅D1區,24.98783,121.55831,31,15,15,1,2025-06-15 04:19:29
2025-06-14T20:45+00:00,500105106,文山區,YouBike2.0_政大國際會館,24.98994,121.57513,20,19,1,1,2025-06-15 04:19:29
2025-06-14T20:45+00:00,500105111,文山區,YouBike2.0_和興水岸社會住宅,24.98505,121.54953,29,24,5,1,2025-06-15 04:19:29
2025-06-14T20:45+00:00,500106003,中正區,YouBike2.0_捷運公館站(1號出口),25.014529,121.534374,12,0,12,1,2025-06-15 04:19:29
2025-06-14T20:45+00:00,500106006,中正區,YouBike2.0_捷運古亭站(2號出口),25.0255,121.52346,55,4,51,1,2025-06-15 04:19:29
2025-06-14T20:45+00:00,500106010,中正區,YouBike2.0_紀州庵,25.02092,121.52049,45,24,20,1,2025-06-15 04:17:30
2025-06-14T20:45+00:00,500106014,中正區,YouBike2.0_牯嶺公園,25.02338,121.51889,58,43,12,1,2025-06-15 04:19:29
2025-06-14T20:45+00:00,500106016,中正區,YouBike2.0_捷運古亭站(7號出口),25.02805,121.52155,12,2,10,1,2025-06-15 04:19:29
2025-06-14T20:45+00:00,500106017,中正區,YouBike2.0_南昌公園,25.02698,121.52081,55,20,35,1,2025-06-15 04:19:29
2025-06-14T20:45+00:00,500106019,中正區,YouBike2.0_孫立人將軍官邸,25.02933,121.51854,23,21,1,1,2025-06-15 04:19:29
2025-06-14T20:45+00:00,500106021,中正區,YouBike2.0_金華杭州南路口,25.031,121.52211,35,31,3,1,2025-06-15 04:19:29
2025-06-14T20:45+00:00,500106023,中正區,YouBike2.0_捷運中正紀念堂站(4號出口),25.03376,121.51772,29,0,28,1,2025-06-15 04:19:29
2025-06-14T20:45+00:00,500106025,中正區,YouBike2.0_螢橋國小,25.02609,121.51389,41,35,6,1,2025-06-15 04:19:29
2025-06-14T20:45+00:00,500106037,中正區,YouBike2.0_水源路11_1號旁,25.01602,121.52565,31,21,10,1,2025-06-15 04:19:29
2025-06-14T20:45+00:00,500106043,中正區,YouBike2.0_捷運善導寺站(1號出口),25.04527,121.5222,46,6,39,1,2025-06-15 04:19:29
2025-06-14T20:45+00:00,500106047,中正區,YouBike2.0_中正運動中心,25.03786,121.51985,40,7,33,1,2025-06-15 04:19:29
2025-06-14T20:45+00:00,500106049,中正區,YouBike2.0_捷運善導寺站(3號出口),25.04428,121.52336,20,4,16,1,2025-06-15 04:19:29
2025-06-14T20:45+00:00,500106050,中正區,YouBike2.0_捷運小南門站(1號出口),25.03648,121.50951,46,9,37,1,2025-06-15 04:19:29
2025-06-14T20:45+00:00,500106057,中正區,YouBike2.0_市民金山路口,25.0459,121.53068,70,17,53,1,2025-06-15 04:19:29
2025-06-14T20:45+00:00,500106065,中正區,YouBike2.0_中山徐州路口,25.04178,121.51907,41,2,39,1,2025-06-15 04:19:29
2025-06-14T20:45+00:00,500106067,中正區,YouBike2.0_臺北轉運站,25.04842,121.51994,68,16,52,1,2025-06-15 04:19:29
2025-06-14T20:45+00:00,500106068,中正區,YouBike2.0_莒光大埔街口,25.03132,121.50519,32,24,7,1,2025-06-15 04:19:29
2025-06-14T20:45+00:00,500106074,中正區,YouBike2.0_王貫英先生紀念圖書館,25.02266,121.52362,15,12,2,1,2025-06-15 04:19:29
2025-06-14T20:45+00:00,500106078,中正區,YouBike2.0_徐州杭州路口,25.04023,121.52565,30,17,12,1,2025-06-15 04:19:29
2025-06-14T20:45+00:00,500106079,中正區,YouBike2.0_捷運中正紀念堂站(6號出口),25.03615,121.5166,17,6,11,1,2025-06-15 04:19:29
2025-06-14T20:45+00:00,500106083,中正區,YouBike2.0_臺北市國父史蹟館(逸仙公園),25.04779,121.52042,31,9,21,1,2025-06-15 04:19:29
2025-06-14T20:45+00:00,500106084,中正區,YouBike2.0_捷運西門站(5號出口),25.04244,121.50864,30,0,29,1,2025-06-15 04:19:29
2025-06-14T20:45+00:00,500106086,中正區,YouBike2.0_臺北市第一女子高級中學,25.0385,121.51288,28,9,19,1,2025-06-15 04:19:29
2025-06-14T20:45+00:00,500106088,中正區,YouBike2.0_紹興徐州路口,25.04051,121.52401,18,8,10,1,2025-06-15 04:19:29
2025-06-14T20:45+00:00,500106089,中正區,YouBike2.0_羅斯福寧波東街口,25.03145,121.51941,26,3,23,1,2025-06-15 04:19:29
2025-06-14T20:45+00:00,500106091,中正區,YouBike2.0_仁愛林森路口,25.03895,121.52233,31,5,26,1,2025-06-15 04:19:29
2025-06-14T20:45+00:00,500106095,中正區,YouBike2.0_仁愛杭州路口,25.03846,121.52497,25,20,5,1,2025-06-15 04:19:29
2025-06-14T20:45+00:00,500106097,中正區,YouBike2.0_植物園,25.0299,121.51033,29,20,9,1,2025-06-15 04:17:30
2025-06-14T20:45+00:00,500106103,中正區,YouBike2.0_捷運忠孝新生站(5號出口),25.04113,121.53273,13,9,4,1,2025-06-15 04:19:29
2025-06-14T20:45+00:00,500106105,中正區,YouBike2.0_臺大醫院兒童醫院,25.04461,121.5188,22,14,8,1,2025-06-15 04:19:29
2025-06-14T20:45+00:00,500106109,中正區,YouBike2.0_立法院台北會館,25.03371,121.51068,15,12,3,1,2025-06-15 04:19:29
2025-06-14T20:45+00:00,500106114,中正區,YouBike2.0_仁愛金山路口(東南側),25.03811,121.52855,14,12,2,1,2025-06-15 04:19:29
2025-06-14T20:45+00:00,500106118,中正區,YouBike2.0_捷運中正紀念堂站(2號出口),25.03212,121.51861,12,7,5,1,2025-06-15 04:19:29
2025-06-14T20:45+00:00,500106119,中正區,YouBike2.0_螢圃里小公園,25.02484,121.51973,25,14,10,1,2025-06-15 04:19:29
2025-06-14T20:45+00:00,500106122,中正區,YouBike2.0_和平西路二段98巷口,25.0289,121.5097,16,12,4,1,2025-06-15 04:19:29
2025-06-14T20:45+00:00,500106123,中正區,YouBike2.0_仁愛新生路口(西南側),25.03796,121.53261,18,13,5,1,2025-06-15 04:19:29
2025-06-14T20:45+00:00,500106125,中正區,YouBike2.0_龍口市場,25.0275,121.51013,14,8,1,1,2025-06-15 04:19:29
2025-06-14T20:45+00:00,500106126,中正區,YouBike2.0_捷運善導寺站(5號出口),25.04418,121.52552,31,3,28,1,2025-06-15 04:19:29
2025-06-14T20:45+00:00,500106127,中正區,YouBike2.0_青島杭州路口,25.04281,121.52629,17,5,12,1,2025-06-15 04:19:29
2025-06-14T20:45+00:00,500106129,中正區,YouBike2.0_南海路112巷口,25.02757,121.50771,31,22,6,1,2025-06-15 04:19:29
2025-06-14T20:45+00:00,500106133,中正區,YouBike2.0_國立臺灣博物館南門館,25.03351,121.5156,21,8,13,1,2025-06-15 04:19:29
2025-06-14T20:45+00:00,500106134,中正區,YouBike2.0_汀州路一段106巷口,25.03008,121.50768,21,16,2,1,2025-06-15 04:19:29
2025-06-14T20:45+00:00,500106135,中正區,YouBike2.0_羅斯福路四段108巷口,25.01346,121.5355,20,0,20,1,2025-06-15 04:19:29
2025-06-14T20:45+00:00,500106136,中正區,YouBike2.0_公館水岸廣場,25.01193,121.52861,27,2,25,1,2025-06-15 04:19:29
2025-06-14T20:45+00:00,500106137,中正區,YouBike2.0_捷運小南門站(3號出口),25.03532,121.51117,19,4,15,1,2025-06-15 04:19:29
2025-06-14T20:45+00:00,500106138,中正區,YouBike2.0_臨沂街停車場,25.0426,121.53006,33,3,30,1,2025-06-15 04:19:29
2025-06-14T20:45+00:00,500106142,中正區,YouBike2.0_愛國東羅斯福路口,25.03454,121.51733,24,2,22,1,2025-06-15 04:19:29
2025-06-14T20:45+00:00,500107001,中山區,YouBike2.0_通北街65巷口,25.08251,121.54004,16,8,7,1,2025-06-15 04:19:29
2025-06-14T20:45+00:00,500107002,中山區,YouBike2.0_圓山風景區,25.07805,121.5295,15,4,11,1,2025-06-15 04:19:29
2025-06-14T20:45+00:00,500107004,中山區,YouBike2.0_劍潭社區,25.08524,121.53748,13,9,4,1,2025-06-15 04:19:29
2025-06-14T20:45+00:00,500107005,中山區,YouBike2.0_培英公園,25.08258,121.54462,40,9,30,1,2025-06-15 04:19:29
2025-06-14T20:45+00:00,500107006,中山區,YouBike2.0_樂群二明水路口,25.08009,121.55226,20,4,16,1,2025-06-15 04:19:29
2025-06-14T20:45+00:00,500107007,中山區,YouBike2.0_北安大直街口,25.08474,121.54968,31,23,6,1,2025-06-15 04:19:29
2025-06-14T20:45+00:00,500107009,中山區,YouBike2.0_樂群二敬業三路口,25.07985,121.55609,20,13,7,1,2025-06-15 04:19:29
2025-06-14T20:45+00:00,500107012,中山區,YouBike2.0_復興市民路口,25.04585,121.54375,52,2,49,1,2025-06-15 04:19:29
2025-06-14T20:45+00:00,500107014,中山區,YouBike2.0_伊通長安路口,25.04833,121.53469,21,1,20,1,2025-06-15 04:19:29
2025-06-14T20:45+00:00,500107015,中山區,YouBike2.0_新生長安路口,25.04861,121.52935,30,26,4,1,2025-06-15 04:19:29
2025-06-14T20:45+00:00,500107019,中山區,YouBike2.0_松江公園,25.05025,121.53273,42,8,34,1,2025-06-15 04:19:29
2025-06-14T20:45+00:00,500107021,中山區,YouBike2.0_第二果菜批發市場,25.06642,121.53735,40,16,23,1,2025-06-15 04:19:29
2025-06-14T20:45+00:00,500107022,中山區,YouBike2.0_民生建國路口,25.05778,121.53692,47,16,31,1,2025-06-15 04:19:29
2025-06-14T20:45+00:00,500107026,中山區,YouBike2.0_建國長春路口,25.05469,121.53686,16,8,7,1,2025-06-15 04:19:29
2025-06-14T20:45+00:00,500107028,中山區,YouBike2.0_捷運松江南京站(7號出口),25.05246,121.5332,75,39,35,1,2025-06-15 04:19:29
2025-06-14T20:45+00:00,500107029,中山區,YouBike2.0_朱崙商場,25.04762,121.54043,37,21,15,1,2025-06-15 04:19:29
2025-06-14T20:45+00:00,500107030,中山區,YouBike2.0_中吉公園,25.05604,121.53166,30,20,10,1,2025-06-15 04:19:29
2025-06-14T20:45+00:00,500107031,中山區,YouBike2.0_華山公園,25.0471,121.5277,19,11,6,1,2025-06-15 04:19:29
2025-06-14T20:45+00:00,500107032,中山區,YouBike2.0_建國北路一段17巷,25.04699,121.53735,45,9,36,1,2025-06-15 04:19:29
2025-06-14T20:45+00:00,500107034,中山區,YouBike2.0_民權龍江路口,25.06225,121.54107,32,12,19,1,2025-06-15 04:19:29
2025-06-14T20:45+00:00,500107037,中山區,YouBike2.0_林森農安街口,25.06531,121.52565,23,16,7,1,2025-06-15 04:19:29
2025-06-14T20:45+00:00,500107039,中山區,YouBike2.0_農安雙城街口,25.06491,121.52449,15,5,10,1,2025-06-15 04:19:29
2025-06-14T20:45+00:00,500107041,中山區,YouBike2.0_民族林森路口,25.06847,121.52559,37,23,13,1,2025-06-15 04:19:29
2025-06-14T20:45+00:00,500107042,中山區,YouBike2.0_臺北市立美術館,25.06987,121.52291,24,5,18,1,2025-06-15 04:19:29
2025-06-14T20:45+00:00,500107046,中山區,YouBike2.0_仁德公園,25.05337,121.5289,18,15,3,1,2025-06-15 04:19:29
2025-06-14T20:45+00:00,500107050,中山區,YouBike2.0_榮星花園,25.06424,121.54037,46,8,16,1,2025-06-15 04:19:29
2025-06-14T20:45+00:00,500107056,中山區,YouBike2.0_林安泰古厝,25.07154,121.53058,36,13,23,1,2025-06-15 04:19:29
2025-06-14T20:45+00:00,500107057,中山區,YouBike2.0_中山公民會館,25.06185,121.5226,20,0,0,0,2025-06-15 04:19:29
2025-06-14T20:45+00:00,500107060,中山區,YouBike2.0_撫順公園,25.06416,121.52203,30,22,8,1,2025-06-15 04:19:29
2025-06-14T20:45+00:00,500107067,中山區,YouBike2.0_市民新生路口,25.04611,121.53193,15,2,12,1,2025-06-15 04:19:29
2025-06-14T20:45+00:00,500107068,中山區,YouBike2.0_民權吉林路口,25.06269,121.53061,15,3,11,1,2025-06-15 04:19:29
2025-06-14T20:45+00:00,500107075,中山區,YouBike2.0_國立臺北大學(臺北校區),25.05794,121.54244,38,7,31,1,2025-06-15 04:19:29
2025-06-14T20:45+00:00,500107078,中山區,YouBike2.0_永盛公園(民生東路一段23巷),25.05873,121.52488,24,12,12,1,2025-06-15 04:19:29
2025-06-14T20:45+00:00,500107080,中山區,YouBike2.0_濱江街199巷口,25.0734,121.53985,15,11,4,1,2025-06-15 04:19:29
2025-06-14T20:45+00:00,500107082,中山區,YouBike2.0_濱江果菜市場,25.06807,121.53673,22,7,15,1,2025-06-15 04:19:29
2025-06-14T20:45+00:00,500107083,中山區,YouBike2.0_興安合江路口,25.05619,121.53949,29,21,2,1,2025-06-15 04:19:29
2025-06-14T20:45+00:00,500107091,中山區,YouBike2.0_臺北市立圖書館大直分館,25.08152,121.54646,20,13,7,1,2025-06-15 04:19:29
2025-06-14T20:45+00:00,500107092,中山區,YouBike2.0_捷運大直站(1號出口),25.0801,121.54708,27,10,15,1,2025-06-15 04:19:29
2025-06-14T20:45+00:00,500107098,中山區,YouBike2.0_松江路132巷口,25.05277,121.53013,14,1,13,1,2025-06-15 04:19:29
2025-06-14T20:45+00:00,500107099,中山區,YouBike2.0_長春吉林路口,25.05481,121.53032,10,6,4,1,2025-06-15 04:19:29
2025-06-14T20:45+00:00,500107102,中山區,YouBike2.0_南京一江街口,25.05215,121.53171,20,9,11,1,2025-06-15 04:19:29
2025-06-14T20:45+00:00,500107105,中山區,YouBike2.0_民族玉門街口,25.06873,121.52003,20,1,19,1,2025-06-15 04:19:29
2025-06-14T20:45+00:00,500107107,中山區,YouBike2.0_稻江高級護理家事職業學校,25.06532,121.52848,14,11,1,1,2025-06-15 04:19:29
2025-06-14T20:45+00:00,500107109,中山區,YouBike2.0_樂群二明水路口_1,25.07983,121.55236,34,7,25,1,2025-06-15 04:19:29
2025-06-14T20:45+00:00,500107111,中山區,YouBike2.0_長春龍江路口,25.05473,121.54026,39,20,19,1,2025-06-15 04:19:29
2025-06-14T20:45+00:00,500107115,中山區,YouBike2.0_臺北市立美術館_1,25.07063,121.52327,30,11,17,1,2025-06-15 04:19:29
2025-06-14T20:45+00:00,500107116,中山區,YouBike2.0_劍潭社區_1,25.08476,121.53789,42,26,16,1,2025-06-15 04:19:29
2025-06-14T20:45+00:00,500107118,中山區,YouBike2.0_林森公園,25.05223,121.52581,42,0,40,1,2025-06-15 04:19:29
2025-06-14T20:45+00:00,500107121,中山區,YouBike2.0_新生民族路口(西南側),25.06819,121.52767,15,13,2,1,2025-06-15 04:19:29
2025-06-14T20:45+00:00,500107122,中山區,YouBike2.0_捷運南京復興站(1號出口),25.05253,121.54256,21,3,18,1,2025-06-15 04:19:29
2025-06-14T20:45+00:00,500107123,中山區,YouBike2.0_八德市場(北側),25.04478,121.53661,26,1,25,1,2025-06-15 04:19:29
2025-06-14T20:45+00:00,500107128,中山區,YouBike2.0_林森德惠街口,25.06688,121.5257,16,14,2,1,2025-06-15 04:19:29
2025-06-14T20:45+00:00,500107139,中山區,YouBike2.0_市民大道二段5巷口,25.04812,121.52166,15,14,1,1,2025-06-15 04:19:29
2025-06-14T20:45+00:00,500107140,中山區,YouBike2.0_捷運中山站(3號出口),25.05236,121.52212,21,8,13,1,2025-06-15 04:19:29
2025-06-14T20:45+00:00,500107141,中山區,YouBike2.0_建國北路高架橋下停車場G區,25.05959,121.53682,18,8,9,1,2025-06-15 04:19:29
2025-06-14T20:45+00:00,500107142,中山區,YouBike2.0_朱崙公園,25.04919,121.54198,20,1,19,1,2025-06-15 04:19:29
2025-06-14T20:45+00:00,500107150,中山區,YouBike2.0_民權東復興北路口(西北側),25.06246,121.54323,20,3,17,1,2025-06-15 04:19:29
2025-06-14T20:45+00:00,500107152,中山區,YouBike2.0_中崙加油站,25.04634,121.53979,27,19,8,1,2025-06-15 04:17:30
2025-06-14T20:45+00:00,500107168,中山區,YouBike2.0_一江南京東路口(西南側),25.05181,121.53146,22,5,16,1,2025-06-15 04:19:29
2025-06-14T20:45+00:00,500107169,中山區,YouBike2.0_大直抽水站公車站,25.07756,121.54556,27,8,19,1,2025-06-15 04:19:29
2025-06-14T20:45+00:00,500107171,中山區,YouBike2.0_臺北市立中山女高,25.04841,121.53889,33,14,19,1,2025-06-15 04:19:29
2025-06-14T20:45+00:00,500107175,中山區,YouBike2.0_中山北德惠街口,25.06671,121.52257,20,13,7,1,2025-06-15 04:19:29
2025-06-14T20:45+00:00,500107176,中山區,YouBike2.0_晴光公園,25.06411,121.52446,15,12,3,1,2025-06-15 04:19:29
2025-06-14T20:45+00:00,500107178,中山區,YouBike2.0_民生東合江街口,25.05777,121.53951,20,17,3,1,2025-06-15 04:19:29
2025-06-14T20:45+00:00,500107180,中山區,YouBike2.0_內湖堤頂大道(西南側),25.08462,121.56016,24,6,18,1,2025-06-15 04:19:29
2025-06-14T20:45+00:00,500107185,中山區,YouBike2.0_長春路258巷2弄(北側),25.05474,121.5383,19,9,10,1,2025-06-15 04:19:29
2025-06-14T20:45+00:00,500108001,內湖區,YouBike2.0_文湖街21巷118弄口,25.09122,121.55961,28,21,6,1,2025-06-15 04:19:29
2025-06-14T20:45+00:00,500108003,內湖區,YouBike2.0_洲子一號公園,25.07977,121.56454,43,20,23,1,2025-06-15 04:19:29
2025-06-14T20:45+00:00,500108004,內湖區,YouBike2.0_西康公園,25.08284,121.56449,21,9,12,1,2025-06-15 04:19:29
2025-06-14T20:45+00:00,500108006,內湖區,YouBike2.0_文湖街81巷10號西側,25.08697,121.5641,23,19,2,1,2025-06-15 04:19:29
2025-06-14T20:45+00:00,500108007,內湖區,YouBike2.0_德明財經科技大學,25.08637,121.56574,36,31,5,1,2025-06-15 04:19:29
2025-06-14T20:45+00:00,500108009,內湖區,YouBike2.0_麗山高中,25.08398,121.57725,33,16,16,1,2025-06-15 04:19:29
2025-06-14T20:45+00:00,500108010,內湖區,YouBike2.0_港華五號公園,25.08522,121.57462,16,8,8,1,2025-06-15 04:19:29
2025-06-14T20:45+00:00,500108011,內湖區,YouBike2.0_大湖國小,25.08803,121.59958,29,26,3,1,2025-06-15 04:19:29
2025-06-14T20:45+00:00,500108012,內湖區,YouBike2.0_安湖三號公園,25.07021,121.61593,15,0,15,0,2025-06-15 04:19:29
2025-06-14T20:45+00:00,500108014,內湖區,YouBike2.0_瑞光計程車服務站,25.0745,121.57389,20,5,15,1,2025-06-15 04:19:29
2025-06-14T20:45+00:00,500108015,內湖區,YouBike2.0_文德三號公園(江南街71巷16弄),25.07524,121.5772,15,7,7,1,2025-06-15 04:19:29
2025-06-14T20:45+00:00,500108020,內湖區,YouBike2.0_捷運西湖站(1號出口),25.08301,121.56638,23,10,13,1,2025-06-15 04:19:29
2025-06-14T20:45+00:00,500108025,內湖區,YouBike2.0_成功金龍路口,25.08436,121.59478,29,8,21,1,2025-06-15 04:19:29
2025-06-14T20:45+00:00,500108027,內湖區,YouBike2.0_金瑞公園,25.08785,121.5879,30,23,7,1,2025-06-15 04:19:29
2025-06-14T20:45+00:00,500108032,內湖區,YouBike2.0_瑞陽公園,25.07777,121.57961,12,8,4,1,2025-06-15 04:19:29
2025-06-14T20:45+00:00,500108035,內湖區,YouBike2.0_南京東路六段180號,25.0559,121.57991,21,10,11,1,2025-06-15 04:19:29
2025-06-14T20:45+00:00,500108043,內湖區,YouBike2.0_明美公園,25.06256,121.58607,30,11,19,1,2025-06-15 04:19:29
2025-06-14T20:45+00:00,500108044,內湖區,YouBike2.0_南京東路六段368巷,25.05827,121.58707,73,27,46,1,2025-06-15 04:19:29
2025-06-14T20:45+00:00,500108046,內湖區,YouBike2.0_民權瑞光路口,25.06835,121.58323,32,18,13,1,2025-06-15 04:19:29
2025-06-14T20:45+00:00,500108048,內湖區,YouBike2.0_民權東路六段15巷,25.06853,121.57813,28,12,16,1,2025-06-15 04:19:29
2025-06-14T20:45+00:00,500108056,內湖區,YouBike2.0_臺北市網球中心,25.0674,121.59749,34,20,14,1,2025-06-15 04:19:29
2025-06-14T20:45+00:00,500108063,內湖區,YouBike2.0_內湖區農會,25.08165,121.58891,12,6,5,1,2025-06-15 04:19:29
2025-06-14T20:45+00:00,500108064,內湖區,YouBike2.0_捷運內湖站(2號出口),25.0835,121.59454,10,2,8,1,2025-06-15 04:19:29
2025-06-14T20:45+00:00,500108067,內湖區,YouBike2.0_安康公園,25.06657,121.6136,25,4,21,1,2025-06-15 04:19:29
2025-06-14T20:45+00:00,500108068,內湖區,YouBike2.0_安泰街83巷,25.07669,121.61709,34,18,15,1,2025-06-15 04:19:29
2025-06-14T20:45+00:00,500108078,內湖區,YouBike2.0_下灣公園,25.06516,121.59561,30,14,16,1,2025-06-15 04:19:29
2025-06-14T20:45+00:00,500108081,內湖區,YouBike2.0_東湖國小,25.06854,121.61532,29,6,23,1,2025-06-15 04:19:29
2025-06-14T20:45+00:00,500108086,內湖區,YouBike2.0_星雲街138巷1弄口,25.07943,121.59544,21,11,8,1,2025-06-15 04:19:29
2025-06-14T20:45+00:00,500108089,內湖區,YouBike2.0_康湖二號公園(康寧醫院),25.07514,121.60857,25,14,11,1,2025-06-15 04:19:29
2025-06-14T20:45+00:00,500108092,內湖區,YouBike2.0_舊宗行善路口,25.05876,121.58062,22,4,18,1,2025-06-15 04:19:29
2025-06-14T20:45+00:00,500108094,內湖區,YouBike2.0_成功路四段41巷口,25.08105,121.59205,15,9,6,1,2025-06-15 04:19:29
2025-06-14T20:45+00:00,500108095,內湖區,YouBike2.0_金湖星雲街口,25.08151,121.59764,30,17,12,1,2025-06-15 04:19:29
2025-06-14T20:45+00:00,500108097,內湖區,YouBike2.0_民權東路六段190巷117弄口,25.06434,121.59399,25,13,12,1,2025-06-15 04:19:29
2025-06-14T20:45+00:00,500108100,內湖區,YouBike2.0_內湖路二段179巷口,25.08454,121.584,22,6,16,1,2025-06-15 04:19:29
2025-06-14T20:45+00:00,500108102,內湖區,YouBike2.0_行善行愛路口,25.0606,121.58286,12,6,6,1,2025-06-15 04:19:29
2025-06-14T20:45+00:00,500108110,內湖區,YouBike2.0_捷運東湖站,25.06664,121.61351,35,4,31,1,2025-06-15 04:19:29
2025-06-14T20:45+00:00,500108111,內湖區,YouBike2.0_新湖國小,25.06874,121.58923,23,14,9,1,2025-06-15 04:19:29
2025-06-14T20:45+00:00,500108112,內湖區,YouBike2.0_碧山內湖路口,25.08627,121.5914,16,13,3,1,2025-06-15 04:17:30
2025-06-14T20:45+00:00,500108115,內湖區,YouBike2.0_民權東路六段413巷,25.07038,121.60352,25,15,10,1,2025-06-15 04:19:29
2025-06-14T20:45+00:00,500108117,內湖區,YouBike2.0_宏匯瑞光廣場(港墘路),25.07777,121.57562,20,3,17,1,2025-06-15 04:19:29
2025-06-14T20:45+00:00,500108119,內湖區,YouBike2.0_內湖路一段360巷,25.0812,121.57067,15,5,10,1,2025-06-15 04:19:29
2025-06-14T20:45+00:00,500108121,內湖區,YouBike2.0_內湖路一段47巷,25.08781,121.55872,22,13,8,1,2025-06-15 04:19:29
2025-06-14T20:45+00:00,500108122,內湖區,YouBike2.0_陽光舊宗路口,25.07243,121.57416,20,10,10,1,2025-06-15 04:19:29
2025-06-14T20:45+00:00,500108124,內湖區,YouBike2.0_湖興公園,25.06671,121.58913,16,9,7,1,2025-06-15 04:19:29
2025-06-14T20:45+00:00,500108129,內湖區,YouBike2.0_明美公園(行善路333巷),25.06058,121.5866,16,5,9,1,2025-06-15 04:19:29
2025-06-14T20:45+00:00,500108132,內湖區,YouBike2.0_內湖運動公園,25.06745,121.57513,25,8,17,1,2025-06-15 04:19:29
2025-06-14T20:45+00:00,500108136,內湖區,YouBike2.0_中國醫藥大學附設醫院臺北分院,25.08227,121.5909,16,10,5,1,2025-06-15 04:19:29
2025-06-14T20:45+00:00,500108137,內湖區,YouBike2.0_康樂抽水站,25.06643,121.61732,25,11,14,1,2025-06-15 04:19:29
2025-06-14T20:45+00:00,500108138,內湖區,YouBike2.0_環山路三段16巷口,25.08464,121.57945,21,7,14,1,2025-06-15 04:19:29
2025-06-14T20:45+00:00,500108145,內湖區,YouBike2.0_致伸科技大樓,25.08067,121.5656,17,1,16,1,2025-06-15 04:19:29
2025-06-14T20:45+00:00,500108154,內湖區,YouBike2.0_世紀經貿,25.08049,121.57361,16,10,6,1,2025-06-15 04:19:29
2025-06-14T20:45+00:00,500108156,內湖區,YouBike2.0_民權東路六段56巷口,25.06805,121.58488,25,20,5,1,2025-06-15 04:19:29
2025-06-14T20:45+00:00,500108159,內湖區,YouBike2.0_舊宗新湖二路口,25.06151,121.57811,25,1,24,1,2025-06-15 04:19:29
2025-06-14T20:45+00:00,500108160,內湖區,YouBike2.0_新光基湖大樓,25.08152,121.56489,19,13,6,1,2025-06-15 04:19:29
2025-06-14T20:45+00:00,500108164,內湖區,YouBike2.0_達爾文大樓,25.07941,121.57277,15,1,14,1,2025-06-15 04:19:29
2025-06-14T20:45+00:00,500108168,內湖區,YouBike2.0_捷運西湖站(1號出口)內湖路側,25.08227,121.56709,20,5,15,1,2025-06-15 04:19:29
2025-06-14T20:45+00:00,500108185,內湖區,YouBike2.0_東湖立體停車場,25.0692,121.6122,15,7,7,1,2025-06-15 04:19:29
2025-06-14T20:45+00:00,500108187,內湖區,YouBike2.0_文德路66巷14弄,25.07712,121.58096,18,5,12,1,2025-06-15 04:19:29
2025-06-14T20:45+00:00,500108190,內湖區,YouBike2.0_內湖路一段1巷口,25.08533,121.558,20,11,9,1,2025-06-15 04:19:29
2025-06-14T20:45+00:00,500108192,內湖區,YouBike2.0_上灣公園,25.06572,121.59778,25,2,23,1,2025-06-15 04:19:29
2025-06-14T20:45+00:00,500108195,內湖區,YouBike2.0_康寧路一段218巷2弄口,25.07837,121.59652,18,15,3,1,2025-06-15 04:19:29
2025-06-14T20:45+00:00,500108197,內湖區,YouBike2.0_成功路二段406巷口,25.07077,121.59,20,13,7,1,2025-06-15 04:19:29
2025-06-14T20:45+00:00,500108209,內湖區,YouBike2.0_成功路五段450巷口,25.07468,121.60693,17,5,12,1,2025-06-15 04:19:29
2025-06-14T20:45+00:00,500109001,北投區,YouBike2.0_承德路七段304巷口,25.1168,121.5048,24,22,2,1,2025-06-15 04:19:29
2025-06-14T20:45+00:00,500109002,北投區,YouBike2.0_洲美運動公園,25.10981,121.49886,25,8,17,1,2025-06-15 04:19:29
2025-06-14T20:45+00:00,500109004,北投區,YouBike2.0_捷運明德站(1號出口),25.10896,121.51936,23,11,12,1,2025-06-15 04:19:29
2025-06-14T20:45+00:00,500109007,北投區,YouBike2.0_關渡宮,25.11739,121.46288,62,4,58,1,2025-06-15 04:19:29
2025-06-14T20:45+00:00,500109008,北投區,YouBike2.0_關渡自然公園,25.11884,121.46912,35,19,16,1,2025-06-15 04:19:29
2025-06-14T20:45+00:00,500109009,北投區,YouBike2.0_關渡醫院,25.1203,121.4665,14,12,2,1,2025-06-15 04:19:29
2025-06-14T20:45+00:00,500109019,北投區,YouBike2.0_國防大學政治作戰學院,25.13776,121.49345,45,36,9,1,2025-06-15 04:19:29
2025-06-14T20:45+00:00,500109025,北投區,YouBike2.0_捷運奇岩站(三合街),25.12634,121.50099,40,9,31,1,2025-06-15 04:19:29
2025-06-14T20:45+00:00,500109027,北投區,YouBike2.0_清江國小,25.12725,121.50676,58,54,4,1,2025-06-15 04:19:29
2025-06-14T20:45+00:00,500109028,北投區,YouBike2.0_大業路300巷口,25.12814,121.49782,20,7,13,1,2025-06-15 04:19:29
2025-06-14T20:45+00:00,500109030,北投區,YouBike2.0_北投奇岩長青樂活大樓,25.12666,121.50373,25,9,16,1,2025-06-15 04:19:29
2025-06-14T20:45+00:00,500109031,北投區,YouBike2.0_捷運唭哩岸站(2號出口),25.12087,121.50523,48,3,45,1,2025-06-15 04:19:29
2025-06-14T20:45+00:00,500109032,北投區,YouBike2.0_北投運動中心,25.11666,121.50962,70,65,5,1,2025-06-15 04:19:29
2025-06-14T20:45+00:00,500109036,北投區,YouBike2.0_捷運石牌站(1號出口),25.11542,121.51469,33,6,27,1,2025-06-15 04:19:29
2025-06-14T20:45+00:00,500109042,北投區,YouBike2.0_承德路七段280巷口,25.11587,121.50576,22,13,9,1,2025-06-15 04:19:29
2025-06-14T20:45+00:00,500109043,北投區,YouBike2.0_致遠一路二段11巷,25.11093,121.51382,22,13,8,1,2025-06-15 04:19:29
2025-06-14T20:45+00:00,500109045,北投區,YouBike2.0_中正高中,25.10467,121.51654,31,5,26,1,2025-06-15 04:19:29
2025-06-14T20:45+00:00,500109049,北投區,YouBike2.0_捷運新北投站(2號出口),25.13675,121.50224,24,11,13,1,2025-06-15 04:19:29
2025-06-14T20:45+00:00,500109054,北投區,YouBike2.0_大豐公園,25.13102,121.50408,39,37,2,1,2025-06-15 04:19:29
2025-06-14T20:45+00:00,500109057,北投區,YouBike2.0_洲美蜆仔港公園,25.10065,121.51107,27,15,12,1,2025-06-15 04:19:29
2025-06-14T20:45+00:00,500109061,北投區,YouBike2.0_新奇岩社會住宅,25.12287,121.5037,12,9,3,1,2025-06-15 04:19:29
2025-06-14T20:45+00:00,500109063,北投區,YouBike2.0_奇岩4號綠地,25.12533,121.50573,12,6,6,1,2025-06-15 04:19:29
2025-06-14T20:45+00:00,500109073,北投區,YouBike2.0_北投公園露天溫泉,25.13684,121.50792,15,7,8,1,2025-06-15 04:19:29
2025-06-14T20:45+00:00,500109079,北投區,YouBike2.0_捷運忠義站(2號出口),25.13076,121.47347,33,20,5,1,2025-06-15 04:19:29
2025-06-14T20:45+00:00,500109082,北投區,YouBike2.0_華固創富中心,25.10392,121.51244,15,11,4,1,2025-06-15 04:19:29
2025-06-14T20:45+00:00,500109086,北投區,YouBike2.0_中和綠地,25.1419,121.4989,30,14,16,1,2025-06-15 04:19:29
2025-06-14T20:45+00:00,500109087,北投區,YouBike2.0_大業路65巷口,25.12307,121.49906,25,9,13,1,2025-06-15 04:19:29
2025-06-14T20:45+00:00,500109091,北投區,YouBike2.0_永興路一段32巷口,25.13905,121.50012,12,2,8,1,2025-06-15 04:19:29
2025-06-14T20:45+00:00,500109095,北投區,YouBike2.0_承德路七段401巷(洲美橋下),25.11483,121.49934,25,8,17,1,2025-06-15 04:19:29
2025-06-14T20:45+00:00,500109103,北投區,YouBike2.0_承德文林北路口(西側),25.11032,121.51097,16,1,14,1,2025-06-15 04:17:30
2025-06-14T20:45+00:00,500109105,北投區,YouBike2.0_北投文化公園(中央北路),25.13632,121.49686,16,7,9,1,2025-06-15 04:19:29
2025-06-14T20:45+00:00,500109108,北投區,YouBike2.0_幼華中學(大業路),25.13372,121.49602,26,15,9,1,2025-06-15 04:17:30
2025-06-14T20:45+00:00,500110005,松山區,YouBike2.0_中崙高中,25.04878,121.56087,77,38,38,1,2025-06-15 04:19:29
2025-06-14T20:45+00:00,500110011,松山區,YouBike2.0_民權復興路口,25.0622,121.54565,36,29,7,1,2025-06-15 04:19:29
2025-06-14T20:45+00:00,500110012,松山區,YouBike2.0_民福三號綠地,25.06374,121.54767,20,15,3,1,2025-06-15 04:19:29
2025-06-14T20:45+00:00,500110017,松山區,YouBike2.0_民生活動中心,25.05907,121.56305,43,3,40,1,2025-06-15 04:19:29
2025-06-14T20:45+00:00,500110019,松山區,YouBike2.0_臺北市藝文推廣處,25.04826,121.55235,45,22,22,1,2025-06-15 04:19:29
2025-06-14T20:45+00:00,500110023,松山區,YouBike2.0_新東公園,25.05925,121.56888,51,41,10,1,2025-06-15 04:19:29
2025-06-14T20:45+00:00,500110024,松山區,YouBike2.0_民生光復路口,25.05834,121.55496,33,19,13,1,2025-06-15 04:19:29
2025-06-14T20:45+00:00,500110033,松山區,YouBike2.0_光復南路22巷口,25.04693,121.55771,29,25,4,1,2025-06-15 04:19:29
2025-06-14T20:45+00:00,500110035,松山區,YouBike2.0_松山新城,25.05347,121.55436,27,14,12,1,2025-06-15 04:19:29
2025-06-14T20:45+00:00,500110037,松山區,YouBike2.0_南京光復路口,25.05143,121.55716,31,10,21,1,2025-06-15 04:19:29
2025-06-14T20:45+00:00,500110041,松山區,YouBike2.0_復盛公園,25.04763,121.56115,37,32,4,1,2025-06-15 04:19:29
2025-06-14T20:45+00:00,500110042,松山區,YouBike2.0_中崙福成宮,25.04524,121.54659,31,11,20,1,2025-06-15 04:19:29
2025-06-14T20:45+00:00,500110048,松山區,YouBike2.0_敦化長春路口,25.0536,121.54871,34,3,29,1,2025-06-15 04:19:29
2025-06-14T20:45+00:00,500110050,松山區,YouBike2.0_捷運松山站(2號出口),25.05013,121.57635,14,4,10,1,2025-06-15 04:19:29
2025-06-14T20:45+00:00,500110051,松山區,YouBike2.0_民權東路三段106巷口,25.062,121.54472,22,8,14,1,2025-06-15 04:19:29
2025-06-14T20:45+00:00,500110053,松山區,YouBike2.0_三民公園(塔悠路),25.06241,121.56831,20,14,5,1,2025-06-15 04:19:29
2025-06-14T20:45+00:00,500110055,松山區,YouBike2.0_西松公園,25.05406,121.56407,11,6,5,1,2025-06-15 04:19:29
2025-06-14T20:45+00:00,500110061,松山區,YouBike2.0_南京東興路口,25.05149,121.56535,30,13,17,1,2025-06-15 04:19:29
2025-06-14T20:45+00:00,500110062,松山區,YouBike2.0_捷運松山站(3號出口),25.04962,121.57746,52,13,38,1,2025-06-15 04:19:29
2025-06-14T20:45+00:00,500110063,松山區,YouBike2.0_介壽國中,25.05722,121.55706,30,14,16,1,2025-06-15 04:19:29
2025-06-14T20:45+00:00,500110065,松山區,YouBike2.0_敦化八德路口,25.04802,121.54864,55,5,50,1,2025-06-15 04:19:29
2025-06-14T20:45+00:00,500110070,松山區,YouBike2.0_捷運松山站(1號出口),25.05014,121.57692,15,3,12,1,2025-06-15 04:19:29
2025-06-14T20:45+00:00,500110073,松山區,YouBike2.0_敦化北路155巷口,25.0542,121.5491,30,1,29,1,2025-06-15 04:19:29
2025-06-14T20:45+00:00,500110076,松山區,YouBike2.0_市民延吉街口,25.0444,121.55397,30,19,11,1,2025-06-15 04:19:29
2025-06-14T20:45+00:00,500110078,松山區,YouBike2.0_捷運南京三民站(3號出口),25.05129,121.56426,28,2,26,1,2025-06-15 04:19:29
2025-06-14T20:45+00:00,500110081,松山區,YouBike2.0_延壽街119巷口,25.05708,121.56486,15,3,7,1,2025-06-15 04:19:29
2025-06-14T20:45+00:00,500110083,松山區,YouBike2.0_民福簡易綠地,25.06589,121.54529,15,13,2,1,2025-06-15 04:19:29
2025-06-14T20:45+00:00,500110084,松山區,YouBike2.0_三民國小(撫遠街),25.06457,121.56458,26,21,4,1,2025-06-15 04:19:29
2025-06-14T20:45+00:00,500110086,松山區,YouBike2.0_民權敦化路口(西北側),25.06185,121.55,24,18,6,1,2025-06-15 04:19:29
2025-06-14T20:45+00:00,500110087,松山區,YouBike2.0_寶清八德路口(北側),25.05028,121.56879,19,18,1,1,2025-06-15 04:19:29
2025-06-14T20:45+00:00,500110090,松山區,YouBike2.0_健康公園,25.05434,121.56878,26,20,6,1,2025-06-15 04:19:29
2025-06-14T20:45+00:00,500110093,松山區,YouBike2.0_松山國小(東北側),25.05141,121.57972,24,5,19,1,2025-06-15 04:19:29
2025-06-14T20:45+00:00,500110095,松山區,YouBike2.0_基六號疏散門,25.06575,121.568,33,15,18,1,2025-06-15 04:19:29
2025-06-14T20:45+00:00,500110098,松山區,YouBike2.0_中崙高中停車場,25.05023,121.56153,25,21,4,1,2025-06-15 04:19:29
2025-06-14T20:45+00:00,500111001,南港區,YouBike2.0_南港公園(東新街),25.04591,121.59226,25,8,17,1,2025-06-15 04:19:29
2025-06-14T20:45+00:00,500111003,南港區,YouBike2.0_捷運昆陽站(1號出口),25.05014,121.59238,65,21,44,1,2025-06-15 04:19:29
2025-06-14T20:45+00:00,500111005,南港區,YouBike2.0_捷運後山埤站(1號出口),25.04437,121.58133,53,3,50,1,2025-06-15 04:19:29
2025-06-14T20:45+00:00,500111006,南港區,YouBike2.0_合樂公園,25.04843,121.58154,15,1,14,1,2025-06-15 04:19:29
2025-06-14T20:45+00:00,500111010,南港區,YouBike2.0_研究院舊莊街口,25.04239,121.61683,30,24,6,1,2025-06-15 04:19:29
2025-06-14T20:45+00:00,500111012,南港區,YouBike2.0_國家生技園區,25.04763,121.61145,38,28,10,1,2025-06-15 04:19:29
2025-06-14T20:45+00:00,500111018,南港區,YouBike2.0_市民大道八段532號,25.054,121.61334,30,14,16,1,2025-06-15 04:19:29
2025-06-14T20:45+00:00,500111021,南港區,YouBike2.0_興中立體停車場(興中路),25.05629,121.607,26,14,12,1,2025-06-15 04:19:29
2025-06-14T20:45+00:00,500111025,南港區,YouBike2.0_南港車站(忠孝東路七段415巷),25.05252,121.60922,11,4,7,1,2025-06-15 04:19:29
2025-06-14T20:45+00:00,500111028,南港區,YouBike2.0_東新國小,25.05623,121.60194,29,21,8,1,2025-06-15 04:19:29
2025-06-14T20:45+00:00,500111031,南港區,YouBike2.0_南港加壓站,25.04805,121.61594,24,16,8,1,2025-06-15 04:19:29
2025-06-14T20:45+00:00,500111036,南港區,YouBike2.0_忠孝東路七段527巷口,25.05266,121.61275,26,14,12,1,2025-06-15 04:17:30
2025-06-14T20:45+00:00,500111039,南港區,YouBike2.0_凌雲五村(研究院路三段8巷),25.03595,121.61688,26,17,9,1,2025-06-15 04:17:30
2025-06-14T20:45+00:00,500111044,南港區,YouBike2.0_南港東新街口,25.05168,121.58284,28,13,15,1,2025-06-15 04:19:29
2025-06-14T20:45+00:00,500111046,南港區,YouBike2.0_捷運後山埤站(3號出口),25.04511,121.5836,18,3,15,1,2025-06-15 04:19:29
2025-06-14T20:45+00:00,500111047,南港區,YouBike2.0_玉成公園運動中心,25.04193,121.58493,26,12,14,1,2025-06-15 04:17:30
2025-06-14T20:45+00:00,500111048,南港區,YouBike2.0_百福公園,25.03884,121.58788,25,20,4,1,2025-06-15 04:19:29
2025-06-14T20:45+00:00,500111051,南港區,YouBike2.0_南港車站B棟(市民大道),25.05293,121.60549,24,20,4,1,2025-06-15 04:19:29
2025-06-14T20:45+00:00,500111068,南港區,YouBike2.0_南港車站(忠孝東路),25.05225,121.60766,24,19,5,1,2025-06-15 04:19:29
2025-06-14T20:45+00:00,500111073,南港區,YouBike2.0_成福路197巷口,25.04066,121.58877,15,9,3,1,2025-06-15 04:19:29
2025-06-14T20:45+00:00,500111074,南港區,YouBike2.0_南港疏散門(基三號疏散門),25.05543,121.5892,24,19,4,1,2025-06-15 04:19:29
2025-06-14T20:45+00:00,500111076,南港區,YouBike2.0_南港展覽館2館,25.05545,121.61646,18,9,9,1,2025-06-15 04:19:29
2025-06-14T20:45+00:00,500111079,南港區,YouBike2.0_捷運昆陽站(4號出口),25.05066,121.59431,28,6,21,1,2025-06-15 04:19:29
2025-06-14T20:45+00:00,500111083,南港區,YouBike2.0_南港路三段190巷口,25.05381,121.58638,16,8,8,1,2025-06-15 04:17:30
2025-06-14T20:45+00:00,500111087,南港區,YouBike2.0_中興公園,25.04487,121.61481,15,10,4,1,2025-06-15 04:19:29
2025-06-14T20:45+00:00,500111088,南港區,YouBike2.0_向陽市民大道路口(西北側),25.05163,121.59535,29,12,17,1,2025-06-15 04:19:29
2025-06-14T20:45+00:00,500111090,南港區,YouBike2.0_研究院路一段151巷口,25.04997,121.6162,14,9,5,1,2025-06-15 04:19:29
2025-06-14T20:45+00:00,500111092,南港區,YouBike2.0_中研院近代史研究所研究大樓,25.03999,121.61538,16,5,11,1,2025-06-15 04:19:29
2025-06-14T20:45+00:00,500111117,南港區,YouBike2.0_昆陽東新街口,25.04857,121.59401,24,10,13,1,2025-06-15 04:19:29
2025-06-14T20:45+00:00,500111121,南港區,YouBike2.0_經貿二路185巷,25.06148,121.61698,21,6,15,1,2025-06-15 04:19:29
2025-06-14T20:45+00:00,500111124,南港區,YouBike2.0_中坡松隆路口,25.04865,121.58028,21,4,16,1,2025-06-15 04:19:29
2025-06-14T20:45+00:00,500112004,信義區,YouBike2.0_和平東路三段631巷口,25.0132,121.56335,24,7,16,1,2025-06-15 04:19:29
2025-06-14T20:45+00:00,500112007,信義區,YouBike2.0_臺北醫學大學,25.02668,121.56175,64,12,51,1,2025-06-15 04:19:29
2025-06-14T20:45+00:00,500112011,信義區,YouBike2.0_象山公園,25.02863,121.56981,48,7,41,1,2025-06-15 04:17:30
2025-06-14T20:45+00:00,500112012,信義區,YouBike2.0_松仁路253巷3弄,25.02678,121.56884,25,11,9,1,2025-06-15 04:19:29
2025-06-14T20:45+00:00,500112014,信義區,YouBike2.0_捷運象山站(1號出口),25.03295,121.56867,24,4,18,1,2025-06-15 04:19:29
2025-06-14T20:45+00:00,500112015,信義區,YouBike2.0_松德路200巷,25.03471,121.57301,57,17,40,1,2025-06-15 04:19:29
2025-06-14T20:45+00:00,500112023,信義區,YouBike2.0_仁愛路四段496巷口,25.03745,121.5602,34,18,15,1,2025-06-15 04:19:29
2025-06-14T20:45+00:00,500112024,信義區,YouBike2.0_松山工農,25.03961,121.57199,34,0,33,1,2025-06-15 04:19:29
2025-06-14T20:45+00:00,500112025,信義區,YouBike2.0_松友公園,25.03423,121.57636,39,26,4,1,2025-06-15 04:19:29
2025-06-14T20:45+00:00,500112026,信義區,YouBike2.0_林口公園,25.03894,121.57915,51,31,12,1,2025-06-15 04:19:29
2025-06-14T20:45+00:00,500112027,信義區,YouBike2.0_松山家商,25.0347,121.58018,40,5,34,1,2025-06-15 04:19:29
2025-06-14T20:45+00:00,500112032,信義區,YouBike2.0_市府松高路口,25.03899,121.56369,54,0,53,1,2025-06-15 04:19:29
2025-06-14T20:45+00:00,500112039,信義區,YouBike2.0_福德國小,25.03846,121.58618,42,16,24,1,2025-06-15 04:19:29
2025-06-14T20:45+00:00,500112040,信義區,YouBike2.0_福德公園,25.03841,121.58355,35,18,12,1,2025-06-15 04:19:29
2025-06-14T20:45+00:00,500112043,信義區,YouBike2.0_興雅松仁路口,25.0401,121.56822,65,1,64,1,2025-06-15 04:17:30
2025-06-14T20:45+00:00,500112043,信義區,YouBike2.0_興雅松仁路口,25.0401,121.56822,65,1,64,1,2025-06-15 04:19:29
2025-06-14T20:45+00:00,500112044,信義區,YouBike2.0_福祥公園,25.04626,121.57045,26,7,12,1,2025-06-15 04:19:29
2025-06-14T20:45+00:00,500112046,信義區,YouBike2.0_泰和公園,25.0193,121.57105,40,32,3,1,2025-06-15 04:19:29
2025-06-14T20:45+00:00,500112047,信義區,YouBike2.0_興雅國小(基隆路一段37巷),25.04773,121.56895,27,20,7,1,2025-06-15 04:19:29
2025-06-14T20:45+00:00,500112048,信義區,YouBike2.0_雅祥公園(松信路50巷口),25.04732,121.57211,12,11,1,1,2025-06-15 04:19:29
2025-06-14T20:45+00:00,500112049,信義區,YouBike2.0_松山車站,25.0489,121.57841,70,10,57,1,2025-06-15 04:19:29
2025-06-14T20:45+00:00,500112051,信義區,YouBike2.0_永吉松信路口,25.04548,121.57207,35,27,7,1,2025-06-15 04:19:29
2025-06-14T20:45+00:00,500112052,信義區,YouBike2.0_三興國小,25.02969,121.55766,26,18,8,1,2025-06-15 04:19:29
2025-06-14T20:45+00:00,500112056,信義區,YouBike2.0_基隆忠孝路口西南側,25.04108,121.5629,21,0,19,1,2025-06-15 04:19:29
2025-06-14T20:45+00:00,500112065,信義區,YouBike2.0_松德公園,25.03657,121.57349,40,13,27,1,2025-06-15 04:19:29
2025-06-14T20:45+00:00,500112066,信義區,YouBike2.0_世貿三館,25.03511,121.56369,54,12,42,1,2025-06-15 04:19:29
2025-06-14T20:45+00:00,500112071,信義區,YouBike2.0_吳興街260巷,25.02606,121.5631,32,28,1,1,2025-06-15 04:19:29
2025-06-14T20:45+00:00,500112073,信義區,YouBike2.0_仁愛逸仙路口,25.03771,121.56124,38,1,37,1,2025-06-15 04:19:29
2025-06-14T20:45+00:00,500112075,信義區,YouBike2.0_信義基隆路口,25.03321,121.55873,26,0,25,1,2025-06-15 04:17:30
2025-06-14T20:45+00:00,500112075,信義區,YouBike2.0_信義基隆路口,25.03321,121.55873,26,0,25,1,2025-06-15 04:19:29
2025-06-14T20:45+00:00,500112076,信義區,YouBike2.0_捷運台北101/世貿站(2號出口),25.0327,121.56157,52,0,52,1,2025-06-15 04:19:29
2025-06-14T20:45+00:00,500112078,信義區,YouBike2.0_吳興街284巷36弄口,25.02236,121.56268,33,9,17,1,2025-06-15 04:19:29
2025-06-14T20:45+00:00,500112079,信義區,YouBike2.0_協和祐德高級中學,25.0426,121.58381,20,5,15,1,2025-06-15 04:17:30
2025-06-14T20:45+00:00,500112079,信義區,YouBike2.0_協和祐德高級中學,25.0426,121.58381,20,5,15,1,2025-06-15 04:19:29
2025-06-14T20:45+00:00,500112082,信義區,YouBike2.0_臺北南山廣場_1,25.03404,121.56598,68,0,68,1,2025-06-15 04:19:29
2025-06-14T20:45+00:00,500112084,信義區,YouBike2.0_景平公園,25.02976,121.5642,41,6,35,1,2025-06-15 04:19:29
2025-06-14T20:45+00:00,500112088,信義區,YouBike2.0_吳興街394巷口,25.02474,121.56741,12,9,0,1,2025-06-15 04:19:29
2025-06-14T20:45+00:00,500112091,信義區,YouBike2.0_松仁松平路口,25.03047,121.56838,10,0,9,1,2025-06-15 04:19:29
2025-06-14T20:45+00:00,500112093,信義區,YouBike2.0_捷運市政府站(4號出口),25.04146,121.56731,14,0,14,1,2025-06-15 04:19:29
2025-06-14T20:45+00:00,500112095,信義區,YouBike2.0_景勤二號公園(西南側),25.02605,121.5577,22,17,2,1,2025-06-15 04:19:29
2025-06-14T20:45+00:00,500112101,信義區,YouBike2.0_革新公園,25.04367,121.56741,20,0,20,0,2025-06-15 04:19:29
2025-06-14T20:45+00:00,500112102,信義區,YouBike2.0_黎雙公園,25.0246,121.56028,17,15,1,1,2025-06-15 04:19:29
2025-06-14T20:45+00:00,500112104,信義區,YouBike2.0_捷運國父紀念館站(5號出口),25.04206,121.55792,23,12,10,1,2025-06-15 04:19:29
2025-06-14T20:45+00:00,500112105,信義區,YouBike2.0_光復南菸廠路口,25.04482,121.55795,25,0,25,1,2025-06-15 04:19:29
2025-06-14T20:45+00:00,500112111,信義區,YouBike2.0_吳興新村,25.02815,121.56114,22,16,5,1,2025-06-15 04:19:29
2025-06-14T20:45+00:00,500112112,信義區,YouBike2.0_松山文創園區(一號倉庫),25.04503,121.55951,19,12,7,1,2025-06-15 04:19:29
2025-06-14T20:45+00:00,500112113,信義區,YouBike2.0_永吉路187巷口,25.04584,121.57273,16,13,1,1,2025-06-15 04:19:29
2025-06-14T20:45+00:00,500112115,信義區,YouBike2.0_信安街/富陽街44巷口,25.02309,121.55537,21,10,7,1,2025-06-15 04:19:29
2025-06-14T20:45+00:00,500112118,信義區,YouBike2.0_光復仁愛路口,25.03784,121.55768,25,0,25,1,2025-06-15 04:19:29
2025-06-14T20:45+00:00,500112124,信義區,YouBike2.0_松智松平路口,25.0304,121.5654,16,0,16,1,2025-06-15 04:19:29
2025-06-14T20:45+00:00,500112127,信義區,YouBike2.0_永吉路120巷15弄口,25.04501,121.57028,21,11,9,1,2025-06-15 04:19:29
2025-06-14T20:45+00:00,500112128,信義區,YouBike2.0_臺北文創大樓(菸廠路),25.04499,121.56082,27,8,19,1,2025-06-15 04:19:29
2025-06-14T20:45+00:00,500113002,萬華區,YouBike2.0_寶興長泰街口(西南角),25.0216,121.49597,17,16,0,1,2025-06-15 04:19:29
2025-06-14T20:45+00:00,500113010,萬華區,YouBike2.0_青年公園籃球場,25.02085,121.50539,24,1,23,1,2025-06-15 04:19:29
2025-06-14T20:45+00:00,500113013,萬華區,YouBike2.0_新和國小,25.02582,121.50255,20,4,15,1,2025-06-15 04:19:29
2025-06-14T20:45+00:00,500113015,萬華區,YouBike2.0_莒光立體停車場,25.03116,121.50336,10,4,5,1,2025-06-15 04:19:29
2025-06-14T20:45+00:00,500113020,萬華區,YouBike2.0_忠德公園,25.02516,121.49604,19,13,5,1,2025-06-15 04:19:29
2025-06-14T20:45+00:00,500113027,萬華區,YouBike2.0_華江國小,25.03397,121.49029,17,5,8,1,2025-06-15 04:19:29
2025-06-14T20:45+00:00,500113031,萬華區,YouBike2.0_糖廍文化園區,25.03383,121.4946,18,10,7,1,2025-06-15 04:19:29
2025-06-14T20:45+00:00,500113032,萬華區,YouBike2.0_兩棵樹公園,25.03253,121.49549,19,6,13,1,2025-06-15 04:19:29
2025-06-14T20:45+00:00,500113038,萬華區,YouBike2.0_西本願寺廣場,25.04099,121.50769,87,22,65,1,2025-06-15 04:19:29
2025-06-14T20:45+00:00,500113040,萬華區,YouBike2.0_捷運龍山寺站(1號出口),25.03535,121.49938,33,2,31,1,2025-06-15 04:19:29
2025-06-14T20:45+00:00,500113041,萬華區,YouBike2.0_龍山國小,25.0355,121.49541,30,11,19,1,2025-06-15 04:19:29
2025-06-14T20:45+00:00,500113043,萬華區,YouBike2.0_老松國小,25.03792,121.50177,50,12,38,1,2025-06-15 04:19:29
2025-06-14T20:45+00:00,500113044,萬華區,YouBike2.0_萬華火車站,25.03364,121.50322,53,50,3,1,2025-06-15 04:19:29
2025-06-14T20:45+00:00,500113045,萬華區,YouBike2.0_萬華火車站(D2廣場),25.03394,121.50117,42,17,25,1,2025-06-15 04:19:29
2025-06-14T20:45+00:00,500113046,萬華區,YouBike2.0_捷運龍山寺站(3號出口),25.03509,121.50199,32,7,24,1,2025-06-15 04:19:29
2025-06-14T20:45+00:00,500113047,萬華區,YouBike2.0_臺北市電影主題公園(峨眉街),25.04445,121.50306,20,14,6,1,2025-06-15 04:19:29
2025-06-14T20:45+00:00,500113052,萬華區,YouBike2.0_德昌街10巷口,25.02533,121.4996,17,14,3,1,2025-06-15 04:17:30
2025-06-14T20:45+00:00,500113054,萬華區,YouBike2.0_長順街60巷口,25.03119,121.48858,15,12,3,1,2025-06-15 04:19:29
2025-06-14T20:45+00:00,500113060,萬華區,YouBike2.0_富民路145巷口,25.01796,121.49988,18,15,3,1,2025-06-15 04:19:29
2025-06-14T20:45+00:00,500113062,萬華區,YouBike2.0_龍山國中,25.03646,121.50492,15,8,7,1,2025-06-15 04:19:29
2025-06-14T20:45+00:00,500113069,萬華區,YouBike2.0_莒光社會住宅,25.0317,121.50033,30,15,14,1,2025-06-15 04:19:29
2025-06-14T20:45+00:00,500113070,萬華區,YouBike2.0_艋舺西藏路口,25.0287,121.49156,30,7,23,1,2025-06-15 04:19:29
2025-06-14T20:45+00:00,500113075,萬華區,YouBike2.0_萬大路424巷口,25.02039,121.4927,15,11,4,1,2025-06-15 04:19:29
2025-06-14T20:45+00:00,500113078,萬華區,YouBike2.0_水源青年路口,25.02005,121.50429,24,13,8,1,2025-06-15 04:19:29
2025-06-14T20:45+00:00,500113083,萬華區,YouBike2.0_綠堤公園(西北側),25.03338,121.49267,14,6,8,1,2025-06-15 04:19:29
2025-06-14T20:45+00:00,500113086,萬華區,YouBike2.0_德昌街125巷口,25.02406,121.49639,19,11,6,1,2025-06-15 04:19:29
2025-06-14T20:45+00:00,500113088,萬華區,YouBike2.0_艋舺大道/西園路140巷口,25.03174,121.49502,20,20,0,1,2025-06-15 04:19:29
2025-06-14T20:45+00:00,500113091,萬華區,YouBike2.0_新和國小(中華路二段416巷),25.02677,121.50283,19,12,7,1,2025-06-15 04:19:29
2025-06-14T20:45+00:00,500119044,臺大公館校區,YouBike2.0_臺大禮賢樓東南側,25.01415,121.53767,35,11,24,1,2025-06-15 04:19:29
2025-06-14T20:45+00:00,500119046,臺大公館校區,YouBike2.0_臺大管理學院二館北側,25.01355,121.53673,40,2,37,1,2025-06-15 04:19:29
2025-06-14T20:45+00:00,500119047,臺大公館校區,YouBike2.0_臺大土木系館,25.01761,121.53844,30,5,25,1,2025-06-15 04:19:29
2025-06-14T20:45+00:00,500119051,臺大公館校區,YouBike2.0_臺大立體機車停車場,25.01616,121.54251,27,2,25,1,2025-06-15 04:19:29
2025-06-14T20:45+00:00,500119055,臺大公館校區,YouBike2.0_臺大樂學館東側,25.01793,121.53585,28,0,27,1,2025-06-15 04:19:29
2025-06-14T20:45+00:00,500119061,臺大公館校區,YouBike2.0_臺大鹿鳴堂東側,25.01511,121.53786,39,0,39,1,2025-06-15 04:19:29
2025-06-14T20:45+00:00,500119066,臺大公館校區,YouBike2.0_臺大凝態館南側,25.02157,121.53633,20,1,19,1,2025-06-15 04:19:29
2025-06-14T20:45+00:00,500119067,臺大公館校區,YouBike2.0_臺大社科院西側,25.02053,121.54145,42,3,39,1,2025-06-15 04:19:29
2025-06-14T20:45+00:00,500119069,臺大公館校區,YouBike2.0_臺大思亮館東南側,25.02074,121.53906,26,3,23,1,2025-06-15 04:19:29
2025-06-14T20:45+00:00,500119070,臺大公館校區,YouBike2.0_臺大椰林小舖,25.01561,121.53583,48,18,30,1,2025-06-15 04:19:29
2025-06-14T20:45+00:00,500119072,臺大公館校區,YouBike2.0_臺大原分所北側,25.01881,121.53868,12,2,10,1,2025-06-15 04:19:29
2025-06-14T20:45+00:00,500119076,臺大公館校區,YouBike2.0_臺大博理館西側,25.01922,121.54195,22,9,13,1,2025-06-15 04:19:29
2025-06-14T20:45+00:00,500119079,臺大公館校區,YouBike2.0_臺大一號館,25.01698,121.53455,19,3,16,1,2025-06-15 04:19:29
2025-06-14T20:45+00:00,500119081,臺大公館校區,YouBike2.0_臺大教研館北側,25.01337,121.53909,26,1,25,1,2025-06-15 04:19:29
2025-06-14T20:45+00:00,500119082,臺大公館校區,YouBike2.0_臺大四號館東北側,25.01703,121.53781,10,5,5,1,2025-06-15 04:19:29
2025-06-14T20:45+00:00,500119087,臺大公館校區,YouBike2.0_臺大總圖書館西南側,25.0169,121.54031,30,5,23,1,2025-06-15 04:19:29
2025-06-14T20:45+00:00,500119089,臺大公館校區,YouBike2.0_臺大獸醫館南側,25.01791,121.54242,24,3,21,1,2025-06-15 04:19:29
2025-06-14T20:45+00:00,500119094,臺大公館校區,YouBike2.0_臺大大一女餐廳廣場,25.01479,121.53494,40,2,26,1,2025-06-15 04:19:29
2025-06-14T20:45+00:00,500119097,臺大公館校區,YouBike2.0_臺大人文館,25.0182,121.53476,67,44,18,1,2025-06-15 04:19:29
