timestamp,sno,sarea,sna,latitude,longitude,total,available_rent_bikes,available_return_bikes,act,srcUpdateTime
2025-05-31T20:44+00:00,500101001,大安區,YouBike2.0_捷運科技大樓站,25.02605,121.5436,28,13,15,1,2025-06-01 04:37:29
2025-05-31T20:44+00:00,500101002,大安區,YouBike2.0_復興南路二段273號前,25.02565,121.54357,21,9,12,1,2025-06-01 04:37:29
2025-05-31T20:44+00:00,500101003,大安區,YouBike2.0_國北教大實小東側門,25.02429,121.54124,28,21,7,1,2025-06-01 04:37:29
2025-05-31T20:44+00:00,500101004,大安區,YouBike2.0_和平公園東側,25.02351,121.54282,11,11,0,1,2025-06-01 04:37:29
2025-05-31T20:44+00:00,500101005,大安區,YouBike2.0_辛亥復興路口西北側,25.02153,121.54299,16,15,0,1,2025-06-01 04:37:29
2025-05-31T20:44+00:00,500101006,大安區,YouBike2.0_復興南路二段280號前,25.02429,121.54328,27,20,7,1,2025-06-01 04:37:29
2025-05-31T20:44+00:00,500101008,大安區,YouBike2.0_新生南路三段52號前,25.02112,121.53407,17,15,2,1,2025-06-01 04:37:29
2025-05-31T20:44+00:00,500101010,大安區,YouBike2.0_新生南路三段82號前,25.01894,121.53361,20,10,10,1,2025-06-01 04:37:29
2025-05-31T20:44+00:00,500101013,大安區,YouBike2.0_和平復興路口西北側,25.02543,121.54332,9,9,0,1,2025-06-01 04:37:29
2025-05-31T20:44+00:00,500101015,大安區,YouBike2.0_大安運動中心停車場,25.02089,121.54697,19,11,8,1,2025-06-01 04:37:29
2025-05-31T20:44+00:00,500101018,大安區,YouBike2.0_溫州公園,25.01895,121.53156,5,4,1,1,2025-06-01 04:37:29
2025-05-31T20:44+00:00,500101019,大安區,YouBike2.0_和平臥龍街口,25.024461,121.546705,24,21,2,1,2025-06-01 04:37:29
2025-05-31T20:44+00:00,500101020,大安區,YouBike2.0_溫州停車場,25.02093,121.5331,5,0,5,0,2025-06-01 04:37:29
2025-05-31T20:44+00:00,500101021,大安區,YouBike2.0_銘傳國小側門,25.01385,121.53549,7,3,4,1,2025-06-01 04:37:29
2025-05-31T20:44+00:00,500101022,大安區,YouBike2.0_捷運公館站(2號出口),25.01491,121.53438,99,28,71,1,2025-06-01 04:37:29
2025-05-31T20:44+00:00,500101023,大安區,YouBike2.0_第二學生活動中心,25.01244,121.53661,25,2,23,1,2025-06-01 04:37:29
2025-05-31T20:44+00:00,500101025,大安區,YouBike2.0_臺灣科技大學側門,25.01295,121.53973,99,20,79,1,2025-06-01 04:37:29
2025-05-31T20:44+00:00,500101026,大安區,YouBike2.0_公館公園,25.01137,121.54062,30,26,4,1,2025-06-01 04:37:29
2025-05-31T20:44+00:00,500101029,大安區,YouBike2.0_臺大環研大樓,25.01234,121.54503,15,0,15,1,2025-06-01 04:37:29
2025-05-31T20:44+00:00,500101031,大安區,YouBike2.0_臺大男七舍前,25.01537,121.54698,20,19,1,1,2025-06-01 04:37:29
2025-05-31T20:44+00:00,500101032,大安區,YouBike2.0_臺大男一舍前,25.01637,121.54535,61,60,1,1,2025-06-01 04:37:29
2025-05-31T20:44+00:00,500101033,大安區,YouBike2.0_臺大男六舍前,25.01664,121.5452,40,27,12,1,2025-06-01 04:37:29
2025-05-31T20:44+00:00,500101034,大安區,YouBike2.0_臺大動物醫院前,25.01576,121.54291,18,3,15,1,2025-06-01 04:37:29
2025-05-31T20:44+00:00,500101035,大安區,YouBike2.0_臺大土木研究大樓前,25.01787,121.5476,24,8,16,1,2025-06-01 04:37:29
2025-05-31T20:44+00:00,500101037,大安區,YouBike2.0_臺大國青大樓宿舍前,25.02076,121.54432,20,20,0,1,2025-06-01 04:37:29
2025-05-31T20:44+00:00,500101038,大安區,YouBike2.0_臺大社科院圖書館前,25.02101,121.54284,27,3,24,1,2025-06-01 04:37:29
2025-05-31T20:44+00:00,500101039,大安區,YouBike2.0_臺大法人語言訓練中心前,25.02104,121.54081,28,6,22,1,2025-06-01 04:37:29
2025-05-31T20:44+00:00,500101041,大安區,YouBike2.0_辛亥新生路口東南側,25.02218,121.53474,50,30,19,1,2025-06-01 04:37:29
2025-05-31T20:44+00:00,500101042,大安區,YouBike2.0_基隆長興路口東側,25.01727,121.54471,15,14,1,1,2025-06-01 04:37:29
2025-05-31T20:44+00:00,500101091,大安區,YouBike2.0_國北教大側門南側,25.022864,121.546622,34,22,12,1,2025-06-01 04:37:29
2025-05-31T20:44+00:00,500101092,大安區,YouBike2.0_和平實小東北側,25.021641,121.54704,25,13,12,1,2025-06-01 04:37:29
2025-05-31T20:44+00:00,500101093,大安區,YouBike2.0_大安區健康服務中心,25.021469,121.544069,23,21,2,1,2025-06-01 04:37:29
2025-05-31T20:44+00:00,500101094,大安區,YouBike2.0_辛亥泰順街口,25.02193,121.53165,20,17,3,1,2025-06-01 04:37:29
2025-05-31T20:44+00:00,500101095,大安區,YouBike2.0_芳和國中,25.0189,121.55013,37,22,14,1,2025-06-01 04:37:29
2025-05-31T20:44+00:00,500101097,大安區,YouBike2.0_臥龍樂業街口,25.01856,121.55558,41,33,8,1,2025-06-01 04:37:29
2025-05-31T20:44+00:00,500101098,大安區,YouBike2.0_臥龍公園,25.01623,121.55037,25,19,6,1,2025-06-01 04:37:29
2025-05-31T20:44+00:00,500101099,大安區,YouBike2.0_嘉興公園,25.021,121.55211,44,25,9,1,2025-06-01 04:37:29
2025-05-31T20:44+00:00,500101100,大安區,YouBike2.0_捷運麟光站(2號出口),25.0181,121.55929,50,32,17,1,2025-06-01 04:37:29
2025-05-31T20:44+00:00,500101101,大安區,YouBike2.0_捷運六張犁站,25.02397,121.55266,64,28,34,1,2025-06-01 04:37:29
2025-05-31T20:44+00:00,500101102,大安區,YouBike2.0_喬治工商,25.02705,121.55551,22,18,4,1,2025-06-01 04:37:29
2025-05-31T20:44+00:00,500101103,大安區,YouBike2.0_法治公園,25.02694,121.55325,29,19,9,1,2025-06-01 04:37:29
2025-05-31T20:44+00:00,500101104,大安區,YouBike2.0_捷運臺電大樓站(2號出口),25.02021,121.52942,18,15,3,1,2025-06-01 04:37:29
2025-05-31T20:44+00:00,500101109,大安區,YouBike2.0_臺灣師範大學(圖書館),25.0266,121.52973,40,26,14,1,2025-06-01 04:37:29
2025-05-31T20:44+00:00,500101113,大安區,YouBike2.0_臺北市立圖書館(總館),25.02895,121.5379,51,49,2,1,2025-06-01 04:37:29
2025-05-31T20:44+00:00,500101115,大安區,YouBike2.0_建國和平路口西北側,25.02606,121.53738,50,30,20,1,2025-06-01 04:37:29
2025-05-31T20:44+00:00,500101116,大安區,YouBike2.0_金華公園,25.02984,121.53107,44,34,10,1,2025-06-01 04:37:29
2025-05-31T20:44+00:00,500101118,大安區,YouBike2.0_金甌女中,25.03519,121.5245,15,14,1,1,2025-06-01 04:37:29
2025-05-31T20:44+00:00,500101120,大安區,YouBike2.0_愛國金山路口,25.03164,121.52661,43,16,27,1,2025-06-01 04:37:29
2025-05-31T20:44+00:00,500101123,大安區,YouBike2.0_敦化基隆路口,25.02215,121.54839,38,11,27,1,2025-06-01 04:37:29
2025-05-31T20:44+00:00,500101124,大安區,YouBike2.0_安和路二段181巷口,25.02721,121.54988,29,9,20,1,2025-06-01 04:37:29
2025-05-31T20:44+00:00,500101125,大安區,YouBike2.0_臨江街夜市(通化街101巷口),25.02952,121.55406,30,8,17,1,2025-06-01 04:37:29
2025-05-31T20:44+00:00,500101127,大安區,YouBike2.0_台北科技大學億光大樓,25.04177,121.53833,45,27,18,1,2025-06-01 04:37:29
2025-05-31T20:44+00:00,500101128,大安區,YouBike2.0_新生南路一段119巷口,25.04003,121.53299,33,23,9,1,2025-06-01 04:37:29
2025-05-31T20:44+00:00,500101129,大安區,YouBike2.0_幸安國小(仁愛路),25.03753,121.53523,28,24,4,1,2025-06-01 04:37:29
2025-05-31T20:44+00:00,500101130,大安區,YouBike2.0_民榮公園,25.03534,121.5354,15,11,4,1,2025-06-01 04:37:29
2025-05-31T20:44+00:00,500101131,大安區,YouBike2.0_復興南路1段340巷口,25.03701,121.54348,50,10,40,1,2025-06-01 04:37:29
2025-05-31T20:44+00:00,500101133,大安區,YouBike2.0_捷運忠孝復興站(2號出口),25.04035,121.5436,43,36,7,1,2025-06-01 04:37:29
2025-05-31T20:44+00:00,500101134,大安區,YouBike2.0_捷運大安站(4號出口),25.0332,121.5439,13,9,4,1,2025-06-01 04:37:29
2025-05-31T20:44+00:00,500101137,大安區,YouBike2.0_龍門廣場,25.04092,121.54825,70,16,52,1,2025-06-01 04:37:29
2025-05-31T20:44+00:00,500101138,大安區,YouBike2.0_仁愛安和路口,25.03754,121.55285,33,14,19,1,2025-06-01 04:37:29
2025-05-31T20:44+00:00,500101139,大安區,YouBike2.0_信義敦化路口,25.03333,121.54977,52,37,15,1,2025-06-01 04:37:29
2025-05-31T20:44+00:00,500101140,大安區,YouBike2.0_仁愛國中,25.03706,121.55166,25,4,21,1,2025-06-01 04:37:29
2025-05-31T20:44+00:00,500101141,大安區,YouBike2.0_捷運信義安和站(2號出口),25.03304,121.55171,24,14,10,1,2025-06-01 04:37:29
2025-05-31T20:44+00:00,500101142,大安區,YouBike2.0_八德市場,25.04463,121.53665,30,26,4,1,2025-06-01 04:37:29
2025-05-31T20:44+00:00,500101143,大安區,YouBike2.0_昌隆公園,25.04448,121.53946,16,14,2,1,2025-06-01 04:37:29
2025-05-31T20:44+00:00,500101146,大安區,YouBike2.0_光信公園(光復南路456巷),25.03513,121.5561,25,22,2,1,2025-06-01 04:37:29
2025-05-31T20:44+00:00,500101147,大安區,YouBike2.0_僑安地下停車場(2號出口)東南側,25.0391,121.5569,20,2,17,1,2025-06-01 04:37:29
2025-05-31T20:44+00:00,500101148,大安區,YouBike2.0_建國南路一段279巷口,25.03635,121.53833,32,17,14,1,2025-06-01 04:37:29
2025-05-31T20:44+00:00,500101149,大安區,YouBike2.0_捷運忠孝新生站(6號出口),25.04091,121.53295,15,5,10,1,2025-06-01 04:37:29
2025-05-31T20:44+00:00,500101150,大安區,YouBike2.0_捷運忠孝新生站(4號出口),25.04239,121.53324,46,35,11,1,2025-06-01 04:37:29
2025-05-31T20:44+00:00,500101151,大安區,YouBike2.0_大安高工,25.03126,121.54339,23,21,2,1,2025-06-01 04:37:29
2025-05-31T20:44+00:00,500101153,大安區,YouBike2.0_瑠公公園,25.04201,121.54612,20,5,15,1,2025-06-01 04:37:29
2025-05-31T20:44+00:00,500101156,大安區,YouBike2.0_信義建國路口,25.0328,121.53746,52,21,31,1,2025-06-01 04:37:29
2025-05-31T20:44+00:00,500101157,大安區,YouBike2.0_東豐公園,25.03569,121.5451,19,17,1,1,2025-06-01 04:37:29
2025-05-31T20:44+00:00,500101158,大安區,YouBike2.0_德安公園(四維路66巷),25.03473,121.54767,22,22,0,1,2025-06-01 04:37:29
2025-05-31T20:44+00:00,500101159,大安區,YouBike2.0_捷運忠孝復興站(5號出口),25.04253,121.54407,30,20,10,1,2025-06-01 04:37:29
2025-05-31T20:44+00:00,500101160,大安區,YouBike2.0_捷運忠孝敦化站(2號出口),25.04153,121.5524,17,3,13,1,2025-06-01 04:37:29
2025-05-31T20:44+00:00,500101162,大安區,YouBike2.0_忠孝東路四段223巷口(市民大道側),25.04427,121.55291,25,7,18,1,2025-06-01 04:37:29
2025-05-31T20:44+00:00,500101163,大安區,YouBike2.0_瑞安街208巷,25.02979,121.54053,15,9,6,1,2025-06-01 04:37:29
2025-05-31T20:44+00:00,500101165,大安區,YouBike2.0_樂利路21巷口,25.0277,121.55132,17,8,9,1,2025-06-01 04:37:29
2025-05-31T20:44+00:00,500101166,大安區,YouBike2.0_捷運科技大樓站(台北教育大學),25.02472,121.54417,54,22,32,1,2025-06-01 04:37:29
2025-05-31T20:44+00:00,500101167,大安區,YouBike2.0_捷運國父紀念館站(2號出口),25.04122,121.55745,45,18,26,1,2025-06-01 04:37:29
2025-05-31T20:44+00:00,500101169,大安區,YouBike2.0_捷運信義安和站(4號出口),25.03305,121.55378,49,26,22,1,2025-06-01 04:37:29
2025-05-31T20:44+00:00,500101171,大安區,YouBike2.0_仁愛延吉街口,25.03748,121.55564,33,21,12,1,2025-06-01 04:37:29
2025-05-31T20:44+00:00,500101172,大安區,YouBike2.0_捷運信義安和站(1號出口),25.03331,121.55265,33,26,7,1,2025-06-01 04:37:29
2025-05-31T20:44+00:00,500101175,大安區,YouBike2.0_和平東建國南路口,25.02575,121.5377,17,11,6,1,2025-06-01 04:37:29
2025-05-31T20:44+00:00,500101177,大安區,YouBike2.0_復興南路一段126巷口,25.04311,121.54313,15,11,4,1,2025-06-01 04:37:29
2025-05-31T20:44+00:00,500101179,大安區,YouBike2.0_捷運東門站(5號出口),25.03363,121.52962,28,19,9,1,2025-06-01 04:37:29
2025-05-31T20:44+00:00,500101181,大安區,YouBike2.0_捷運公館站(3號出口),25.01551,121.53374,99,2,97,1,2025-06-01 04:37:29
2025-05-31T20:44+00:00,500101182,大安區,YouBike2.0_臺北科技大學(電機工程系),25.04196,121.53653,34,20,13,1,2025-06-01 04:37:29
2025-05-31T20:44+00:00,500101185,大安區,YouBike2.0_辛亥新生路口西北側,25.02267,121.5341,24,14,10,1,2025-06-01 04:37:29
2025-05-31T20:44+00:00,500101186,大安區,YouBike2.0_捷運大安站(6號出口),25.03479,121.54376,29,8,21,1,2025-06-01 04:37:29
2025-05-31T20:44+00:00,500101187,大安區,YouBike2.0_臥龍街195巷口,25.01783,121.55224,14,13,0,1,2025-06-01 04:37:29
2025-05-31T20:44+00:00,500101189,大安區,YouBike2.0_臥龍基隆路口,25.02039,121.54853,28,16,12,1,2025-06-01 04:37:29
2025-05-31T20:44+00:00,500101190,大安區,YouBike2.0_敦親公園,25.02347,121.54108,26,21,5,1,2025-06-01 04:37:29
2025-05-31T20:44+00:00,500101191,大安區,YouBike2.0_大安運動中心,25.02054,121.54561,33,19,14,1,2025-06-01 04:37:29
2025-05-31T20:44+00:00,500101192,大安區,YouBike2.0_和平敦化路口,25.02444,121.54908,36,36,0,1,2025-06-01 04:37:29
2025-05-31T20:44+00:00,500101193,大安區,YouBike2.0_基隆長興路口,25.01705,121.54435,51,44,7,1,2025-06-01 04:37:29
2025-05-31T20:44+00:00,500101194,大安區,YouBike2.0_仁愛路四段122巷口,25.03762,121.55009,25,1,24,1,2025-06-01 04:37:29
2025-05-31T20:44+00:00,500101198,大安區,YouBike2.0_市民復興路口(東南側),25.04472,121.54401,16,6,9,1,2025-06-01 04:37:29
2025-05-31T20:44+00:00,500101199,大安區,YouBike2.0_和平新生路口西南側,25.02604,121.534,17,12,5,1,2025-06-01 04:37:29
2025-05-31T20:44+00:00,500101202,大安區,YouBike2.0_仁愛敦南圓環(東南側),25.03715,121.54936,16,10,6,1,2025-06-01 04:37:29
2025-05-31T20:44+00:00,500101205,大安區,YouBike2.0_四維路170巷口,25.02821,121.54864,22,19,3,1,2025-06-01 04:37:29
2025-05-31T20:44+00:00,500101208,大安區,YouBike2.0_信義路四段199巷,25.03459,121.55164,15,15,0,1,2025-06-01 04:37:29
2025-05-31T20:44+00:00,500101209,大安區,YouBike2.0_臺大資訊大樓,25.02101,121.54153,40,16,24,1,2025-06-01 04:37:29
2025-05-31T20:44+00:00,500101211,大安區,YouBike2.0_原臺北刑務所官舍,25.03054,121.52466,23,23,0,1,2025-06-01 04:37:29
2025-05-31T20:44+00:00,500101212,大安區,YouBike2.0_捷運國父紀念館站(1號出口),25.04205,121.55657,24,2,22,1,2025-06-01 04:37:29
2025-05-31T20:44+00:00,500101213,大安區,YouBike2.0_懷生國中,25.0401,121.54122,24,18,6,1,2025-06-01 04:37:29
2025-05-31T20:44+00:00,500101214,大安區,YouBike2.0_仁愛敦南圓環(西北側),25.03827,121.54802,20,12,8,1,2025-06-01 04:37:29
2025-05-31T20:44+00:00,500101217,大安區,YouBike2.0_捷運大安站(5號出口),25.03303,121.54372,26,17,9,1,2025-06-01 04:37:29
2025-05-31T20:44+00:00,500101218,大安區,YouBike2.0_臨江公園,25.02832,121.55592,23,19,3,1,2025-06-01 04:37:29
2025-05-31T20:44+00:00,500101219,大安區,YouBike2.0_羅斯福路四段113巷19弄口,25.01027,121.53998,14,8,6,1,2025-06-01 04:37:29
2025-05-31T20:44+00:00,500101222,大安區,YouBike2.0_仁愛延吉路口(西北側),25.03795,121.55466,24,19,5,1,2025-06-01 04:37:29
2025-05-31T20:44+00:00,500101226,大安區,YouBike2.0_通安區民活動中心,25.02942,121.55294,28,13,11,1,2025-06-01 04:37:29
2025-05-31T20:44+00:00,500101227,大安區,YouBike2.0_復興忠孝東路口(東南側),25.04061,121.54389,28,15,12,1,2025-06-01 04:37:29
2025-05-31T20:44+00:00,500101228,大安區,YouBike2.0_仁愛大安路口(東北側),25.03813,121.54631,21,1,20,1,2025-06-01 04:37:29
2025-05-31T20:44+00:00,500101229,大安區,YouBike2.0_臺灣師範大學(浦城街),25.02476,121.52803,20,19,0,1,2025-06-01 04:37:29
2025-05-31T20:44+00:00,500101232,大安區,YouBike2.0_捷運古亭站(3號出口),25.02572,121.52359,15,13,2,1,2025-06-01 04:37:29
2025-05-31T20:44+00:00,500101233,大安區,YouBike2.0_捷運忠孝復興站(3號出口),25.04152,121.54414,37,15,22,1,2025-06-01 04:37:29
2025-05-31T20:44+00:00,500101234,大安區,YouBike2.0_和平東路二段90巷,25.02468,121.53965,20,11,9,1,2025-06-01 04:37:29
2025-05-31T20:44+00:00,500101236,大安區,YouBike2.0_富陽臥龍街口,25.0187,121.55688,18,15,1,1,2025-06-01 04:37:29
2025-05-31T20:44+00:00,500101238,大安區,YouBike2.0_仁愛敦南圓環(東側),25.03804,121.55042,26,2,24,1,2025-06-01 04:37:29
2025-05-31T20:44+00:00,500101239,大安區,YouBike2.0_古風公園,25.02187,121.52912,15,8,4,1,2025-06-01 04:37:29
2025-05-31T20:44+00:00,500101242,大安區,YouBike2.0_和平東路三段308巷口,25.01883,121.5544,14,10,1,1,2025-06-01 04:37:29
2025-05-31T20:44+00:00,500101243,大安區,YouBike2.0_忠孝建國路口(東南側),25.04159,121.5378,21,20,1,1,2025-06-01 04:37:29
2025-05-31T20:44+00:00,500101245,大安區,YouBike2.0_青峰活動中心,25.01524,121.55121,25,18,7,1,2025-06-01 04:37:29
2025-05-31T20:44+00:00,500101246,大安區,YouBike2.0_忠孝東路三段216巷口,25.04157,121.5402,28,18,10,1,2025-06-01 04:37:29
2025-05-31T20:44+00:00,500101247,大安區,YouBike2.0_捷運忠孝復興站(4號出口),25.04173,121.54412,25,1,24,1,2025-06-01 04:37:29
2025-05-31T20:44+00:00,500101250,大安區,YouBike2.0_國立臺北教育大學創意館,25.02305,121.54394,32,25,6,1,2025-06-01 04:37:29
2025-05-31T20:44+00:00,500101256,大安區,YouBike2.0_敦化基隆路口(東北側),25.02196,121.54899,19,10,9,1,2025-06-01 04:37:29
2025-05-31T20:44+00:00,500101257,大安區,YouBike2.0_龍圖公園,25.0305,121.54184,20,19,1,1,2025-06-01 04:37:29
2025-05-31T20:44+00:00,500101258,大安區,YouBike2.0_新生南路二段54巷口,25.02878,121.53412,26,2,23,1,2025-06-01 04:37:29
2025-05-31T20:44+00:00,500101259,大安區,YouBike2.0_臺靜農人文會館,25.02462,121.53347,12,9,3,1,2025-06-01 04:37:29
2025-05-31T20:44+00:00,500103001,大同區,YouBike2.0_延平國宅,25.07894,121.51121,30,26,4,1,2025-06-01 04:37:29
2025-05-31T20:44+00:00,500103002,大同區,YouBike2.0_臺北市立圖書館大同分館,25.0741,121.51349,40,12,28,1,2025-06-01 04:37:29
2025-05-31T20:44+00:00,500103003,大同區,YouBike2.0_合昌宮,25.07717,121.50934,15,8,6,1,2025-06-01 04:37:29
2025-05-31T20:44+00:00,500103004,大同區,YouBike2.0_民族延平路口,25.06864,121.5107,36,19,3,1,2025-06-01 04:37:29
2025-05-31T20:44+00:00,500103005,大同區,YouBike2.0_重慶酒泉街口,25.07158,121.51368,44,25,19,1,2025-06-01 04:37:29
2025-05-31T20:44+00:00,500103007,大同區,YouBike2.0_陳天來故居,25.05601,121.50895,16,11,4,1,2025-06-01 04:37:29
2025-05-31T20:44+00:00,500103008,大同區,YouBike2.0_臺北孔廟,25.07378,121.51583,37,30,7,1,2025-06-01 04:37:29
2025-05-31T20:44+00:00,500103009,大同區,YouBike2.0_捷運圓山站(1號出口),25.07133,121.52024,81,0,81,1,2025-06-01 04:37:29
2025-05-31T20:44+00:00,500103010,大同區,YouBike2.0_酒泉延平路口,25.0722,121.51057,41,22,19,1,2025-06-01 04:37:29
2025-05-31T20:44+00:00,500103011,大同區,YouBike2.0_重慶國中,25.07567,121.51862,64,24,40,1,2025-06-01 04:37:29
2025-05-31T20:44+00:00,500103019,大同區,YouBike2.0_民權延平路口(西北側),25.06326,121.51099,20,16,3,1,2025-06-01 04:37:29
2025-05-31T20:44+00:00,500103020,大同區,YouBike2.0_民權迪化街口,25.06327,121.50943,47,46,1,1,2025-06-01 04:37:29
2025-05-31T20:44+00:00,500103021,大同區,YouBike2.0_大稻埕公園,25.05915,121.51033,35,29,1,1,2025-06-01 04:37:29
2025-05-31T20:44+00:00,500103022,大同區,YouBike2.0_大龍老人住宅,25.06853,121.51729,14,10,4,1,2025-06-01 04:37:29
2025-05-31T20:44+00:00,500103024,大同區,YouBike2.0_捷運大橋頭站(2號出口),25.06314,121.51308,57,22,35,1,2025-06-01 04:37:29
2025-05-31T20:44+00:00,500103025,大同區,YouBike2.0_捷運大橋頭站(1A出口),25.06325,121.51162,30,29,1,1,2025-06-01 04:37:29
2025-05-31T20:44+00:00,500103026,大同區,YouBike2.0_捷運民權西路站(2號出口),25.06174,121.51969,25,6,19,1,2025-06-01 04:37:29
2025-05-31T20:44+00:00,500103027,大同區,YouBike2.0_捷運雙連站(2號出口),25.05826,121.52063,41,21,20,1,2025-06-01 04:37:29
2025-05-31T20:44+00:00,500103028,大同區,YouBike2.0_捷運北門站(3號出口),25.04991,121.5104,62,33,29,1,2025-06-01 04:37:29
2025-05-31T20:44+00:00,500103029,大同區,YouBike2.0_朝陽公園,25.05592,121.51367,10,5,5,1,2025-06-01 04:37:29
2025-05-31T20:44+00:00,500103031,大同區,YouBike2.0_大龍公園,25.07049,121.51596,26,20,5,1,2025-06-01 04:37:29
2025-05-31T20:44+00:00,500103033,大同區,YouBike2.0_圓山線形公園,25.06867,121.51993,26,8,18,1,2025-06-01 04:37:29
2025-05-31T20:44+00:00,500103035,大同區,YouBike2.0_重慶民族路口,25.06853,121.51359,32,31,1,1,2025-06-01 04:37:29
2025-05-31T20:44+00:00,500103036,大同區,YouBike2.0_承德路三段8巷口,25.06407,121.51822,21,7,14,1,2025-06-01 04:37:29
2025-05-31T20:44+00:00,500103038,大同區,YouBike2.0_國順公園,25.06594,121.51078,20,19,1,1,2025-06-01 04:37:29
2025-05-31T20:44+00:00,500103040,大同區,YouBike2.0_蔣渭水紀念公園,25.06011,121.51729,36,26,9,1,2025-06-01 04:37:29
2025-05-31T20:44+00:00,500103041,大同區,YouBike2.0_迪化休閒運動公園,25.07491,121.5115,26,11,15,1,2025-06-01 04:37:29
2025-05-31T20:44+00:00,500103042,大同區,YouBike2.0_大同運動中心,25.06496,121.51608,16,13,3,1,2025-06-01 04:37:29
2025-05-31T20:44+00:00,500103044,大同區,YouBike2.0_大稻埕碼頭,25.05662,121.50783,52,15,18,1,2025-06-01 04:37:29
2025-05-31T20:44+00:00,500103045,大同區,YouBike2.0_歸綏戲曲公園,25.05805,121.51353,25,23,2,1,2025-06-01 04:37:29
2025-05-31T20:44+00:00,500103046,大同區,YouBike2.0_民權國中(民權西路),25.06322,121.5144,25,9,16,1,2025-06-01 04:37:29
2025-05-31T20:44+00:00,500103047,大同區,YouBike2.0_承德民權路口,25.06247,121.51839,36,2,33,1,2025-06-01 04:37:29
2025-05-31T20:44+00:00,500103048,大同區,YouBike2.0_南京太原路口,25.05366,121.51638,29,22,7,1,2025-06-01 04:37:29
2025-05-31T20:44+00:00,500103049,大同區,YouBike2.0_承德民生西路口,25.05756,121.51828,19,1,18,1,2025-06-01 04:37:29
2025-05-31T20:44+00:00,500103051,大同區,YouBike2.0_臺北轉運站(華陰街),25.04937,121.51914,20,13,7,1,2025-06-01 04:37:29
2025-05-31T20:44+00:00,500103052,大同區,YouBike2.0_捷運民權西路站(3號出口),25.06129,121.52021,50,15,35,1,2025-06-01 04:37:29
2025-05-31T20:44+00:00,500103053,大同區,YouBike2.0_捷運中山站(5號出口),25.05296,121.51938,18,9,9,1,2025-06-01 04:37:29
2025-05-31T20:44+00:00,500103054,大同區,YouBike2.0_重慶長安路口,25.0515,121.51398,21,17,4,1,2025-06-01 04:37:29
2025-05-31T20:44+00:00,500103055,大同區,YouBike2.0_承德昌吉街口,25.06587,121.51847,18,15,3,1,2025-06-01 04:37:29
2025-05-31T20:44+00:00,500103058,大同區,YouBike2.0_樹德公園_1,25.06669,121.51615,40,39,1,1,2025-06-01 04:37:29
2025-05-31T20:44+00:00,500103059,大同區,YouBike2.0_承德鄭州路口(市民高架下),25.04879,121.51626,38,16,16,1,2025-06-01 04:37:29
2025-05-31T20:44+00:00,500103060,大同區,YouBike2.0_成淵高中,25.06036,121.51996,25,20,5,1,2025-06-01 04:37:29
2025-05-31T20:44+00:00,500103063,大同區,YouBike2.0_延平涼州街口,25.06092,121.51126,14,12,2,1,2025-06-01 04:37:29
2025-05-31T20:44+00:00,500103064,大同區,YouBike2.0_大同行政中心,25.06603,121.51481,16,11,5,1,2025-06-01 04:37:29
2025-05-31T20:44+00:00,500103065,大同區,YouBike2.0_大龍市場,25.07473,121.51451,15,13,2,1,2025-06-01 04:37:29
2025-05-31T20:44+00:00,500103066,大同區,YouBike2.0_南京西寧北路口(西北側),25.05348,121.50855,13,11,2,1,2025-06-01 04:37:29
2025-05-31T20:44+00:00,500103068,大同區,YouBike2.0_哈密街23巷19弄口,25.07563,121.51815,23,20,3,1,2025-06-01 04:37:29
2025-05-31T20:44+00:00,500103069,大同區,YouBike2.0_民權西路160巷口,25.06289,121.51544,15,7,8,1,2025-06-01 04:37:29
2025-05-31T20:44+00:00,500103070,大同區,YouBike2.0_重慶北路三段205巷口,25.06997,121.51388,19,14,5,1,2025-06-01 04:37:29
2025-05-31T20:44+00:00,500103073,大同區,YouBike2.0_民族西大龍街口,25.06864,121.51559,16,14,2,1,2025-06-01 04:37:29
2025-05-31T20:44+00:00,500103074,大同區,YouBike2.0_承德路三段324巷口,25.07477,121.51977,45,37,7,1,2025-06-01 04:37:29
2025-05-31T20:44+00:00,500103075,大同區,YouBike2.0_玉泉公園(鄭州路),25.05044,121.50766,20,11,9,1,2025-06-01 04:37:29
2025-05-31T20:44+00:00,500103078,大同區,YouBike2.0_明倫高中,25.07576,121.52011,32,9,23,1,2025-06-01 04:37:29
2025-05-31T20:44+00:00,500104001,士林區,YouBike2.0_劍潭抽水站,25.08128,121.51784,17,9,4,1,2025-06-01 04:37:29
2025-05-31T20:44+00:00,500104002,士林區,YouBike2.0_通河東街大南路口,25.08914,121.51542,15,10,3,1,2025-06-01 04:37:29
2025-05-31T20:44+00:00,500104003,士林區,YouBike2.0_福港街停車場,25.08695,121.51901,38,22,14,1,2025-06-01 04:37:29
2025-05-31T20:44+00:00,500104004,士林區,YouBike2.0_百齡國小,25.08521,121.51918,50,39,11,1,2025-06-01 04:37:29
2025-05-31T20:44+00:00,500104005,士林區,YouBike2.0_雨聲街165巷口,25.10277,121.53357,24,11,13,1,2025-06-01 04:37:29
2025-05-31T20:44+00:00,500104006,士林區,YouBike2.0_天和公園,25.12011,121.53357,16,7,6,1,2025-06-01 04:37:29
2025-05-31T20:44+00:00,500104007,士林區,YouBike2.0_中山天母路口,25.11856,121.52964,29,23,4,1,2025-06-01 04:37:29
2025-05-31T20:44+00:00,500104009,士林區,YouBike2.0_臺北市立大學(天母校區),25.11356,121.53718,48,32,16,1,2025-06-01 04:37:29
2025-05-31T20:44+00:00,500104012,士林區,YouBike2.0_天母棒球場,25.11341,121.53195,26,12,13,1,2025-06-01 04:37:29
2025-05-31T20:44+00:00,500104013,士林區,YouBike2.0_天母北天玉街口,25.12011,121.52652,15,15,0,1,2025-06-01 04:37:29
2025-05-31T20:44+00:00,500104015,士林區,YouBike2.0_明勝公園,25.08009,121.51895,14,12,2,1,2025-06-01 04:37:29
2025-05-31T20:44+00:00,500104019,士林區,YouBike2.0_雨農國小,25.1054,121.5295,21,17,4,1,2025-06-01 04:37:29
2025-05-31T20:44+00:00,500104020,士林區,YouBike2.0_忠誠公園,25.10399,121.52593,25,9,15,1,2025-06-01 04:37:29
2025-05-31T20:44+00:00,500104023,士林區,YouBike2.0_華齡公園,25.08302,121.52069,32,20,11,1,2025-06-01 04:37:29
2025-05-31T20:44+00:00,500104025,士林區,YouBike2.0_華齡街185巷口,25.08828,121.51985,12,4,6,1,2025-06-01 04:37:29
2025-05-31T20:44+00:00,500104026,士林區,YouBike2.0_前港公園(前港街),25.0848,121.52125,27,25,2,1,2025-06-01 04:37:29
2025-05-31T20:44+00:00,500104027,士林區,YouBike2.0_百齡高中,25.08736,121.52272,27,17,10,1,2025-06-01 04:37:29
2025-05-31T20:44+00:00,500104029,士林區,YouBike2.0_臺灣戲曲中心,25.10208,121.51979,25,8,15,1,2025-06-01 04:37:29
2025-05-31T20:44+00:00,500104030,士林區,YouBike2.0_捷運劍潭站(2號出口),25.08388,121.52535,49,25,24,1,2025-06-01 04:37:29
2025-05-31T20:44+00:00,500104031,士林區,YouBike2.0_劍潭基河路口,25.08403,121.5249,66,8,58,1,2025-06-01 04:37:29
2025-05-31T20:44+00:00,500104032,士林區,YouBike2.0_志成公園,25.09667,121.53206,23,0,23,0,2025-06-01 04:37:29
2025-05-31T20:44+00:00,500104033,士林區,YouBike2.0_福林國小,25.09896,121.53025,14,10,4,1,2025-06-01 04:37:29
2025-05-31T20:44+00:00,500104034,士林區,YouBike2.0_中山中正路口,25.09651,121.52753,19,6,13,1,2025-06-01 04:37:29
2025-05-31T20:44+00:00,500104035,士林區,YouBike2.0_士林運動中心,25.08911,121.52154,30,5,17,1,2025-06-01 04:37:29
2025-05-31T20:44+00:00,500104036,士林區,YouBike2.0_陽明高中,25.09164,121.51706,36,15,21,1,2025-06-01 04:37:29
2025-05-31T20:44+00:00,500104037,士林區,YouBike2.0_兒童新樂園,25.09631,121.51449,23,5,18,1,2025-06-01 04:37:29
2025-05-31T20:44+00:00,500104038,士林區,YouBike2.0_臺北市立天文館,25.09598,121.51776,50,8,42,1,2025-06-01 04:37:29
2025-05-31T20:44+00:00,500104039,士林區,YouBike2.0_華聲公園,25.09619,121.5223,35,28,6,1,2025-06-01 04:37:29
2025-05-31T20:44+00:00,500104040,士林區,YouBike2.0_福林公園,25.09419,121.52833,25,3,22,1,2025-06-01 04:37:29
2025-05-31T20:44+00:00,500104041,士林區,YouBike2.0_捷運士林站(2號出口),25.09343,121.52642,30,0,0,0,2025-06-01 04:37:29
2025-05-31T20:44+00:00,500104042,士林區,YouBike2.0_銘傳大學,25.08771,121.52677,26,25,1,1,2025-06-01 04:37:29
2025-05-31T20:44+00:00,500104043,士林區,YouBike2.0_士林高商,25.09435,121.51702,26,10,16,1,2025-06-01 04:37:29
2025-05-31T20:44+00:00,500104045,士林區,YouBike2.0_聯合醫院陽明院區,25.10455,121.53195,25,6,19,1,2025-06-01 04:37:29
2025-05-31T20:44+00:00,500104046,士林區,YouBike2.0_捷運芝山站(1號出口),25.10225,121.52286,35,3,32,1,2025-06-01 04:37:29
2025-05-31T20:44+00:00,500104047,士林區,YouBike2.0_至誠公園,25.10143,121.53585,20,11,9,1,2025-06-01 04:37:29
2025-05-31T20:44+00:00,500104048,士林區,YouBike2.0_原住民文化主題公園,25.10113,121.55159,21,12,8,1,2025-06-01 04:37:29
2025-05-31T20:44+00:00,500104049,士林區,YouBike2.0_通河東街2段10巷口,25.09106,121.51502,15,7,7,1,2025-06-01 04:37:29
2025-05-31T20:44+00:00,500104050,士林區,YouBike2.0_梅林新村,25.09755,121.54036,25,21,4,1,2025-06-01 04:37:29
2025-05-31T20:44+00:00,500104052,士林區,YouBike2.0_重慶北路四段190巷口,25.08505,121.51166,13,11,2,1,2025-06-01 04:37:29
2025-05-31T20:44+00:00,500104053,士林區,YouBike2.0_重慶北葫東街口,25.08393,121.51169,15,11,3,1,2025-06-01 04:37:29
2025-05-31T20:44+00:00,500104054,士林區,YouBike2.0_葫蘆國小,25.08254,121.5075,30,18,11,1,2025-06-01 04:37:29
2025-05-31T20:44+00:00,500104056,士林區,YouBike2.0_社正公園,25.08824,121.51054,15,12,3,1,2025-06-01 04:37:29
2025-05-31T20:44+00:00,500104057,士林區,YouBike2.0_社子國小,25.09058,121.50142,15,0,15,0,2025-06-01 04:37:29
2025-05-31T20:44+00:00,500104059,士林區,YouBike2.0_忠誠路一段138號,25.10641,121.52944,15,6,8,1,2025-06-01 04:37:29
2025-05-31T20:44+00:00,500104060,士林區,YouBike2.0_社子公園,25.0902,121.50622,31,26,5,1,2025-06-01 04:37:29
2025-05-31T20:44+00:00,500104061,士林區,YouBike2.0_國立故宮博物院,25.09833,121.54788,17,10,7,1,2025-06-01 04:37:29
2025-05-31T20:44+00:00,500104062,士林區,YouBike2.0_泰北高中,25.09763,121.53402,23,17,6,1,2025-06-01 04:37:29
2025-05-31T20:44+00:00,500104063,士林區,YouBike2.0_後港公園,25.09312,121.51419,15,5,10,1,2025-06-01 04:37:29
2025-05-31T20:44+00:00,500104064,士林區,YouBike2.0_重慶北路四段117號,25.08279,121.51219,24,8,13,1,2025-06-01 04:37:29
2025-05-31T20:44+00:00,500104065,士林區,YouBike2.0_社子島島頭公園,25.10893,121.46639,22,10,12,1,2025-06-01 04:37:29
2025-05-31T20:44+00:00,500104066,士林區,YouBike2.0_延平北路八段133巷口,25.10304,121.48297,22,14,8,1,2025-06-01 04:37:29
2025-05-31T20:44+00:00,500104067,士林區,YouBike2.0_坤天亭,25.1064,121.4836,14,2,12,1,2025-06-01 04:37:29
2025-05-31T20:44+00:00,500104068,士林區,YouBike2.0_社子島濕地解說小築,25.11314,121.48974,15,5,10,1,2025-06-01 04:37:29
2025-05-31T20:44+00:00,500104069,士林區,YouBike2.0_福安國中,25.10261,121.48819,25,8,17,1,2025-06-01 04:37:29
2025-05-31T20:44+00:00,500104071,士林區,YouBike2.0_聖山綠地,25.10696,121.53234,15,15,0,1,2025-06-01 04:37:29
2025-05-31T20:44+00:00,500104072,士林區,YouBike2.0_芝山國小,25.11044,121.53595,38,23,11,1,2025-06-01 04:37:29
2025-05-31T20:44+00:00,500104073,士林區,YouBike2.0_士林新天地,25.08899,121.51751,29,13,9,1,2025-06-01 04:37:29
2025-05-31T20:44+00:00,500104074,士林區,YouBike2.0_蘭雅國小,25.10775,121.52312,30,18,11,1,2025-06-01 04:37:29
2025-05-31T20:44+00:00,500104076,士林區,YouBike2.0_福林公園(中正路),25.09609,121.53006,45,9,36,1,2025-06-01 04:37:29
2025-05-31T20:44+00:00,500104079,士林區,YouBike2.0_東山路110巷口,25.11306,121.53945,16,11,4,1,2025-06-01 04:37:29
2025-05-31T20:44+00:00,500104080,士林區,YouBike2.0_永平社會住宅,25.08887,121.50314,15,7,8,1,2025-06-01 04:37:29
2025-05-31T20:44+00:00,500104082,士林區,YouBike2.0_通河街76巷/承德路四段10巷口,25.08019,121.5202,14,7,2,1,2025-06-01 04:37:29
2025-05-31T20:44+00:00,500104083,士林區,YouBike2.0_芝山聖佑宮,25.10455,121.53025,25,11,13,1,2025-06-01 04:37:29
2025-05-31T20:44+00:00,500104084,士林區,YouBike2.0_至誠雨聲街口,25.10199,121.52927,9,4,5,1,2025-06-01 04:37:29
2025-05-31T20:44+00:00,500104085,士林區,YouBike2.0_捷運線型公園(後街),25.09812,121.52449,28,16,2,1,2025-06-01 04:37:29
2025-05-31T20:44+00:00,500104086,士林區,YouBike2.0_天母公園,25.12408,121.53003,12,6,6,1,2025-06-01 04:37:29
2025-05-31T20:44+00:00,500104088,士林區,YouBike2.0_文林福華路口,25.10094,121.52243,19,8,10,1,2025-06-01 04:37:29
2025-05-31T20:44+00:00,500104089,士林區,YouBike2.0_劍潭海外青年活動中心_1,25.0796,121.5237,39,14,25,1,2025-06-01 04:37:29
2025-05-31T20:44+00:00,500104090,士林區,YouBike2.0_社子國小_1,25.09029,121.50189,50,18,31,1,2025-06-01 04:37:29
2025-05-31T20:44+00:00,500104092,士林區,YouBike2.0_德行東山路口,25.1107,121.53999,12,7,5,1,2025-06-01 04:37:29
2025-05-31T20:44+00:00,500104095,士林區,YouBike2.0_葫蘆國小(延平北路五段285巷),25.08406,121.5067,25,14,11,1,2025-06-01 04:37:29
2025-05-31T20:44+00:00,500104096,士林區,YouBike2.0_社子市場,25.0881,121.50873,15,4,8,1,2025-06-01 04:37:29
2025-05-31T20:44+00:00,500104097,士林區,YouBike2.0_士林區農會社子分部,25.08912,121.5049,8,5,3,1,2025-06-01 04:37:29
2025-05-31T20:44+00:00,500104098,士林區,YouBike2.0_承德劍潭路口,25.0841,121.52341,19,11,8,1,2025-06-01 04:37:29
2025-05-31T20:44+00:00,500104099,士林區,YouBike2.0_文林路101巷口,25.08761,121.52608,17,8,9,1,2025-06-01 04:37:29
2025-05-31T20:44+00:00,500104100,士林區,YouBike2.0_延平北路五段257巷15弄口,25.08408,121.50959,11,8,3,1,2025-06-01 04:37:29
2025-05-31T20:44+00:00,500104101,士林區,YouBike2.0_延平北路五段257巷4弄口,25.08471,121.5089,15,10,5,1,2025-06-01 04:37:29
2025-05-31T20:44+00:00,500104102,士林區,YouBike2.0_啟明學校,25.11742,121.53472,16,11,5,1,2025-06-01 04:37:29
2025-05-31T20:44+00:00,500104103,士林區,YouBike2.0_中山福國路口,25.10203,121.52561,14,7,7,1,2025-06-01 04:37:29
2025-05-31T20:44+00:00,500104104,士林區,YouBike2.0_德行公園,25.10585,121.52376,14,5,9,1,2025-06-01 04:37:29
2025-05-31T20:44+00:00,500104106,士林區,YouBike2.0_中山北路五段698巷口,25.09765,121.52757,15,5,9,1,2025-06-01 04:37:29
2025-05-31T20:44+00:00,500104107,士林區,YouBike2.0_捷運士林站(1號出口),25.09561,121.52552,38,12,26,1,2025-06-01 04:37:29
2025-05-31T20:44+00:00,500104108,士林區,YouBike2.0_捷運芝山站(2號出口)_1,25.10336,121.52263,62,9,52,1,2025-06-01 04:37:29
2025-05-31T20:44+00:00,500104110,士林區,YouBike2.0_海光公園南側,25.08036,121.5084,12,11,1,1,2025-06-01 04:37:29
2025-05-31T20:44+00:00,500104111,士林區,YouBike2.0_士商路40巷口,25.09013,121.52054,15,9,1,1,2025-06-01 04:37:29
2025-05-31T20:44+00:00,500104113,士林區,YouBike2.0_士東路91巷口,25.11247,121.52914,16,8,4,1,2025-06-01 04:37:29
2025-05-31T20:44+00:00,500104115,士林區,YouBike2.0_臺北市立大學(忠誠路二段207巷),25.11642,121.53743,17,8,9,1,2025-06-01 04:37:29
2025-05-31T20:44+00:00,500104117,士林區,YouBike2.0_美崙公園(東北側),25.09886,121.51835,25,7,18,1,2025-06-01 04:37:29
2025-05-31T20:44+00:00,500104118,士林區,YouBike2.0_福安河濱公園,25.09646,121.49358,14,7,7,1,2025-06-01 04:37:29
2025-05-31T20:44+00:00,500104119,士林區,YouBike2.0_忠誠忠義街口(北側),25.10566,121.52922,13,8,2,1,2025-06-01 04:37:29
2025-05-31T20:44+00:00,500104120,士林區,YouBike2.0_忠誠忠義街口(南側),25.10519,121.52869,14,8,5,1,2025-06-01 04:37:29
2025-05-31T20:44+00:00,500104121,士林區,YouBike2.0_士林國小,25.09204,121.52472,15,7,7,1,2025-06-01 04:37:29
2025-05-31T20:44+00:00,500104124,士林區,YouBike2.0_天和一號公園,25.11836,121.53466,15,10,5,1,2025-06-01 04:37:29
2025-05-31T20:44+00:00,500104125,士林區,YouBike2.0_忠誠路二段178巷口,25.11633,121.53295,15,5,10,1,2025-06-01 04:37:29
2025-05-31T20:44+00:00,500104126,士林區,YouBike2.0_克強磺溪街口,25.10893,121.52319,14,9,5,1,2025-06-01 04:37:29
2025-05-31T20:44+00:00,500104129,士林區,YouBike2.0_福林路100巷77弄口,25.09441,121.53285,18,12,6,1,2025-06-01 04:37:29
2025-05-31T20:44+00:00,500104132,士林區,YouBike2.0_承德區民活動中心,25.07892,121.52157,25,14,11,1,2025-06-01 04:37:29
2025-05-31T20:44+00:00,500104134,士林區,YouBike2.0_中山北路五段378巷口,25.09064,121.52765,27,20,7,1,2025-06-01 04:37:29
2025-05-31T20:44+00:00,500104135,士林區,YouBike2.0_中山北路六段405巷,25.11576,121.52693,21,12,9,1,2025-06-01 04:37:29
2025-05-31T20:44+00:00,500104136,士林區,YouBike2.0_圓山育樂中心,25.08248,121.52548,22,9,13,1,2025-06-01 04:37:29
2025-05-31T20:44+00:00,500104138,士林區,YouBike2.0_社子島抽水站,25.10844,121.49552,15,5,10,1,2025-06-01 04:37:29
2025-05-31T20:44+00:00,500104140,士林區,YouBike2.0_士林分局,25.09033,121.52687,24,10,14,1,2025-06-01 04:37:29
2025-05-31T20:44+00:00,500105001,文山區,YouBike2.0_台北花木批發市場,25.00402,121.54074,40,25,15,1,2025-06-01 04:37:29
2025-05-31T20:44+00:00,500105002,文山區,YouBike2.0_捷運萬隆站(4號出口),25.0027,121.53861,22,10,12,1,2025-06-01 04:37:29
2025-05-31T20:44+00:00,500105004,文山區,YouBike2.0_萬和二號公園,25.00154,121.5364,35,28,7,1,2025-06-01 04:37:29
2025-05-31T20:44+00:00,500105007,文山區,YouBike2.0_捷運景美站(2號出口),24.99366,121.54124,63,15,48,1,2025-06-01 04:37:29
2025-05-31T20:44+00:00,500105008,文山區,YouBike2.0_羅斯福景隆街口,24.99898,121.5403,50,18,31,1,2025-06-01 04:37:29
2025-05-31T20:44+00:00,500105009,文山區,YouBike2.0_景福街/羅斯福路6段142巷口,24.998336212959,121.53686287812,28,14,14,1,2025-06-01 04:37:29
2025-05-31T20:44+00:00,500105010,文山區,YouBike2.0_興旺公園,25.00587,121.55012,30,25,5,1,2025-06-01 04:37:29
2025-05-31T20:44+00:00,500105011,文山區,YouBike2.0_興福國中,25.00465,121.54916,25,16,9,1,2025-06-01 04:37:29
2025-05-31T20:44+00:00,500105012,文山區,YouBike2.0_興隆路2段203巷,25.00346,121.54709,32,26,6,1,2025-06-01 04:37:29
2025-05-31T20:44+00:00,500105013,文山區,YouBike2.0_景美運動公園,25.00219,121.54454,26,10,15,1,2025-06-01 04:37:29
2025-05-31T20:44+00:00,500105014,文山區,YouBike2.0_景美醫院,24.99136,121.54008,18,3,14,1,2025-06-01 04:37:29
2025-05-31T20:44+00:00,500105015,文山區,YouBike2.0_師範大學公館校區,25.00792,121.53731,14,6,7,1,2025-06-01 04:37:29
2025-05-31T20:44+00:00,500105017,文山區,YouBike2.0_仙跡岩登山口(景興路),24.99118,121.5436,22,3,19,1,2025-06-01 04:37:29
2025-05-31T20:44+00:00,500105018,文山區,YouBike2.0_國立政治大學,24.98737,121.57726,62,16,46,1,2025-06-01 04:37:29
2025-05-31T20:44+00:00,500105019,文山區,YouBike2.0_捷運動物園站,24.99873,121.57985,57,39,18,1,2025-06-01 04:37:29
2025-05-31T20:44+00:00,500105020,文山區,YouBike2.0_捷運木柵站,24.99798,121.57455,31,10,20,1,2025-06-01 04:37:29
2025-05-31T20:44+00:00,500105021,文山區,YouBike2.0_捷運萬芳社區站,24.99886,121.56769,48,16,31,1,2025-06-01 04:37:29
2025-05-31T20:44+00:00,500105022,文山區,YouBike2.0_文山運動中心,24.99676,121.5596,36,14,21,1,2025-06-01 04:37:29
2025-05-31T20:44+00:00,500105023,文山區,YouBike2.0_捷運辛亥站,25.00467,121.55684,42,6,36,1,2025-06-01 04:37:29
2025-05-31T20:44+00:00,500105024,文山區,YouBike2.0_興豐公園,24.99982,121.54761,25,7,17,1,2025-06-01 04:37:29
2025-05-31T20:44+00:00,500105025,文山區,YouBike2.0_木柵光輝路口,24.98816,121.55528,33,7,26,1,2025-06-01 04:37:29
2025-05-31T20:44+00:00,500105026,文山區,YouBike2.0_考試院,24.98747,121.54984,39,7,32,1,2025-06-01 04:37:29
2025-05-31T20:44+00:00,500105027,文山區,YouBike2.0_和興路26巷口,24.98573,121.54532,39,18,21,1,2025-06-01 04:37:29
2025-05-31T20:44+00:00,500105028,文山區,YouBike2.0_世新大學,24.98859,121.54336,30,19,11,1,2025-06-01 04:37:29
2025-05-31T20:44+00:00,500105029,文山區,YouBike2.0_一壽橋,24.97837,121.55548,28,21,7,1,2025-06-01 04:37:29
2025-05-31T20:44+00:00,500105030,文山區,YouBike2.0_臺北市立景美女中,24.98058,121.55624,25,8,17,1,2025-06-01 04:37:29
2025-05-31T20:44+00:00,500105032,文山區,YouBike2.0_忠順區民活動中心,24.98471,121.56332,31,21,10,1,2025-06-01 04:37:29
2025-05-31T20:44+00:00,500105033,文山區,YouBike2.0_景文中學,24.98574,121.56745,36,8,28,1,2025-06-01 04:37:29
2025-05-31T20:44+00:00,500105035,文山區,YouBike2.0_文山行政中心,24.98959,121.56959,27,16,11,1,2025-06-01 04:37:29
2025-05-31T20:44+00:00,500105038,文山區,YouBike2.0_木新路3段95巷口,24.98088,121.56313,24,13,9,1,2025-06-01 04:37:29
2025-05-31T20:44+00:00,500105039,文山區,YouBike2.0_樟腳里公園,24.98181,121.56567,15,8,5,1,2025-06-01 04:37:29
2025-05-31T20:44+00:00,500105040,文山區,YouBike2.0_實踐國中,24.98301,121.55404,13,10,3,1,2025-06-01 04:37:29
2025-05-31T20:44+00:00,500105041,文山區,YouBike2.0_指南路3段2巷,24.98537,121.57959,13,9,2,1,2025-06-01 04:37:29
2025-05-31T20:44+00:00,500105042,文山區,YouBike2.0_萊茵公園,24.98642,121.56514,21,3,18,1,2025-06-01 04:37:29
2025-05-31T20:44+00:00,500105043,文山區,YouBike2.0_木柵社會住宅,24.98935,121.56651,12,6,6,1,2025-06-01 04:37:29
2025-05-31T20:44+00:00,500105044,文山區,YouBike2.0_秀明路一段185巷口,24.99151,121.56836,20,16,4,1,2025-06-01 04:37:29
2025-05-31T20:44+00:00,500105045,文山區,YouBike2.0_秀明路一段129巷口,24.99111,121.56703,22,9,13,1,2025-06-01 04:37:29
2025-05-31T20:44+00:00,500105046,文山區,YouBike2.0_恆光橋(老泉街),24.97989,121.56753,13,10,3,1,2025-06-01 04:37:29
2025-05-31T20:44+00:00,500105047,文山區,YouBike2.0_萬有3號公園,24.99889,121.5433,14,12,1,1,2025-06-01 04:37:29
2025-05-31T20:44+00:00,500105048,文山區,YouBike2.0_捷運萬芳醫院站(興隆路三段115巷),24.99939,121.55848,20,4,16,1,2025-06-01 04:37:29
2025-05-31T20:44+00:00,500105049,文山區,YouBike2.0_興得閱覽室,24.99579,121.55498,24,0,24,0,2025-06-01 04:37:29
2025-05-31T20:44+00:00,500105051,文山區,YouBike2.0_博嘉運動公園,25.00079,121.57534,12,7,4,1,2025-06-01 04:37:29
2025-05-31T20:44+00:00,500105053,文山區,YouBike2.0_仙岩公園,24.99797,121.54982,20,12,8,1,2025-06-01 04:37:29
2025-05-31T20:44+00:00,500105054,文山區,YouBike2.0_政大一街口,24.98543,121.58006,14,5,9,1,2025-06-01 04:37:29
2025-05-31T20:44+00:00,500105055,文山區,YouBike2.0_文山第二行政中心,25.00115,121.55142,38,21,17,1,2025-06-01 04:37:29
2025-05-31T20:44+00:00,500105056,文山區,YouBike2.0_移民署訓練中心,24.99271,121.55865,13,9,4,1,2025-06-01 04:37:29
2025-05-31T20:44+00:00,500105057,文山區,YouBike2.0_海巡署(南側),24.99472,121.55949,10,3,7,1,2025-06-01 04:37:29
2025-05-31T20:44+00:00,500105058,文山區,YouBike2.0_明道國小東南側,24.98695,121.56456,28,10,18,1,2025-06-01 04:37:29
2025-05-31T20:44+00:00,500105059,文山區,YouBike2.0_木南公園,24.98662,121.57071,17,7,10,1,2025-06-01 04:37:29
2025-05-31T20:44+00:00,500105060,文山區,YouBike2.0_實踐國中(木新路三段310巷口),24.98339,121.55645,17,7,10,1,2025-06-01 04:37:29
2025-05-31T20:44+00:00,500105062,文山區,YouBike2.0_捷運動物園站(2號出口),24.99766,121.57875,39,0,39,0,2025-06-01 04:37:29
2025-05-31T20:44+00:00,500105063,文山區,YouBike2.0_政大水岸電梯,24.982,121.5717,10,6,4,1,2025-06-01 04:37:29
2025-05-31T20:44+00:00,500105066,文山區,YouBike2.0_景美污水抽水站,25.01076,121.53637,15,10,5,1,2025-06-01 04:37:29
2025-05-31T20:44+00:00,500105067,文山區,YouBike2.0_萬和三號公園(北側),25.00345,121.53636,13,6,7,1,2025-06-01 04:37:29
2025-05-31T20:44+00:00,500105069,文山區,YouBike2.0_景仁公園_1,24.9966,121.5403,30,20,10,1,2025-06-01 04:37:29
2025-05-31T20:44+00:00,500105070,文山區,YouBike2.0_師大公館校區學二舍,25.00825,121.53419,40,38,1,1,2025-06-01 04:37:29
2025-05-31T20:44+00:00,500105071,文山區,YouBike2.0_景行公園,24.99279,121.54255,15,2,13,1,2025-06-01 04:37:29
2025-05-31T20:44+00:00,500105072,文山區,YouBike2.0_萬興國小,24.98939,121.57682,25,6,19,1,2025-06-01 04:37:29
2025-05-31T20:44+00:00,500105073,文山區,YouBike2.0_辛亥路四段77巷口,25.00743,121.55877,14,10,4,1,2025-06-01 04:37:29
2025-05-31T20:44+00:00,500105075,文山區,YouBike2.0_木柵路三段48巷,24.98768,121.56565,15,4,10,1,2025-06-01 04:37:29
2025-05-31T20:44+00:00,500105076,文山區,YouBike2.0_木柵路二段109巷,24.98944,121.56195,15,7,8,1,2025-06-01 04:37:29
2025-05-31T20:44+00:00,500105079,文山區,YouBike2.0_樟樹公園,24.9825,121.55949,15,9,6,1,2025-06-01 04:37:29
2025-05-31T20:44+00:00,500105080,文山區,YouBike2.0_萬美萬安街口,25.00223,121.57039,25,11,14,1,2025-06-01 04:37:29
2025-05-31T20:44+00:00,500105081,文山區,YouBike2.0_興隆路二段203巷(敦南),25.00198,121.54856,27,18,9,1,2025-06-01 04:37:29
2025-05-31T20:44+00:00,500105084,文山區,YouBike2.0_光輝公園,24.98655,121.5552,27,14,11,1,2025-06-01 04:37:29
2025-05-31T20:44+00:00,500105085,文山區,YouBike2.0_木新公園,24.98217,121.55782,12,4,8,1,2025-06-01 04:37:29
2025-05-31T20:44+00:00,500105086,文山區,YouBike2.0_興隆路二段275巷1弄口,25.00268,121.55277,16,9,7,1,2025-06-01 04:37:29
2025-05-31T20:44+00:00,500105087,文山區,YouBike2.0_中國科技大學,24.99925,121.55553,21,10,10,1,2025-06-01 04:37:29
2025-05-31T20:44+00:00,500105088,文山區,YouBike2.0_樟新街8巷,24.97932,121.55406,17,10,7,1,2025-06-01 04:37:29
2025-05-31T20:44+00:00,500105089,文山區,YouBike2.0_仙岩路22巷口,24.99892,121.54887,28,23,3,1,2025-06-01 04:37:29
2025-05-31T20:44+00:00,500105090,文山區,YouBike2.0_木柵萬芳路口,24.99509,121.57199,29,8,21,1,2025-06-01 04:37:29
2025-05-31T20:44+00:00,500105091,文山區,YouBike2.0_福興路78巷,25.00437,121.55048,14,11,2,1,2025-06-01 04:37:29
2025-05-31T20:44+00:00,500105092,文山區,YouBike2.0_辛亥木柵路口,24.98839,121.55238,20,10,8,1,2025-06-01 04:37:29
2025-05-31T20:44+00:00,500105093,文山區,YouBike2.0_興泰公園,25.00492,121.55582,12,7,5,1,2025-06-01 04:37:29
2025-05-31T20:44+00:00,500105095,文山區,YouBike2.0_興隆路二段22巷9弄口,24.99746,121.54543,13,0,13,0,2025-06-01 04:37:29
2025-05-31T20:44+00:00,500105097,文山區,YouBike2.0_景興路102巷口,24.99438,121.54376,14,6,8,1,2025-06-01 04:37:29
2025-05-31T20:44+00:00,500105098,文山區,YouBike2.0_景福街223巷,24.99442,121.53844,18,13,5,1,2025-06-01 04:37:29
2025-05-31T20:44+00:00,500105101,文山區,YouBike2.0_捷運木柵站(西側),24.9983,121.57279,26,6,20,1,2025-06-01 04:37:29
2025-05-31T20:44+00:00,500105102,文山區,YouBike2.0_世新大學(試院路),24.98981,121.54783,16,8,6,1,2025-06-01 04:37:29
2025-05-31T20:44+00:00,500105103,文山區,YouBike2.0_興隆社會住宅D1區,24.98783,121.55831,31,10,21,1,2025-06-01 04:37:29
2025-05-31T20:44+00:00,500105106,文山區,YouBike2.0_政大國際會館,24.98994,121.57513,20,15,5,1,2025-06-01 04:37:29
2025-05-31T20:44+00:00,500105108,文山區,YouBike2.0_景美國小,24.9893,121.53976,25,14,11,1,2025-06-01 04:37:29
2025-05-31T20:44+00:00,500105109,文山區,YouBike2.0_景文街142巷口,24.98826,121.54065,16,6,10,1,2025-06-01 04:37:29
2025-05-31T20:44+00:00,500105111,文山區,YouBike2.0_和興水岸社會住宅,24.98505,121.54953,29,15,12,1,2025-06-01 04:37:29
2025-05-31T20:44+00:00,500105112,文山區,YouBike2.0_萬芳路107巷口,24.99715,121.56179,20,4,16,1,2025-06-01 04:37:29
2025-05-31T20:44+00:00,500105113,文山區,YouBike2.0_考選部國家考場,24.98703,121.54884,26,8,18,1,2025-06-01 04:37:29
2025-05-31T20:44+00:00,500105114,文山區,YouBike2.0_明道國小(明道國宅),24.98686,121.56301,26,7,19,1,2025-06-01 04:37:29
2025-05-31T20:44+00:00,500106002,中正區,YouBike2.0_汀州思源街口東南側,25.014697,121.531908,20,7,13,1,2025-06-01 04:37:29
2025-05-31T20:44+00:00,500106003,中正區,YouBike2.0_捷運公館站(1號出口),25.014529,121.534374,12,2,10,1,2025-06-01 04:37:29
2025-05-31T20:44+00:00,500106004,中正區,YouBike2.0_捷運公館站(4號出口),25.015069,121.533828,12,2,10,1,2025-06-01 04:37:29
2025-05-31T20:44+00:00,500106007,中正區,YouBike2.0_捷運臺電大樓站(1號出口),25.0197,121.529,34,4,30,1,2025-06-01 04:37:29
2025-05-31T20:44+00:00,500106008,中正區,YouBike2.0_客家文化主題公園,25.02069,121.52456,31,8,23,1,2025-06-01 04:37:29
2025-05-31T20:44+00:00,500106010,中正區,YouBike2.0_紀州庵,25.02092,121.52049,45,38,7,1,2025-06-01 04:37:29
2025-05-31T20:44+00:00,500106011,中正區,YouBike2.0_捷運臺電大樓站(5號出口),25.02075,121.52771,21,19,2,1,2025-06-01 04:37:29
2025-05-31T20:44+00:00,500106012,中正區,YouBike2.0_捷運臺電大樓站(4號出口),25.02102,121.52751,13,8,5,1,2025-06-01 04:37:29
2025-05-31T20:44+00:00,500106013,中正區,YouBike2.0_羅斯福三段金門街口,25.02345,121.52498,15,14,1,1,2025-06-01 04:37:29
2025-05-31T20:44+00:00,500106014,中正區,YouBike2.0_牯嶺公園,25.02338,121.51889,58,49,1,1,2025-06-01 04:37:29
2025-05-31T20:44+00:00,500106015,中正區,YouBike2.0_捷運古亭站(8號出口),25.02701,121.52164,15,5,10,1,2025-06-01 04:37:29
2025-05-31T20:44+00:00,500106017,中正區,YouBike2.0_南昌公園,25.02698,121.52081,55,8,47,1,2025-06-01 04:37:29
2025-05-31T20:44+00:00,500106021,中正區,YouBike2.0_金華杭州南路口,25.031,121.52211,35,9,26,1,2025-06-01 04:37:29
2025-05-31T20:44+00:00,500106022,中正區,YouBike2.0_捷運中正紀念堂站(3號出口),25.03239,121.51866,36,3,31,1,2025-06-01 04:37:29
2025-05-31T20:44+00:00,500106026,中正區,YouBike2.0_古亭智慧圖書館,25.02543,121.51052,21,11,9,1,2025-06-01 04:37:29
2025-05-31T20:44+00:00,500106029,中正區,YouBike2.0_南機場夜市(中華路二段),25.02886,121.50518,41,26,14,1,2025-06-01 04:37:29
2025-05-31T20:44+00:00,500106030,中正區,YouBike2.0_南海和平路口西南側,25.03024,121.50904,19,9,10,1,2025-06-01 04:37:29
2025-05-31T20:44+00:00,500106031,中正區,YouBike2.0_莒光和平路口,25.03132,121.50745,20,13,6,1,2025-06-01 04:37:29
2025-05-31T20:44+00:00,500106040,中正區,YouBike2.0_介壽公園,25.03907,121.5138,35,9,26,1,2025-06-01 04:37:29
2025-05-31T20:44+00:00,500106042,中正區,YouBike2.0_華山文創園區,25.04367,121.52849,39,4,35,1,2025-06-01 04:37:29
2025-05-31T20:44+00:00,500106043,中正區,YouBike2.0_捷運善導寺站(1號出口),25.04527,121.5222,46,8,38,1,2025-06-01 04:37:29
2025-05-31T20:44+00:00,500106047,中正區,YouBike2.0_中正運動中心,25.03786,121.51985,40,5,33,1,2025-06-01 04:37:29
2025-05-31T20:44+00:00,500106048,中正區,YouBike2.0_信義杭州路口,25.0357,121.5241,59,28,30,1,2025-06-01 04:37:29
2025-05-31T20:44+00:00,500106050,中正區,YouBike2.0_捷運小南門站(1號出口),25.03648,121.50951,46,34,12,1,2025-06-01 04:37:29
2025-05-31T20:44+00:00,500106052,中正區,YouBike2.0_捷運西門站(2號出口),25.0416,121.50842,36,8,26,1,2025-06-01 04:37:29
2025-05-31T20:44+00:00,500106053,中正區,YouBike2.0_寶慶博愛路口,25.04129,121.5112,47,24,22,1,2025-06-01 04:37:29
2025-05-31T20:44+00:00,500106056,中正區,YouBike2.0_國家圖書館,25.03763,121.51709,36,28,8,1,2025-06-01 04:37:29
2025-05-31T20:44+00:00,500106059,中正區,YouBike2.0_中山堂,25.04412,121.51025,43,16,27,1,2025-06-01 04:37:29
2025-05-31T20:44+00:00,500106060,中正區,YouBike2.0_中華漢口街口,25.04533,121.50944,19,0,19,1,2025-06-01 04:37:29
2025-05-31T20:44+00:00,500106061,中正區,YouBike2.0_中華路一段21巷口,25.04677,121.50989,22,5,17,1,2025-06-01 04:37:29
2025-05-31T20:44+00:00,500106062,中正區,YouBike2.0_捷運臺大醫院站(4號出口),25.04297,121.51643,60,13,45,1,2025-06-01 04:37:29
2025-05-31T20:44+00:00,500106063,中正區,YouBike2.0_寶藏巖觀音亭,25.01027,121.5331,23,10,13,1,2025-06-01 04:37:29
2025-05-31T20:44+00:00,500106064,中正區,YouBike2.0_師大水源路口,25.0203,121.52302,28,25,1,1,2025-06-01 04:37:29
2025-05-31T20:44+00:00,500106065,中正區,YouBike2.0_中山徐州路口,25.04178,121.51907,41,3,36,1,2025-06-01 04:37:29
2025-05-31T20:44+00:00,500106066,中正區,YouBike2.0_信義連雲街口,25.03377,121.53041,39,23,16,1,2025-06-01 04:37:29
2025-05-31T20:44+00:00,500106067,中正區,YouBike2.0_臺北轉運站,25.04842,121.51994,68,43,24,1,2025-06-01 04:37:29
2025-05-31T20:44+00:00,500106069,中正區,YouBike2.0_捷運忠孝新生站(2號出口),25.04235,121.53222,32,17,15,1,2025-06-01 04:37:29
2025-05-31T20:44+00:00,500106070,中正區,YouBike2.0_光華商場,25.04478,121.53274,39,10,29,1,2025-06-01 04:37:29
2025-05-31T20:44+00:00,500106072,中正區,YouBike2.0_捷運中正紀念堂站(5號出口),25.03526,121.5168,29,0,29,1,2025-06-01 04:37:29
2025-05-31T20:44+00:00,500106074,中正區,YouBike2.0_王貫英先生紀念圖書館,25.02266,121.52362,15,10,4,1,2025-06-01 04:37:29
2025-05-31T20:44+00:00,500106075,中正區,YouBike2.0_金山信義路口,25.03443,121.52721,25,24,0,1,2025-06-01 04:37:29
2025-05-31T20:44+00:00,500106077,中正區,YouBike2.0_林森徐州路口,25.04094,121.52215,32,16,16,1,2025-06-01 04:37:29
2025-05-31T20:44+00:00,500106078,中正區,YouBike2.0_徐州杭州路口,25.04023,121.52565,30,19,10,1,2025-06-01 04:37:29
2025-05-31T20:44+00:00,500106080,中正區,YouBike2.0_捷運臺北車站(M2出口),25.04821,121.51903,20,8,11,1,2025-06-01 04:37:29
2025-05-31T20:44+00:00,500106083,中正區,YouBike2.0_臺北市國父史蹟館(逸仙公園),25.04779,121.52042,31,3,27,1,2025-06-01 04:37:29
2025-05-31T20:44+00:00,500106084,中正區,YouBike2.0_捷運西門站(5號出口),25.04244,121.50864,30,2,28,1,2025-06-01 04:37:29
2025-05-31T20:44+00:00,500106085,中正區,YouBike2.0_弘道國中,25.03828,121.51524,33,23,9,1,2025-06-01 04:37:29
2025-05-31T20:44+00:00,500106088,中正區,YouBike2.0_紹興徐州路口,25.04051,121.52401,18,18,0,1,2025-06-01 04:37:29
2025-05-31T20:44+00:00,500106089,中正區,YouBike2.0_羅斯福寧波東街口,25.03145,121.51941,26,9,17,1,2025-06-01 04:37:29
2025-05-31T20:44+00:00,500106090,中正區,YouBike2.0_自來水園區,25.01328,121.53004,40,21,18,1,2025-06-01 04:37:29
2025-05-31T20:44+00:00,500106091,中正區,YouBike2.0_仁愛林森路口,25.03895,121.52233,31,6,25,1,2025-06-01 04:37:29
2025-05-31T20:44+00:00,500106092,中正區,YouBike2.0_捷運西門站(3號出口),25.04178,121.50869,36,15,19,1,2025-06-01 04:37:29
2025-05-31T20:44+00:00,500106095,中正區,YouBike2.0_仁愛杭州路口,25.03846,121.52497,25,22,3,1,2025-06-01 04:37:29
2025-05-31T20:44+00:00,500106096,中正區,YouBike2.0_龍興里活動中心,25.02815,121.51108,21,12,7,1,2025-06-01 04:37:29
2025-05-31T20:44+00:00,500106100,中正區,YouBike2.0_北平紹興路口,25.04597,121.52579,39,6,33,1,2025-06-01 04:37:29
2025-05-31T20:44+00:00,500106101,中正區,YouBike2.0_天津北平路口,25.04692,121.52208,25,6,19,1,2025-06-01 04:37:29
2025-05-31T20:44+00:00,500106103,中正區,YouBike2.0_捷運忠孝新生站(5號出口),25.04113,121.53273,13,8,5,1,2025-06-01 04:37:29
2025-05-31T20:44+00:00,500106105,中正區,YouBike2.0_臺大醫院兒童醫院,25.04461,121.5188,22,6,12,1,2025-06-01 04:37:29
2025-05-31T20:44+00:00,500106106,中正區,YouBike2.0_林森濟南路口(東北側),25.0425,121.5227,26,8,16,1,2025-06-01 04:37:29
2025-05-31T20:44+00:00,500106108,中正區,YouBike2.0_中華南海路口,25.02703,121.50686,15,9,6,1,2025-06-01 04:37:29
2025-05-31T20:44+00:00,500106109,中正區,YouBike2.0_立法院台北會館,25.03371,121.51068,15,8,5,1,2025-06-01 04:37:29
2025-05-31T20:44+00:00,500106111,中正區,YouBike2.0_國家音樂廳,25.03788,121.51904,22,3,19,1,2025-06-01 04:37:29
2025-05-31T20:44+00:00,500106112,中正區,YouBike2.0_忠孝西重慶南路口,25.04724,121.51272,33,2,30,1,2025-06-01 04:37:29
2025-05-31T20:44+00:00,500106113,中正區,YouBike2.0_濟南路二段8巷口,25.04127,121.52697,14,13,1,1,2025-06-01 04:37:29
2025-05-31T20:44+00:00,500106115,中正區,YouBike2.0_臺灣文學基地,25.04148,121.5287,23,18,4,1,2025-06-01 04:37:29
2025-05-31T20:44+00:00,500106116,中正區,YouBike2.0_重慶南詔安街口,25.02507,121.51645,19,16,1,1,2025-06-01 04:37:29
2025-05-31T20:44+00:00,500106119,中正區,YouBike2.0_螢圃里小公園,25.02484,121.51973,25,16,7,1,2025-06-01 04:37:29
2025-05-31T20:44+00:00,500106120,中正區,YouBike2.0_螢橋公園,25.02682,121.51737,29,26,1,1,2025-06-01 04:37:29
2025-05-31T20:44+00:00,500106121,中正區,YouBike2.0_泉州寧波西街口,25.02965,121.51415,49,39,10,1,2025-06-01 04:37:29
2025-05-31T20:44+00:00,500106123,中正區,YouBike2.0_仁愛新生路口(西南側),25.03796,121.53261,18,11,5,1,2025-06-01 04:37:29
2025-05-31T20:44+00:00,500106124,中正區,YouBike2.0_幸安市場,25.04032,121.53141,15,14,1,1,2025-06-01 04:37:29
2025-05-31T20:44+00:00,500106126,中正區,YouBike2.0_捷運善導寺站(5號出口),25.04418,121.52552,31,12,19,1,2025-06-01 04:37:29
2025-05-31T20:44+00:00,500106127,中正區,YouBike2.0_青島杭州路口,25.04281,121.52629,17,7,10,1,2025-06-01 04:37:29
2025-05-31T20:44+00:00,500106128,中正區,YouBike2.0_詔安街37巷口,25.02542,121.51233,28,16,11,1,2025-06-01 04:37:29
2025-05-31T20:44+00:00,500106129,中正區,YouBike2.0_南海路112巷口,25.02757,121.50771,31,14,14,1,2025-06-01 04:37:29
2025-05-31T20:44+00:00,500106130,中正區,YouBike2.0_牯嶺街95巷,25.0255,121.52067,16,8,4,1,2025-06-01 04:37:29
2025-05-31T20:44+00:00,500106131,中正區,YouBike2.0_仁愛紹興路口(北側),25.03862,121.52385,23,11,12,1,2025-06-01 04:37:29
2025-05-31T20:44+00:00,500106132,中正區,YouBike2.0_貴陽博愛路口,25.03896,121.51093,69,4,65,1,2025-06-01 04:37:29
2025-05-31T20:44+00:00,500106133,中正區,YouBike2.0_國立臺灣博物館南門館,25.03351,121.5156,21,6,15,1,2025-06-01 04:37:29
2025-05-31T20:44+00:00,500106134,中正區,YouBike2.0_汀州路一段106巷口,25.03008,121.50768,21,11,8,1,2025-06-01 04:37:29
2025-05-31T20:44+00:00,500106135,中正區,YouBike2.0_羅斯福路四段108巷口,25.01346,121.5355,20,1,19,1,2025-06-01 04:37:29
2025-05-31T20:44+00:00,500106136,中正區,YouBike2.0_公館水岸廣場,25.01193,121.52861,27,0,25,1,2025-06-01 04:37:29
2025-05-31T20:44+00:00,500106138,中正區,YouBike2.0_臨沂街停車場,25.0426,121.53006,33,14,18,1,2025-06-01 04:37:29
2025-05-31T20:44+00:00,500106141,中正區,YouBike2.0_愛國東路116巷口,25.03276,121.52135,25,9,16,1,2025-06-01 04:37:29
2025-05-31T20:44+00:00,500106142,中正區,YouBike2.0_愛國東羅斯福路口,25.03454,121.51733,24,0,24,1,2025-06-01 04:37:29
2025-05-31T20:44+00:00,500107001,中山區,YouBike2.0_通北街65巷口,25.08251,121.54004,16,10,6,1,2025-06-01 04:37:29
2025-05-31T20:44+00:00,500107002,中山區,YouBike2.0_圓山風景區,25.07805,121.5295,15,7,8,1,2025-06-01 04:37:29
2025-05-31T20:44+00:00,500107004,中山區,YouBike2.0_劍潭社區,25.08524,121.53748,13,9,4,1,2025-06-01 04:37:29
2025-05-31T20:44+00:00,500107006,中山區,YouBike2.0_樂群二明水路口,25.08009,121.55226,20,10,9,1,2025-06-01 04:37:29
2025-05-31T20:44+00:00,500107007,中山區,YouBike2.0_北安大直街口,25.08474,121.54968,31,15,15,1,2025-06-01 04:37:29
2025-05-31T20:44+00:00,500107008,中山區,YouBike2.0_捷運劍南路站(2號出口),25.084751813542,121.555090270105,40,10,29,1,2025-06-01 04:37:29
2025-05-31T20:44+00:00,500107009,中山區,YouBike2.0_樂群二敬業三路口,25.07985,121.55609,20,13,6,1,2025-06-01 04:37:29
2025-05-31T20:44+00:00,500107011,中山區,YouBike2.0_捷運大直站(3號出口),25.07923,121.5473,34,29,4,1,2025-06-01 04:37:29
2025-05-31T20:44+00:00,500107012,中山區,YouBike2.0_復興市民路口,25.04585,121.54375,52,32,19,1,2025-06-01 04:37:29
2025-05-31T20:44+00:00,500107013,中山區,YouBike2.0_南京遼寧街口,25.05176,121.54217,42,21,19,1,2025-06-01 04:37:29
2025-05-31T20:44+00:00,500107014,中山區,YouBike2.0_伊通長安路口,25.04833,121.53469,21,15,4,1,2025-06-01 04:37:29
2025-05-31T20:44+00:00,500107017,中山區,YouBike2.0_南京新生路口,25.05194,121.52766,34,31,2,1,2025-06-01 04:37:29
2025-05-31T20:44+00:00,500107018,中山區,YouBike2.0_一江公園,25.05316,121.53146,37,31,6,1,2025-06-01 04:37:29
2025-05-31T20:44+00:00,500107019,中山區,YouBike2.0_松江公園,25.05025,121.53273,37,0,0,0,2025-06-01 04:37:29
2025-05-31T20:44+00:00,500107021,中山區,YouBike2.0_第二果菜批發市場,25.06642,121.53735,40,26,14,1,2025-06-01 04:37:29
2025-05-31T20:44+00:00,500107022,中山區,YouBike2.0_民生建國路口,25.05778,121.53692,47,25,22,1,2025-06-01 04:37:29
2025-05-31T20:44+00:00,500107023,中山區,YouBike2.0_興安華城,25.05606,121.54175,62,44,15,1,2025-06-01 04:37:29
2025-05-31T20:44+00:00,500107025,中山區,YouBike2.0_龍江錦州街口,25.06045,121.54077,16,16,0,1,2025-06-01 04:37:29
2025-05-31T20:44+00:00,500107026,中山區,YouBike2.0_建國長春路口,25.05469,121.53686,16,10,6,1,2025-06-01 04:37:29
2025-05-31T20:44+00:00,500107027,中山區,YouBike2.0_南京建國路口,25.05214,121.5368,42,13,29,1,2025-06-01 04:37:29
2025-05-31T20:44+00:00,500107028,中山區,YouBike2.0_捷運松江南京站(7號出口),25.05246,121.5332,75,24,51,1,2025-06-01 04:37:29
2025-05-31T20:44+00:00,500107029,中山區,YouBike2.0_朱崙商場,25.04762,121.54043,37,26,10,1,2025-06-01 04:37:29
2025-05-31T20:44+00:00,500107030,中山區,YouBike2.0_中吉公園,25.05604,121.53166,30,16,13,1,2025-06-01 04:37:29
2025-05-31T20:44+00:00,500107031,中山區,YouBike2.0_華山公園,25.0471,121.5277,19,11,5,1,2025-06-01 04:37:29
2025-05-31T20:44+00:00,500107032,中山區,YouBike2.0_建國北路一段17巷,25.04699,121.53735,45,43,2,1,2025-06-01 04:37:29
2025-05-31T20:44+00:00,500107033,中山區,YouBike2.0_江寧公園,25.0614,121.53929,15,12,3,1,2025-06-01 04:37:29
2025-05-31T20:44+00:00,500107035,中山區,YouBike2.0_捷運中山國小站(2號出口),25.06246,121.52705,59,39,20,1,2025-06-01 04:37:29
2025-05-31T20:44+00:00,500107036,中山區,YouBike2.0_捷運行天宮站(3號出口),25.05992,121.5333,48,1,46,1,2025-06-01 04:37:29
2025-05-31T20:44+00:00,500107038,中山區,YouBike2.0_捷運中山國小站(4號出口),25.06283,121.52697,20,9,10,1,2025-06-01 04:37:29
2025-05-31T20:44+00:00,500107039,中山區,YouBike2.0_農安雙城街口,25.06491,121.52449,15,8,6,1,2025-06-01 04:37:29
2025-05-31T20:44+00:00,500107040,中山區,YouBike2.0_新生德惠街口,25.06652,121.52762,35,18,17,1,2025-06-01 04:37:29
2025-05-31T20:44+00:00,500107041,中山區,YouBike2.0_民族林森路口,25.06847,121.52559,37,21,15,1,2025-06-01 04:37:29
2025-05-31T20:44+00:00,500107042,中山區,YouBike2.0_臺北市立美術館,25.06987,121.52291,24,1,22,1,2025-06-01 04:37:29
2025-05-31T20:44+00:00,500107044,中山區,YouBike2.0_新生高架停車場(林森北路107巷口),25.04983,121.52853,14,9,5,1,2025-06-01 04:37:29
2025-05-31T20:44+00:00,500107045,中山區,YouBike2.0_南京林森路口(東南側),25.05201,121.52556,10,9,1,1,2025-06-01 04:37:29
2025-05-31T20:44+00:00,500107047,中山區,YouBike2.0_中原公園,25.05583,121.52821,15,8,5,1,2025-06-01 04:37:29
2025-05-31T20:44+00:00,500107048,中山區,YouBike2.0_下埤公園,25.06682,121.54213,24,13,10,1,2025-06-01 04:37:29
2025-05-31T20:44+00:00,500107049,中山區,YouBike2.0_五常國中,25.06505,121.54366,16,6,10,1,2025-06-01 04:37:29
2025-05-31T20:44+00:00,500107050,中山區,YouBike2.0_榮星花園,25.06424,121.54037,46,32,8,1,2025-06-01 04:37:29
2025-05-31T20:44+00:00,500107052,中山區,YouBike2.0_松江路431巷口,25.06585,121.53338,15,11,4,1,2025-06-01 04:37:29
2025-05-31T20:44+00:00,500107053,中山區,YouBike2.0_新喜公園,25.06533,121.53177,13,10,1,1,2025-06-01 04:37:29
2025-05-31T20:44+00:00,500107054,中山區,YouBike2.0_吉林路407巷口,25.06595,121.53041,15,12,0,1,2025-06-01 04:37:29
2025-05-31T20:44+00:00,500107055,中山區,YouBike2.0_民族松江路口,25.06833,121.5328,17,3,10,1,2025-06-01 04:37:29
2025-05-31T20:44+00:00,500107056,中山區,YouBike2.0_林安泰古厝,25.07154,121.53058,36,17,19,1,2025-06-01 04:37:29
2025-05-31T20:44+00:00,500107057,中山區,YouBike2.0_中山公民會館,25.06185,121.5226,20,0,0,0,2025-06-01 04:37:29
2025-05-31T20:44+00:00,500107059,中山區,YouBike2.0_捷運中山站(2號出口),25.05228,121.52176,33,4,29,1,2025-06-01 04:37:29
2025-05-31T20:44+00:00,500107060,中山區,YouBike2.0_撫順公園,25.06416,121.52203,30,3,26,1,2025-06-01 04:37:29
2025-05-31T20:44+00:00,500107061,中山區,YouBike2.0_新生公園,25.06839,121.53032,29,10,18,1,2025-06-01 04:37:29
2025-05-31T20:44+00:00,500107062,中山區,YouBike2.0_捷運行天宮站(1號出口),25.05867,121.53305,49,33,16,1,2025-06-01 04:37:29
2025-05-31T20:44+00:00,500107063,中山區,YouBike2.0_林森長春路口,25.05497,121.52536,28,6,22,1,2025-06-01 04:37:29
2025-05-31T20:44+00:00,500107065,中山區,YouBike2.0_松江路77巷口,25.04985,121.53312,10,1,9,1,2025-06-01 04:37:29
2025-05-31T20:44+00:00,500107067,中山區,YouBike2.0_市民新生路口,25.04611,121.53193,15,5,10,1,2025-06-01 04:37:29
2025-05-31T20:44+00:00,500107068,中山區,YouBike2.0_民權吉林路口,25.06269,121.53061,15,14,1,1,2025-06-01 04:37:29
2025-05-31T20:44+00:00,500107069,中山區,YouBike2.0_中山農安街口,25.0651,121.5224,29,0,29,1,2025-06-01 04:37:29
2025-05-31T20:44+00:00,500107070,中山區,YouBike2.0_捷運行政大樓,25.05575,121.52168,14,8,6,1,2025-06-01 04:37:29
2025-05-31T20:44+00:00,500107071,中山區,YouBike2.0_中吉公園(松江路188巷),25.0568,121.53191,22,17,5,1,2025-06-01 04:37:29
2025-05-31T20:44+00:00,500107075,中山區,YouBike2.0_國立臺北大學(臺北校區),25.05794,121.54244,38,13,25,1,2025-06-01 04:37:29
2025-05-31T20:44+00:00,500107076,中山區,YouBike2.0_錦州吉林路口,25.06028,121.52991,30,21,9,1,2025-06-01 04:37:29
2025-05-31T20:44+00:00,500107078,中山區,YouBike2.0_永盛公園(民生東路一段23巷),25.05873,121.52488,24,19,5,1,2025-06-01 04:37:29
2025-05-31T20:44+00:00,500107080,中山區,YouBike2.0_濱江街199巷口,25.0734,121.53985,15,14,0,1,2025-06-01 04:37:29
2025-05-31T20:44+00:00,500107081,中山區,YouBike2.0_大佳社區公園,25.07275,121.5373,15,8,5,1,2025-06-01 04:37:29
2025-05-31T20:44+00:00,500107082,中山區,YouBike2.0_濱江果菜市場,25.06807,121.53673,22,6,15,1,2025-06-01 04:37:29
2025-05-31T20:44+00:00,500107083,中山區,YouBike2.0_興安合江路口,25.05619,121.53949,29,22,6,1,2025-06-01 04:37:29
2025-05-31T20:44+00:00,500107084,中山區,YouBike2.0_復興北路514巷口東側,25.06597,121.54117,12,9,1,1,2025-06-01 04:37:29
2025-05-31T20:44+00:00,500107087,中山區,YouBike2.0_新興公園,25.06157,121.52439,26,16,6,1,2025-06-01 04:37:29
2025-05-31T20:44+00:00,500107088,中山區,YouBike2.0_南京伊通街口,25.05189,121.53517,11,2,9,1,2025-06-01 04:37:29
2025-05-31T20:44+00:00,500107090,中山區,YouBike2.0_撫順街41巷(崇德宮前),25.06389,121.51916,19,14,4,1,2025-06-01 04:37:29
2025-05-31T20:44+00:00,500107092,中山區,YouBike2.0_捷運大直站(1號出口),25.0801,121.54708,27,9,17,1,2025-06-01 04:37:29
2025-05-31T20:44+00:00,500107093,中山區,YouBike2.0_捷運松江南京站(4號出口),25.0512,121.53312,32,17,15,1,2025-06-01 04:37:29
2025-05-31T20:44+00:00,500107095,中山區,YouBike2.0_中429公園,25.07864,121.55557,21,12,8,1,2025-06-01 04:37:29
2025-05-31T20:44+00:00,500107097,中山區,YouBike2.0_松江民生路口,25.05765,121.53299,21,0,21,1,2025-06-01 04:37:29
2025-05-31T20:44+00:00,500107098,中山區,YouBike2.0_松江路132巷口,25.05277,121.53013,14,13,1,1,2025-06-01 04:37:29
2025-05-31T20:44+00:00,500107099,中山區,YouBike2.0_長春吉林路口,25.05481,121.53032,10,10,0,1,2025-06-01 04:37:29
2025-05-31T20:44+00:00,500107100,中山區,YouBike2.0_長春一江街口,25.05488,121.53142,11,8,3,1,2025-06-01 04:37:29
2025-05-31T20:44+00:00,500107101,中山區,YouBike2.0_捷運松江南京站(8號出口),25.05215,121.53276,29,9,20,1,2025-06-01 04:37:29
2025-05-31T20:44+00:00,500107102,中山區,YouBike2.0_南京一江街口,25.05215,121.53171,20,11,9,1,2025-06-01 04:37:29
2025-05-31T20:44+00:00,500107103,中山區,YouBike2.0_松江長春路口,25.05499,121.53295,16,6,10,1,2025-06-01 04:37:29
2025-05-31T20:44+00:00,500107104,中山區,YouBike2.0_經國七海文化園區,25.07802,121.53511,15,9,5,1,2025-06-01 04:37:29
2025-05-31T20:44+00:00,500107105,中山區,YouBike2.0_民族玉門街口,25.06873,121.52003,20,5,15,1,2025-06-01 04:37:29
2025-05-31T20:44+00:00,500107106,中山區,YouBike2.0_新生農安街口,25.06493,121.52778,15,10,3,1,2025-06-01 04:37:29
2025-05-31T20:44+00:00,500107107,中山區,YouBike2.0_稻江高級護理家事職業學校,25.06532,121.52848,14,10,3,1,2025-06-01 04:37:29
2025-05-31T20:44+00:00,500107108,中山區,YouBike2.0_捷運大直站(3號出口)_1,25.07934,121.54671,18,15,3,1,2025-06-01 04:37:29
2025-05-31T20:44+00:00,500107109,中山區,YouBike2.0_樂群二明水路口_1,25.07983,121.55236,34,17,17,1,2025-06-01 04:37:29
2025-05-31T20:44+00:00,500107111,中山區,YouBike2.0_長春龍江路口,25.05473,121.54026,39,20,18,1,2025-06-01 04:37:29
2025-05-31T20:44+00:00,500107112,中山區,YouBike2.0_民權新生路口,25.06305,121.52776,26,22,4,1,2025-06-01 04:37:29
2025-05-31T20:44+00:00,500107113,中山區,YouBike2.0_建國長春路口(北側),25.05476,121.53693,30,18,12,1,2025-06-01 04:37:29
2025-05-31T20:44+00:00,500107115,中山區,YouBike2.0_臺北市立美術館_1,25.07063,121.52327,30,6,24,1,2025-06-01 04:37:29
2025-05-31T20:44+00:00,500107116,中山區,YouBike2.0_劍潭社區_1,25.08476,121.53789,42,19,23,1,2025-06-01 04:37:29
2025-05-31T20:44+00:00,500107117,中山區,YouBike2.0_濱江國小游泳池,25.07818,121.56175,16,11,5,1,2025-06-01 04:37:29
2025-05-31T20:44+00:00,500107118,中山區,YouBike2.0_林森公園,25.05223,121.52581,42,24,18,1,2025-06-01 04:37:29
2025-05-31T20:44+00:00,500107119,中山區,YouBike2.0_中428公園,25.07825,121.55337,15,9,6,1,2025-06-01 04:37:29
2025-05-31T20:44+00:00,500107120,中山區,YouBike2.0_復華公園,25.05339,121.5401,20,16,4,1,2025-06-01 04:37:29
2025-05-31T20:44+00:00,500107124,中山區,YouBike2.0_龍江朱崙街口,25.05004,121.54043,14,10,4,1,2025-06-01 04:37:29
2025-05-31T20:44+00:00,500107125,中山區,YouBike2.0_大直街94巷,25.08431,121.54755,15,0,0,0,2025-06-01 04:37:29
2025-05-31T20:44+00:00,500107127,中山區,YouBike2.0_民權建國路口(南側),25.06228,121.53702,15,9,6,1,2025-06-01 04:37:29
2025-05-31T20:44+00:00,500107129,中山區,YouBike2.0_新生濱江街口(東南側),25.07059,121.52812,21,7,14,1,2025-06-01 04:37:29
2025-05-31T20:44+00:00,500107130,中山區,YouBike2.0_新生北路一段62巷口,25.04699,121.53075,30,22,8,1,2025-06-01 04:37:29
2025-05-31T20:44+00:00,500107133,中山區,YouBike2.0_敬業三樂群三路口(西北側),25.08272,121.55624,22,0,22,0,2025-06-01 04:37:29
2025-05-31T20:44+00:00,500107134,中山區,YouBike2.0_長春路258巷2弄口,25.05427,121.53896,19,14,5,1,2025-06-01 04:37:29
2025-05-31T20:44+00:00,500107135,中山區,YouBike2.0_長寧大廈社區(南側),25.05418,121.54332,15,8,7,1,2025-06-01 04:37:29
2025-05-31T20:44+00:00,500107136,中山區,YouBike2.0_建國五常街口,25.06419,121.53732,20,16,3,1,2025-06-01 04:37:29
2025-05-31T20:44+00:00,500107137,中山區,YouBike2.0_中山北路二段62巷口,25.05676,121.52268,12,7,5,1,2025-06-01 04:37:29
2025-05-31T20:44+00:00,500107138,中山區,YouBike2.0_市民安東街口,25.0448,121.54213,27,24,3,1,2025-06-01 04:37:29
2025-05-31T20:44+00:00,500107139,中山區,YouBike2.0_市民大道二段5巷口,25.04812,121.52166,15,10,5,1,2025-06-01 04:37:29
2025-05-31T20:44+00:00,500107141,中山區,YouBike2.0_建國北路高架橋下停車場G區,25.05959,121.53682,18,16,2,1,2025-06-01 04:37:29
2025-05-31T20:44+00:00,500107143,中山區,YouBike2.0_朱崙復興北路口,25.04992,121.54379,12,4,8,1,2025-06-01 04:37:29
2025-05-31T20:44+00:00,500107146,中山區,YouBike2.0_正守公園,25.04808,121.52898,15,10,2,1,2025-06-01 04:37:29
2025-05-31T20:44+00:00,500107147,中山區,YouBike2.0_四平松江路口,25.05366,121.53282,18,9,9,1,2025-06-01 04:37:29
2025-05-31T20:44+00:00,500107151,中山區,YouBike2.0_臺北市立大同高中,25.05484,121.53521,22,9,13,1,2025-06-01 04:37:29
2025-05-31T20:44+00:00,500107152,中山區,YouBike2.0_中崙加油站,25.04634,121.53979,27,25,2,1,2025-06-01 04:37:29
2025-05-31T20:44+00:00,500107156,中山區,YouBike2.0_吉林農安街口(西北側),25.06493,121.53034,15,14,1,1,2025-06-01 04:37:29
2025-05-31T20:44+00:00,500107157,中山區,YouBike2.0_濱江國中,25.07986,121.56152,26,14,12,1,2025-06-01 04:37:29
2025-05-31T20:44+00:00,500107162,中山區,YouBike2.0_長安國小,25.05018,121.53008,26,26,0,1,2025-06-01 04:37:29
2025-05-31T20:44+00:00,500107163,中山區,YouBike2.0_中山市場,25.05007,121.52107,16,7,9,1,2025-06-01 04:37:29
2025-05-31T20:44+00:00,500107164,中山區,YouBike2.0_捷運雙連站(1號出口),25.05767,121.52097,17,5,12,1,2025-06-01 04:37:29
2025-05-31T20:44+00:00,500107168,中山區,YouBike2.0_一江南京東路口(西南側),25.05181,121.53146,22,12,10,1,2025-06-01 04:37:29
2025-05-31T20:44+00:00,500107169,中山區,YouBike2.0_大直抽水站公車站,25.07756,121.54556,27,10,17,1,2025-06-01 04:37:29
2025-05-31T20:44+00:00,500107170,中山區,YouBike2.0_民權東路三段39巷口,25.06596,121.54259,25,13,12,1,2025-06-01 04:37:29
2025-05-31T20:44+00:00,500107171,中山區,YouBike2.0_臺北市立中山女高,25.04841,121.53889,33,17,15,1,2025-06-01 04:37:29
2025-05-31T20:44+00:00,500107172,中山區,YouBike2.0_朱昌公園,25.0554,121.53908,20,0,0,0,2025-06-01 04:37:29
2025-05-31T20:44+00:00,500107173,中山區,YouBike2.0_林森公園東北側,25.05381,121.52674,18,9,9,1,2025-06-01 04:37:29
2025-05-31T20:44+00:00,500107174,中山區,YouBike2.0_康樂公園西北側,25.05377,121.52456,18,2,16,1,2025-06-01 04:37:29
2025-05-31T20:44+00:00,500107175,中山區,YouBike2.0_中山北德惠街口,25.06671,121.52257,20,0,15,1,2025-06-01 04:37:29
2025-05-31T20:44+00:00,500107176,中山區,YouBike2.0_晴光公園,25.06411,121.52446,15,14,1,1,2025-06-01 04:37:29
2025-05-31T20:44+00:00,500107177,中山區,YouBike2.0_松江路25巷口,25.04628,121.53304,42,36,6,1,2025-06-01 04:37:29
2025-05-31T20:44+00:00,500107178,中山區,YouBike2.0_民生東合江街口,25.05777,121.53951,20,8,12,1,2025-06-01 04:37:29
2025-05-31T20:44+00:00,500107179,中山區,YouBike2.0_飛航服務總臺,25.07241,121.55117,23,8,15,1,2025-06-01 04:37:29
2025-05-31T20:44+00:00,500107180,中山區,YouBike2.0_內湖堤頂大道(西南側),25.08462,121.56016,24,13,11,1,2025-06-01 04:37:29
2025-05-31T20:44+00:00,500107181,中山區,YouBike2.0_大直派出所,25.07913,121.54422,30,4,25,1,2025-06-01 04:37:29
2025-05-31T20:44+00:00,500107182,中山區,YouBike2.0_遼寧民生路口,25.05751,121.54215,19,16,3,1,2025-06-01 04:37:29
2025-05-31T20:44+00:00,500107183,中山區,YouBike2.0_松江路184巷口,25.05623,121.53296,21,11,10,1,2025-06-01 04:37:29
2025-05-31T20:44+00:00,500108001,內湖區,YouBike2.0_文湖街21巷118弄口,25.09122,121.55961,28,22,4,1,2025-06-01 04:37:29
2025-05-31T20:44+00:00,500108002,內湖區,YouBike2.0_北勢湖環保公園,25.08378,121.56208,27,21,6,1,2025-06-01 04:37:29
2025-05-31T20:44+00:00,500108003,內湖區,YouBike2.0_洲子一號公園,25.07977,121.56454,43,4,39,1,2025-06-01 04:37:29
2025-05-31T20:44+00:00,500108004,內湖區,YouBike2.0_西康公園,25.08284,121.56449,21,9,12,1,2025-06-01 04:37:29
2025-05-31T20:44+00:00,500108005,內湖區,YouBike2.0_文湖國小,25.08637,121.56088,43,30,13,1,2025-06-01 04:37:29
2025-05-31T20:44+00:00,500108007,內湖區,YouBike2.0_德明財經科技大學,25.08637,121.56574,36,24,12,1,2025-06-01 04:37:29
2025-05-31T20:44+00:00,500108008,內湖區,YouBike2.0_麗山國小,25.0826,121.57158,18,10,8,1,2025-06-01 04:37:29
2025-05-31T20:44+00:00,500108009,內湖區,YouBike2.0_麗山高中,25.08398,121.57725,33,11,21,1,2025-06-01 04:37:29
2025-05-31T20:44+00:00,500108010,內湖區,YouBike2.0_港華五號公園,25.08522,121.57462,16,14,2,1,2025-06-01 04:37:29
2025-05-31T20:44+00:00,500108012,內湖區,YouBike2.0_安湖三號公園,25.07021,121.61593,15,0,15,0,2025-06-01 04:37:29
2025-05-31T20:44+00:00,500108013,內湖區,YouBike2.0_東湖路113巷95弄,25.07177,121.61491,17,10,6,1,2025-06-01 04:37:29
2025-05-31T20:44+00:00,500108014,內湖區,YouBike2.0_瑞光計程車服務站,25.0745,121.57389,20,7,13,1,2025-06-01 04:37:29
2025-05-31T20:44+00:00,500108015,內湖區,YouBike2.0_文德三號公園(江南街71巷16弄),25.07524,121.5772,15,4,11,1,2025-06-01 04:37:29
2025-05-31T20:44+00:00,500108016,內湖區,YouBike2.0_捷運大湖公園站(2號出口),25.08395,121.60185,46,6,40,1,2025-06-01 04:37:29
2025-05-31T20:44+00:00,500108018,內湖區,YouBike2.0_康寧星雲街口,25.07958,121.59336,19,10,9,1,2025-06-01 04:37:29
2025-05-31T20:44+00:00,500108019,內湖區,YouBike2.0_星雲街47號,25.07864,121.59177,22,15,7,1,2025-06-01 04:37:29
2025-05-31T20:44+00:00,500108021,內湖區,YouBike2.0_捷運西湖站(2號出口),25.08205,121.56716,31,12,19,1,2025-06-01 04:37:29
2025-05-31T20:44+00:00,500108022,內湖區,YouBike2.0_洲子二號公園,25.07932,121.56869,60,11,48,1,2025-06-01 04:37:29
2025-05-31T20:44+00:00,500108023,內湖區,YouBike2.0_港都公園,25.08296,121.5752,15,14,1,1,2025-06-01 04:37:29
2025-05-31T20:44+00:00,500108024,內湖區,YouBike2.0_環山路二段26巷口,25.08598,121.572,22,14,8,1,2025-06-01 04:37:29
2025-05-31T20:44+00:00,500108025,內湖區,YouBike2.0_成功金龍路口,25.08436,121.59478,29,5,24,1,2025-06-01 04:37:29
2025-05-31T20:44+00:00,500108026,內湖區,YouBike2.0_碧山公園,25.0878,121.59227,31,27,4,1,2025-06-01 04:37:29
2025-05-31T20:44+00:00,500108028,內湖區,YouBike2.0_捷運文德站(2號出口),25.07842,121.58464,49,2,47,1,2025-06-01 04:37:29
2025-05-31T20:44+00:00,500108029,內湖區,YouBike2.0_陽光公園,25.07695,121.58764,16,13,2,1,2025-06-01 04:37:29
2025-05-31T20:44+00:00,500108030,內湖區,YouBike2.0_文德二號公園(南側),25.07504,121.58375,13,12,1,1,2025-06-01 04:37:29
2025-05-31T20:44+00:00,500108031,內湖區,YouBike2.0_文德二號公園(北側),25.07758,121.58381,15,11,4,1,2025-06-01 04:37:29
2025-05-31T20:44+00:00,500108034,內湖區,YouBike2.0_潭美街213號,25.05575,121.58486,12,8,4,1,2025-06-01 04:37:29
2025-05-31T20:44+00:00,500108035,內湖區,YouBike2.0_南京東路六段180號,25.0559,121.57991,21,5,16,1,2025-06-01 04:37:29
2025-05-31T20:44+00:00,500108036,內湖區,YouBike2.0_潭美國小(南京舊宗路口),25.05768,121.58159,29,14,15,1,2025-06-01 04:37:29
2025-05-31T20:44+00:00,500108037,內湖區,YouBike2.0_新明路343號,25.05653,121.58345,10,10,0,1,2025-06-01 04:37:29
2025-05-31T20:44+00:00,500108038,內湖區,YouBike2.0_成美長壽橋(潭美街),25.0539,121.58084,17,13,3,1,2025-06-01 04:37:29
2025-05-31T20:44+00:00,500108039,內湖區,YouBike2.0_內湖行政中心,25.06915,121.58898,25,12,13,1,2025-06-01 04:37:29
2025-05-31T20:44+00:00,500108040,內湖區,YouBike2.0_樂康公園,25.07007,121.62055,20,14,6,1,2025-06-01 04:37:29
2025-05-31T20:44+00:00,500108043,內湖區,YouBike2.0_明美公園,25.06256,121.58607,30,3,27,1,2025-06-01 04:37:29
2025-05-31T20:44+00:00,500108045,內湖區,YouBike2.0_新明成功路口,25.06058,121.5911,30,23,7,1,2025-06-01 04:37:29
2025-05-31T20:44+00:00,500108046,內湖區,YouBike2.0_民權瑞光路口,25.06835,121.58323,32,21,10,1,2025-06-01 04:37:29
2025-05-31T20:44+00:00,500108047,內湖區,YouBike2.0_瑞光公共住宅(瑞光路),25.07335,121.57951,18,12,6,1,2025-06-01 04:37:29
2025-05-31T20:44+00:00,500108049,內湖區,YouBike2.0_扶輪親恩公園,25.06709,121.58002,30,25,4,1,2025-06-01 04:37:29
2025-05-31T20:44+00:00,500108050,內湖區,YouBike2.0_新湖三民善街口,25.06286,121.57497,15,3,12,1,2025-06-01 04:37:29
2025-05-31T20:44+00:00,500108051,內湖區,YouBike2.0_內湖119號綠地,25.05594,121.57865,41,4,37,1,2025-06-01 04:37:29
2025-05-31T20:44+00:00,500108052,內湖區,YouBike2.0_行善公園,25.05301,121.57592,25,2,23,1,2025-06-01 04:37:29
2025-05-31T20:44+00:00,500108054,內湖區,YouBike2.0_三軍總醫院,25.07151,121.58991,50,8,42,1,2025-06-01 04:37:29
2025-05-31T20:44+00:00,500108055,內湖區,YouBike2.0_福華商場,25.06877,121.59265,25,12,13,1,2025-06-01 04:37:29
2025-05-31T20:44+00:00,500108057,內湖區,YouBike2.0_捷運葫洲站(1號出口),25.07249,121.60796,37,5,32,1,2025-06-01 04:37:29
2025-05-31T20:44+00:00,500108058,內湖區,YouBike2.0_麗湖國小,25.07332,121.60223,27,13,14,1,2025-06-01 04:37:29
2025-05-31T20:44+00:00,500108059,內湖區,YouBike2.0_金湖路347巷125弄口,25.0733,121.59834,15,6,9,1,2025-06-01 04:37:29
2025-05-31T20:44+00:00,500108060,內湖區,YouBike2.0_碧湖公園,25.07988,121.58287,25,17,8,1,2025-06-01 04:37:29
2025-05-31T20:44+00:00,500108061,內湖區,YouBike2.0_碧湖公園(內湖路二段103巷),25.08317,121.58109,19,8,9,1,2025-06-01 04:37:29
2025-05-31T20:44+00:00,500108062,內湖區,YouBike2.0_貿七社區,25.08357,121.58534,17,6,11,1,2025-06-01 04:37:29
2025-05-31T20:44+00:00,500108064,內湖區,YouBike2.0_捷運內湖站(2號出口),25.0835,121.59454,10,2,8,1,2025-06-01 04:37:29
2025-05-31T20:44+00:00,500108066,內湖區,YouBike2.0_康寧路一段156巷20弄口,25.07792,121.59354,20,9,11,1,2025-06-01 04:37:29
2025-05-31T20:44+00:00,500108067,內湖區,YouBike2.0_安康公園,25.06657,121.6136,25,11,14,1,2025-06-01 04:37:29
2025-05-31T20:44+00:00,500108068,內湖區,YouBike2.0_安泰街83巷,25.07669,121.61709,34,12,20,1,2025-06-01 04:37:29
2025-05-31T20:44+00:00,500108069,內湖區,YouBike2.0_內溝溪生態展示館,25.08722,121.62306,16,4,12,1,2025-06-01 04:37:29
2025-05-31T20:44+00:00,500108073,內湖區,YouBike2.0_內湖垃圾焚化廠,25.06209,121.60347,20,5,15,1,2025-06-01 04:37:29
2025-05-31T20:44+00:00,500108074,內湖區,YouBike2.0_康寧公園(北側),25.06927,121.61019,22,11,11,1,2025-06-01 04:37:29
2025-05-31T20:44+00:00,500108075,內湖區,YouBike2.0_康寧路三段54巷口,25.0716,121.60936,15,4,11,1,2025-06-01 04:37:29
2025-05-31T20:44+00:00,500108076,內湖區,YouBike2.0_行善路25巷口,25.05707,121.57658,21,18,3,1,2025-06-01 04:37:29
2025-05-31T20:44+00:00,500108077,內湖區,YouBike2.0_新明路460巷口,25.05503,121.57823,22,3,18,1,2025-06-01 04:37:29
2025-05-31T20:44+00:00,500108081,內湖區,YouBike2.0_東湖國小,25.06854,121.61532,29,20,8,1,2025-06-01 04:37:29
2025-05-31T20:44+00:00,500108082,內湖區,YouBike2.0_捷運內湖站(1號出口),25.08373,121.59406,28,5,23,1,2025-06-01 04:37:29
2025-05-31T20:44+00:00,500108083,內湖區,YouBike2.0_瑞光港墘路口,25.07611,121.57487,30,12,18,1,2025-06-01 04:37:29
2025-05-31T20:44+00:00,500108084,內湖區,YouBike2.0_瑞湖陽光街口,25.07296,121.57603,34,2,30,1,2025-06-01 04:37:29
2025-05-31T20:44+00:00,500108086,內湖區,YouBike2.0_星雲街138巷1弄口,25.07943,121.59544,21,16,5,1,2025-06-01 04:37:29
2025-05-31T20:44+00:00,500108087,內湖區,YouBike2.0_東湖一號公園,25.07567,121.6118,19,10,9,1,2025-06-01 04:37:29
2025-05-31T20:44+00:00,500108088,內湖區,YouBike2.0_東湖二號公園,25.07415,121.61075,25,18,7,1,2025-06-01 04:37:29
2025-05-31T20:44+00:00,500108089,內湖區,YouBike2.0_康湖二號公園(康寧醫院),25.07514,121.60857,25,10,15,1,2025-06-01 04:37:29
2025-05-31T20:44+00:00,500108091,內湖區,YouBike2.0_下灣公園(成功路),25.06682,121.5907,16,3,13,1,2025-06-01 04:37:29
2025-05-31T20:44+00:00,500108092,內湖區,YouBike2.0_舊宗行善路口,25.05876,121.58062,22,5,17,1,2025-06-01 04:37:29
2025-05-31T20:44+00:00,500108093,內湖區,YouBike2.0_新湖二路250巷口,25.06455,121.58262,20,2,18,1,2025-06-01 04:37:29
2025-05-31T20:44+00:00,500108094,內湖區,YouBike2.0_成功路四段41巷口,25.08105,121.59205,15,9,4,1,2025-06-01 04:37:29
2025-05-31T20:44+00:00,500108096,內湖區,YouBike2.0_國防醫學院,25.06851,121.59559,25,14,11,1,2025-06-01 04:37:29
2025-05-31T20:44+00:00,500108098,內湖區,YouBike2.0_內湖運動中心,25.07848,121.57493,21,5,16,1,2025-06-01 04:37:29
2025-05-31T20:44+00:00,500108099,內湖區,YouBike2.0_九華公園,25.08844,121.56122,25,24,1,1,2025-06-01 04:37:29
2025-05-31T20:44+00:00,500108100,內湖區,YouBike2.0_內湖路二段179巷口,25.08454,121.584,22,11,11,1,2025-06-01 04:37:29
2025-05-31T20:44+00:00,500108103,內湖區,YouBike2.0_民善新湖二路口(家樂福內湖店),25.06017,121.57552,23,2,20,1,2025-06-01 04:37:29
2025-05-31T20:44+00:00,500108105,內湖區,YouBike2.0_陽光街161巷口,25.07433,121.58584,16,8,7,1,2025-06-01 04:37:29
2025-05-31T20:44+00:00,500108106,內湖區,YouBike2.0_潭美公園(南京東路六段368巷),25.05928,121.58617,25,24,1,1,2025-06-01 04:37:29
2025-05-31T20:44+00:00,500108107,內湖區,YouBike2.0_西康二號公園,25.08503,121.5637,21,9,12,1,2025-06-01 04:37:29
2025-05-31T20:44+00:00,500108109,內湖區,YouBike2.0_瑞光路76巷口,25.07168,121.58125,12,3,9,1,2025-06-01 04:37:29
2025-05-31T20:44+00:00,500108112,內湖區,YouBike2.0_碧山內湖路口,25.08627,121.5914,16,8,7,1,2025-06-01 04:37:29
2025-05-31T20:44+00:00,500108116,內湖區,YouBike2.0_宏匯瑞光廣場(瑞光路),25.07676,121.57433,16,15,1,1,2025-06-01 04:37:29
2025-05-31T20:44+00:00,500108117,內湖區,YouBike2.0_宏匯瑞光廣場(港墘路),25.07777,121.57562,20,15,5,1,2025-06-01 04:37:29
2025-05-31T20:44+00:00,500108118,內湖區,YouBike2.0_康樂街151巷,25.07192,121.61955,24,16,8,1,2025-06-01 04:37:29
2025-05-31T20:44+00:00,500108120,內湖區,YouBike2.0_成功路三段83號前,25.07823,121.5898,17,15,2,1,2025-06-01 04:37:29
2025-05-31T20:44+00:00,500108121,內湖區,YouBike2.0_內湖路一段47巷,25.08781,121.55872,22,17,4,1,2025-06-01 04:37:29
2025-05-31T20:44+00:00,500108122,內湖區,YouBike2.0_陽光舊宗路口,25.07243,121.57416,20,4,16,1,2025-06-01 04:37:29
2025-05-31T20:44+00:00,500108124,內湖區,YouBike2.0_湖興公園,25.06671,121.58913,16,13,2,1,2025-06-01 04:37:29
2025-05-31T20:44+00:00,500108126,內湖區,YouBike2.0_安泰街(康樂橋下),25.07849,121.61666,21,10,11,1,2025-06-01 04:37:29
2025-05-31T20:44+00:00,500108131,內湖區,YouBike2.0_舊宗新湖三路口,25.06321,121.57681,25,4,21,1,2025-06-01 04:37:29
2025-05-31T20:44+00:00,500108132,內湖區,YouBike2.0_內湖運動公園,25.06745,121.57513,25,17,8,1,2025-06-01 04:37:29
2025-05-31T20:44+00:00,500108133,內湖區,YouBike2.0_內湖路三段326巷口,25.08968,121.58352,20,12,8,1,2025-06-01 04:37:29
2025-05-31T20:44+00:00,500108135,內湖區,YouBike2.0_康寧路三段189巷93弄口,25.0735,121.61258,14,8,6,1,2025-06-01 04:37:29
2025-05-31T20:44+00:00,500108136,內湖區,YouBike2.0_中國醫藥大學附設醫院臺北分院,25.08227,121.5909,16,12,4,1,2025-06-01 04:37:29
2025-05-31T20:44+00:00,500108137,內湖區,YouBike2.0_康樂抽水站,25.06643,121.61732,25,12,12,1,2025-06-01 04:37:29
2025-05-31T20:44+00:00,500108139,內湖區,YouBike2.0_文德一號綠地,25.0786,121.58302,15,6,8,1,2025-06-01 04:37:29
2025-05-31T20:44+00:00,500108140,內湖區,YouBike2.0_臺北花市,25.06265,121.57427,30,4,26,1,2025-06-01 04:37:29
2025-05-31T20:44+00:00,500108141,內湖區,YouBike2.0_行善社會住宅,25.06126,121.58201,23,16,7,1,2025-06-01 04:37:29
2025-05-31T20:44+00:00,500108142,內湖區,YouBike2.0_康寧路三段99巷17弄口,25.0721,121.60991,15,6,9,1,2025-06-01 04:37:29
2025-05-31T20:44+00:00,500108143,內湖區,YouBike2.0_堤頂大道二段407巷口,25.08019,121.56316,15,6,9,1,2025-06-01 04:37:29
2025-05-31T20:44+00:00,500108144,內湖區,YouBike2.0_海德堡科技大樓,25.08156,121.56227,12,4,8,1,2025-06-01 04:37:29
2025-05-31T20:44+00:00,500108145,內湖區,YouBike2.0_致伸科技大樓,25.08067,121.5656,17,10,7,1,2025-06-01 04:37:29
2025-05-31T20:44+00:00,500108147,內湖區,YouBike2.0_大都會客運內湖站,25.06749,121.57784,25,14,11,1,2025-06-01 04:37:29
2025-05-31T20:44+00:00,500108148,內湖區,YouBike2.0_瑞湖公園,25.06888,121.57711,15,8,7,1,2025-06-01 04:37:29
2025-05-31T20:44+00:00,500108150,內湖區,YouBike2.0_台灣世曦大樓,25.07345,121.57848,16,5,10,1,2025-06-01 04:37:29
2025-05-31T20:44+00:00,500108151,內湖區,YouBike2.0_遠雄時代總部,25.07821,121.57103,14,4,9,1,2025-06-01 04:37:29
2025-05-31T20:44+00:00,500108152,內湖區,YouBike2.0_瑞光路358巷口,25.07733,121.5727,14,6,7,1,2025-06-01 04:37:29
2025-05-31T20:44+00:00,500108153,內湖區,YouBike2.0_大港墘公園(洲子街),25.07897,121.5737,18,2,16,1,2025-06-01 04:37:29
2025-05-31T20:44+00:00,500108154,內湖區,YouBike2.0_世紀經貿,25.08049,121.57361,16,4,12,1,2025-06-01 04:37:29
2025-05-31T20:44+00:00,500108156,內湖區,YouBike2.0_民權東路六段56巷口,25.06805,121.58488,25,12,13,1,2025-06-01 04:37:29
2025-05-31T20:44+00:00,500108157,內湖區,YouBike2.0_新湖三行忠路72巷口,25.06605,121.58206,18,3,15,1,2025-06-01 04:37:29
2025-05-31T20:44+00:00,500108159,內湖區,YouBike2.0_舊宗新湖二路口,25.06151,121.57811,25,11,14,1,2025-06-01 04:37:29
2025-05-31T20:44+00:00,500108160,內湖區,YouBike2.0_新光基湖大樓,25.08152,121.56489,19,2,16,1,2025-06-01 04:37:29
2025-05-31T20:44+00:00,500108161,內湖區,YouBike2.0_內湖路一段120巷15弄,25.08203,121.56298,32,10,22,1,2025-06-01 04:37:29
2025-05-31T20:44+00:00,500108162,內湖區,YouBike2.0_北勢湖環保公園(堤頂大道側),25.08318,121.56154,21,4,17,1,2025-06-01 04:37:29
2025-05-31T20:44+00:00,500108164,內湖區,YouBike2.0_達爾文大樓,25.07941,121.57277,15,6,9,1,2025-06-01 04:37:29
2025-05-31T20:44+00:00,500108165,內湖區,YouBike2.0_東湖四號公園,25.07074,121.61803,28,21,6,1,2025-06-01 04:37:29
2025-05-31T20:44+00:00,500108166,內湖區,YouBike2.0_加瑪科技中心,25.08035,121.5705,13,5,8,1,2025-06-01 04:37:29
2025-05-31T20:44+00:00,500108167,內湖區,YouBike2.0_福壽公園,25.07983,121.59625,14,5,9,1,2025-06-01 04:37:29
2025-05-31T20:44+00:00,500108168,內湖區,YouBike2.0_捷運西湖站(1號出口)內湖路側,25.08227,121.56709,20,8,12,1,2025-06-01 04:37:29
2025-05-31T20:44+00:00,500108169,內湖區,YouBike2.0_威剛科技總部,25.06153,121.60033,25,1,24,1,2025-06-01 04:37:29
2025-05-31T20:44+00:00,500108170,內湖區,YouBike2.0_太陽科技廣場,25.08514,121.56161,15,10,5,1,2025-06-01 04:37:29
2025-05-31T20:44+00:00,500108171,內湖區,YouBike2.0_瑞光路316巷,25.07567,121.57341,20,3,17,1,2025-06-01 04:37:29
2025-05-31T20:44+00:00,500108174,內湖區,YouBike2.0_捷運葫洲站(2號出口),25.07264,121.60692,20,7,13,1,2025-06-01 04:37:29
2025-05-31T20:44+00:00,500108176,內湖區,YouBike2.0_環山路三段1巷(麗山高中),25.08438,121.57876,18,4,14,1,2025-06-01 04:37:29
2025-05-31T20:44+00:00,500108177,內湖區,YouBike2.0_潭美公園(南京東路六段482號),25.06092,121.58898,29,2,27,1,2025-06-01 04:37:29
2025-05-31T20:44+00:00,500108178,內湖區,YouBike2.0_美善公園,25.05703,121.57861,22,14,8,1,2025-06-01 04:37:29
2025-05-31T20:44+00:00,500108181,內湖區,YouBike2.0_麗山國小(內湖路一段411巷),25.08389,121.57189,22,18,4,1,2025-06-01 04:37:29
2025-05-31T20:44+00:00,500108182,內湖區,YouBike2.0_行善路417巷,25.06468,121.58654,26,6,20,1,2025-06-01 04:37:29
2025-05-31T20:44+00:00,500108183,內湖區,YouBike2.0_明湖國小(康寧路三段165巷23弄),25.07165,121.61177,26,21,5,1,2025-06-01 04:37:29
2025-05-31T20:44+00:00,500108190,內湖區,YouBike2.0_內湖路一段1巷口,25.08533,121.558,20,1,19,1,2025-06-01 04:37:29
2025-05-31T20:44+00:00,500108191,內湖區,YouBike2.0_環山路一段136巷口,25.08645,121.56928,28,16,12,1,2025-06-01 04:37:29
2025-05-31T20:44+00:00,500108192,內湖區,YouBike2.0_上灣公園,25.06572,121.59778,25,18,7,1,2025-06-01 04:37:29
2025-05-31T20:44+00:00,500108193,內湖區,YouBike2.0_湖興公園(成功路),25.06703,121.59048,21,8,13,1,2025-06-01 04:37:29
2025-05-31T20:44+00:00,500108196,內湖區,YouBike2.0_星雲街210巷口,25.07966,121.59793,16,10,5,1,2025-06-01 04:37:29
2025-05-31T20:44+00:00,500108197,內湖區,YouBike2.0_成功路二段406巷口,25.07077,121.59,20,6,13,1,2025-06-01 04:37:29
2025-05-31T20:44+00:00,500108200,內湖區,YouBike2.0_民權東路六段280巷155弄口,25.06865,121.60884,21,9,12,1,2025-06-01 04:37:29
2025-05-31T20:44+00:00,500108201,內湖區,YouBike2.0_將軍嶺,25.07457,121.5901,23,2,21,1,2025-06-01 04:37:29
2025-05-31T20:44+00:00,500108202,內湖區,YouBike2.0_文湖街21巷82弄口,25.08899,121.56036,18,8,10,1,2025-06-01 04:37:29
2025-05-31T20:44+00:00,500108203,內湖區,YouBike2.0_西湖公園(內湖路一段387巷),25.08409,121.57066,25,23,2,1,2025-06-01 04:37:29
2025-05-31T20:44+00:00,500108204,內湖區,YouBike2.0_國立臺灣戲曲學院(內湖校區),25.08107,121.58609,28,10,18,1,2025-06-01 04:37:29
2025-05-31T20:44+00:00,500108205,內湖區,YouBike2.0_內湖路一段285巷65弄,25.08443,121.56912,19,4,15,1,2025-06-01 04:37:29
2025-05-31T20:44+00:00,500109001,北投區,YouBike2.0_承德路七段304巷口,25.1168,121.5048,24,18,5,1,2025-06-01 04:37:29
2025-05-31T20:44+00:00,500109003,北投區,YouBike2.0_榮華二明德路口,25.11357,121.52255,30,29,1,1,2025-06-01 04:37:29
2025-05-31T20:44+00:00,500109004,北投區,YouBike2.0_捷運明德站(1號出口),25.10896,121.51936,23,7,16,1,2025-06-01 04:37:29
2025-05-31T20:44+00:00,500109005,北投區,YouBike2.0_文林建民路口,25.10788,121.51457,25,10,14,1,2025-06-01 04:37:29
2025-05-31T20:44+00:00,500109006,北投區,YouBike2.0_永欣綠地,25.12416,121.52607,37,13,22,1,2025-06-01 04:37:29
2025-05-31T20:44+00:00,500109007,北投區,YouBike2.0_關渡宮,25.11739,121.46288,62,44,16,1,2025-06-01 04:37:29
2025-05-31T20:44+00:00,500109008,北投區,YouBike2.0_關渡自然公園,25.11884,121.46912,35,22,12,1,2025-06-01 04:37:29
2025-05-31T20:44+00:00,500109009,北投區,YouBike2.0_關渡醫院,25.1203,121.4665,14,6,5,1,2025-06-01 04:37:29
2025-05-31T20:44+00:00,500109010,北投區,YouBike2.0_捷運忠義站(1號出口),25.13149,121.47365,30,9,21,1,2025-06-01 04:37:29
2025-05-31T20:44+00:00,500109011,北投區,YouBike2.0_捷運關渡站(1號出口),25.12397,121.46712,99,20,72,1,2025-06-01 04:37:29
2025-05-31T20:44+00:00,500109012,北投區,YouBike2.0_捷運關渡站(2號出口),25.12618,121.46737,22,1,21,1,2025-06-01 04:37:29
2025-05-31T20:44+00:00,500109013,北投區,YouBike2.0_中央北路四段540巷口,25.12796,121.46782,31,11,19,1,2025-06-01 04:37:29
2025-05-31T20:44+00:00,500109014,北投區,YouBike2.0_大度立德路口,25.1231,121.47092,24,5,19,1,2025-06-01 04:37:29
2025-05-31T20:44+00:00,500109015,北投區,YouBike2.0_捷運復興崗站(1號出口),25.1378,121.4863,45,10,35,1,2025-06-01 04:37:29
2025-05-31T20:44+00:00,500109017,北投區,YouBike2.0_豐年公園,25.13475,121.49613,29,17,12,1,2025-06-01 04:37:29
2025-05-31T20:44+00:00,500109018,北投區,YouBike2.0_稻香重三路口,25.13997,121.48967,15,5,10,1,2025-06-01 04:37:29
2025-05-31T20:44+00:00,500109019,北投區,YouBike2.0_國防大學政治作戰學院,25.13776,121.49345,45,17,28,1,2025-06-01 04:37:29
2025-05-31T20:44+00:00,500109020,北投區,YouBike2.0_秀山區民活動中心,25.14582,121.49303,36,4,31,1,2025-06-01 04:37:29
2025-05-31T20:44+00:00,500109022,北投區,YouBike2.0_大業大同街口,25.13691,121.49987,42,17,25,1,2025-06-01 04:37:29
2025-05-31T20:44+00:00,500109024,北投區,YouBike2.0_捷運北投站,25.13187,121.499,30,9,21,1,2025-06-01 04:37:29
2025-05-31T20:44+00:00,500109025,北投區,YouBike2.0_捷運奇岩站(三合街),25.12634,121.50099,40,7,32,1,2025-06-01 04:37:29
2025-05-31T20:44+00:00,500109027,北投區,YouBike2.0_清江國小,25.12725,121.50676,58,42,16,1,2025-06-01 04:37:29
2025-05-31T20:44+00:00,500109028,北投區,YouBike2.0_大業路300巷口,25.12814,121.49782,20,10,10,1,2025-06-01 04:37:29
2025-05-31T20:44+00:00,500109030,北投區,YouBike2.0_北投奇岩長青樂活大樓,25.12666,121.50373,25,18,7,1,2025-06-01 04:37:29
2025-05-31T20:44+00:00,500109031,北投區,YouBike2.0_捷運唭哩岸站(2號出口),25.12087,121.50523,48,12,34,1,2025-06-01 04:37:29
2025-05-31T20:44+00:00,500109032,北投區,YouBike2.0_北投運動中心,25.11666,121.50962,70,61,9,1,2025-06-01 04:37:29
2025-05-31T20:44+00:00,500109033,北投區,YouBike2.0_陽明大學,25.11912,121.51223,53,30,23,1,2025-06-01 04:37:29
2025-05-31T20:44+00:00,500109034,北投區,YouBike2.0_捷運石牌站(2號出口),25.11451,121.51567,62,17,45,1,2025-06-01 04:37:29
2025-05-31T20:44+00:00,500109036,北投區,YouBike2.0_捷運石牌站(1號出口),25.11542,121.51469,33,6,27,1,2025-06-01 04:37:29
2025-05-31T20:44+00:00,500109037,北投區,YouBike2.0_振興醫院,25.11753,121.52186,36,4,32,1,2025-06-01 04:37:29
2025-05-31T20:44+00:00,500109039,北投區,YouBike2.0_石牌國小,25.1144,121.51307,26,10,16,1,2025-06-01 04:37:29
2025-05-31T20:44+00:00,500109040,北投區,YouBike2.0_振興公園,25.11865,121.5235,25,4,21,1,2025-06-01 04:37:29
2025-05-31T20:44+00:00,500109041,北投區,YouBike2.0_立農國小,25.11978,121.50422,25,16,9,1,2025-06-01 04:37:29
2025-05-31T20:44+00:00,500109042,北投區,YouBike2.0_承德路七段280巷口,25.11587,121.50576,22,12,10,1,2025-06-01 04:37:29
2025-05-31T20:44+00:00,500109043,北投區,YouBike2.0_致遠一路二段11巷,25.11093,121.51382,22,16,6,1,2025-06-01 04:37:29
2025-05-31T20:44+00:00,500109044,北投區,YouBike2.0_榮富公園,25.1137,121.52437,13,11,2,1,2025-06-01 04:37:29
2025-05-31T20:44+00:00,500109045,北投區,YouBike2.0_中正高中,25.10467,121.51654,31,20,11,1,2025-06-01 04:37:29
2025-05-31T20:44+00:00,500109046,北投區,YouBike2.0_立功立德路口,25.12501,121.47158,41,13,28,1,2025-06-01 04:37:29
2025-05-31T20:44+00:00,500109047,北投區,YouBike2.0_桃源國中,25.13485,121.47769,22,18,3,1,2025-06-01 04:37:29
2025-05-31T20:44+00:00,500109048,北投區,YouBike2.0_陽明交大圖書館,25.12081,121.51352,37,8,29,1,2025-06-01 04:37:29
2025-05-31T20:44+00:00,500109049,北投區,YouBike2.0_捷運新北投站(2號出口),25.13675,121.50224,24,8,16,1,2025-06-01 04:37:29
2025-05-31T20:44+00:00,500109052,北投區,YouBike2.0_承德路七段188巷口,25.11416,121.50771,16,14,2,1,2025-06-01 04:37:29
2025-05-31T20:44+00:00,500109054,北投區,YouBike2.0_大豐公園,25.13102,121.50408,39,19,20,1,2025-06-01 04:37:29
2025-05-31T20:44+00:00,500109055,北投區,YouBike2.0_洲美公園,25.10032,121.50599,30,25,4,1,2025-06-01 04:37:29
2025-05-31T20:44+00:00,500109058,北投區,YouBike2.0_文化三杏林一路口,25.14058,121.49915,17,11,4,1,2025-06-01 04:37:29
2025-05-31T20:44+00:00,500109059,北投區,YouBike2.0_珠海復興一路口,25.14045,121.50446,28,8,19,1,2025-06-01 04:37:29
2025-05-31T20:44+00:00,500109060,北投區,YouBike2.0_裕民二路33巷,25.11535,121.51736,15,10,5,1,2025-06-01 04:37:29
2025-05-31T20:44+00:00,500109061,北投區,YouBike2.0_新奇岩社會住宅,25.12287,121.5037,12,12,0,1,2025-06-01 04:37:29
2025-05-31T20:44+00:00,500109062,北投區,YouBike2.0_泉源公園,25.14193,121.50835,20,3,17,1,2025-06-01 04:37:29
2025-05-31T20:44+00:00,500109063,北投區,YouBike2.0_奇岩4號綠地,25.12533,121.50573,12,11,1,1,2025-06-01 04:37:29
2025-05-31T20:44+00:00,500109064,北投區,YouBike2.0_臺北健康護理大學(教研大樓),25.11857,121.51846,27,4,23,1,2025-06-01 04:37:29
2025-05-31T20:44+00:00,500109065,北投區,YouBike2.0_奇岩一號公園,25.12862,121.5033,24,0,24,0,2025-06-01 04:37:29
2025-05-31T20:44+00:00,500109066,北投區,YouBike2.0_福星公園,25.1094,121.51248,30,19,11,1,2025-06-01 04:37:29
2025-05-31T20:44+00:00,500109067,北投區,YouBike2.0_中庸公園,25.13774,121.50142,12,12,0,1,2025-06-01 04:37:29
2025-05-31T20:44+00:00,500109068,北投區,YouBike2.0_豐年公園_1,25.13529,121.49664,33,28,5,1,2025-06-01 04:37:29
2025-05-31T20:44+00:00,500109070,北投區,YouBike2.0_光明溫泉路口,25.13431,121.50226,30,17,13,1,2025-06-01 04:37:29
2025-05-31T20:44+00:00,500109071,北投區,YouBike2.0_和信治癌中心醫院,25.12757,121.47207,25,5,20,1,2025-06-01 04:37:29
2025-05-31T20:44+00:00,500109072,北投區,YouBike2.0_致遠新村,25.14319,121.49093,22,4,18,1,2025-06-01 04:37:29
2025-05-31T20:44+00:00,500109073,北投區,YouBike2.0_北投公園露天溫泉,25.13684,121.50792,15,4,11,1,2025-06-01 04:37:29
2025-05-31T20:44+00:00,500109075,北投區,YouBike2.0_捷運北投站(1號出口),25.13258,121.49862,58,12,46,1,2025-06-01 04:37:29
2025-05-31T20:44+00:00,500109077,北投區,YouBike2.0_捷運唭哩岸站(1號出口),25.12082,121.50727,20,9,11,1,2025-06-01 04:37:29
2025-05-31T20:44+00:00,500109079,北投區,YouBike2.0_捷運忠義站(2號出口),25.13076,121.47347,33,18,15,1,2025-06-01 04:37:29
2025-05-31T20:44+00:00,500109080,北投區,YouBike2.0_福國承德路口,25.10171,121.51263,15,9,6,1,2025-06-01 04:37:29
2025-05-31T20:44+00:00,500109081,北投區,YouBike2.0_捷運北投站(1號出口)(北投路側),25.13201,121.49817,40,5,35,1,2025-06-01 04:37:29
2025-05-31T20:44+00:00,500109082,北投區,YouBike2.0_華固創富中心,25.10392,121.51244,15,5,10,1,2025-06-01 04:37:29
2025-05-31T20:44+00:00,500109084,北投區,YouBike2.0_崇仰公園(公舘路255巷),25.12595,121.51098,20,14,6,1,2025-06-01 04:37:29
2025-05-31T20:44+00:00,500109085,北投區,YouBike2.0_北投文化公園(北側),25.13713,121.49706,20,14,5,1,2025-06-01 04:37:29
2025-05-31T20:44+00:00,500109089,北投區,YouBike2.0_文林北明德路口(東北側),25.10576,121.5173,15,11,4,1,2025-06-01 04:37:29
2025-05-31T20:44+00:00,500109091,北投區,YouBike2.0_永興路一段32巷口,25.13905,121.50012,12,10,2,1,2025-06-01 04:37:29
2025-05-31T20:44+00:00,500109092,北投區,YouBike2.0_國立陽明交通大學(甲棟),25.11944,121.51453,30,11,18,1,2025-06-01 04:37:29
2025-05-31T20:44+00:00,500109093,北投區,YouBike2.0_關渡國中,25.11955,121.46735,24,15,8,1,2025-06-01 04:37:29
2025-05-31T20:44+00:00,500109095,北投區,YouBike2.0_承德路七段401巷(洲美橋下),25.11483,121.49934,25,11,14,1,2025-06-01 04:37:29
2025-05-31T20:44+00:00,500109096,北投區,YouBike2.0_大業路(農禪寺),25.12231,121.49964,16,1,15,1,2025-06-01 04:37:29
2025-05-31T20:44+00:00,500109097,北投區,YouBike2.0_中國電影製片廠,25.13843,121.48802,15,3,11,1,2025-06-01 04:37:29
2025-05-31T20:44+00:00,500109099,北投區,YouBike2.0_捷運石牌站(2號出口)(西安街一段),25.11332,121.51615,23,4,18,1,2025-06-01 04:37:29
2025-05-31T20:44+00:00,500109101,北投區,YouBike2.0_關渡碼頭,25.12066,121.46228,50,39,11,1,2025-06-01 04:37:29
2025-05-31T20:44+00:00,500109102,北投區,YouBike2.0_珠海路(48號公園),25.14262,121.51218,21,7,14,1,2025-06-01 04:37:29
2025-05-31T20:44+00:00,500109104,北投區,YouBike2.0_石牌路二段324巷口,25.12164,121.52404,15,10,3,1,2025-06-01 04:37:29
2025-05-31T20:44+00:00,500109109,北投區,YouBike2.0_溫泉路68巷6弄口,25.13401,121.50564,19,7,11,1,2025-06-01 04:37:29
2025-05-31T20:44+00:00,500110004,松山區,YouBike2.0_鵬程公園,25.05503,121.56876,24,13,8,1,2025-06-01 04:37:29
2025-05-31T20:44+00:00,500110005,松山區,YouBike2.0_中崙高中,25.04878,121.56087,77,13,63,1,2025-06-01 04:37:29
2025-05-31T20:44+00:00,500110006,松山區,YouBike2.0_捷運南京三民站(2號出口),25.05136,121.56283,19,3,16,1,2025-06-01 04:37:29
2025-05-31T20:44+00:00,500110007,松山區,YouBike2.0_捷運南京三民站(1號出口),25.05155,121.5636,39,9,29,1,2025-06-01 04:37:29
2025-05-31T20:44+00:00,500110009,松山區,YouBike2.0_捷運南京三民站(4號出口),25.05152,121.5646,13,8,5,1,2025-06-01 04:37:29
2025-05-31T20:44+00:00,500110010,松山區,YouBike2.0_西松高中,25.05492,121.56701,14,8,6,1,2025-06-01 04:37:29
2025-05-31T20:44+00:00,500110011,松山區,YouBike2.0_民權復興路口,25.0622,121.54565,36,16,20,1,2025-06-01 04:37:29
2025-05-31T20:44+00:00,500110012,松山區,YouBike2.0_民福三號綠地,25.06374,121.54767,20,18,2,1,2025-06-01 04:37:29
2025-05-31T20:44+00:00,500110013,松山區,YouBike2.0_民有一號公園,25.06095,121.54731,41,37,3,1,2025-06-01 04:37:29
2025-05-31T20:44+00:00,500110015,松山區,YouBike2.0_松基公園,25.0546,121.54486,20,15,5,1,2025-06-01 04:37:29
2025-05-31T20:44+00:00,500110016,松山區,YouBike2.0_三民路166巷口,25.0619,121.56328,12,5,7,1,2025-06-01 04:37:29
2025-05-31T20:44+00:00,500110017,松山區,YouBike2.0_民生活動中心,25.05907,121.56305,43,26,17,1,2025-06-01 04:37:29
2025-05-31T20:44+00:00,500110018,松山區,YouBike2.0_捷運小巨蛋站(2號出口),25.05157,121.55118,26,22,4,1,2025-06-01 04:37:29
2025-05-31T20:44+00:00,500110019,松山區,YouBike2.0_臺北市藝文推廣處,25.04826,121.55235,45,7,38,1,2025-06-01 04:37:29
2025-05-31T20:44+00:00,500110021,松山區,YouBike2.0_敦北公園,25.06118,121.55098,48,5,41,1,2025-06-01 04:37:29
2025-05-31T20:44+00:00,500110023,松山區,YouBike2.0_新東公園,25.05925,121.56888,51,31,20,1,2025-06-01 04:37:29
2025-05-31T20:44+00:00,500110026,松山區,YouBike2.0_八德路三段74巷口,25.04459,121.55252,17,14,3,1,2025-06-01 04:37:29
2025-05-31T20:44+00:00,500110027,松山區,YouBike2.0_八德路三段8巷口,25.04488,121.54992,15,6,9,1,2025-06-01 04:37:29
2025-05-31T20:44+00:00,500110028,松山區,YouBike2.0_三軍總醫院(松山分院),25.05419,121.55631,43,10,33,1,2025-06-01 04:37:29
2025-05-31T20:44+00:00,500110029,松山區,YouBike2.0_平安新城,25.05528,121.559,16,10,5,1,2025-06-01 04:37:29
2025-05-31T20:44+00:00,500110031,松山區,YouBike2.0_民權光復路口(東北側),25.06206,121.55475,24,1,23,1,2025-06-01 04:37:29
2025-05-31T20:44+00:00,500110032,松山區,YouBike2.0_市民東興路口,25.0484,121.56586,30,16,13,1,2025-06-01 04:37:29
2025-05-31T20:44+00:00,500110034,松山區,YouBike2.0_光復南路46巷,25.04606,121.55665,23,0,23,0,2025-06-01 04:37:29
2025-05-31T20:44+00:00,500110035,松山區,YouBike2.0_松山新城,25.05347,121.55436,27,8,19,1,2025-06-01 04:37:29
2025-05-31T20:44+00:00,500110036,松山區,YouBike2.0_國土管理署,25.04769,121.5448,33,13,20,1,2025-06-01 04:37:29
2025-05-31T20:44+00:00,500110037,松山區,YouBike2.0_南京光復路口,25.05143,121.55716,31,4,27,1,2025-06-01 04:37:29
2025-05-31T20:44+00:00,500110038,松山區,YouBike2.0_民生立體停車場,25.05846,121.55947,24,21,2,1,2025-06-01 04:37:29
2025-05-31T20:44+00:00,500110039,松山區,YouBike2.0_健康新城,25.05408,121.56095,44,34,10,1,2025-06-01 04:37:29
2025-05-31T20:44+00:00,500110040,松山區,YouBike2.0_健安新城,25.05606,121.56345,30,22,8,1,2025-06-01 04:37:29
2025-05-31T20:44+00:00,500110041,松山區,YouBike2.0_復盛公園,25.04763,121.56115,37,27,10,1,2025-06-01 04:37:29
2025-05-31T20:44+00:00,500110042,松山區,YouBike2.0_中崙福成宮,25.04524,121.54659,31,29,1,1,2025-06-01 04:37:29
2025-05-31T20:44+00:00,500110043,松山區,YouBike2.0_捷運南京復興站(7號出口),25.05278,121.54478,15,5,10,1,2025-06-01 04:37:29
2025-05-31T20:44+00:00,500110044,松山區,YouBike2.0_捷運南京復興站(5號出口),25.05168,121.54506,52,27,24,1,2025-06-01 04:37:29
2025-05-31T20:44+00:00,500110045,松山區,YouBike2.0_塔悠疏散門,25.0648,121.56788,32,23,8,1,2025-06-01 04:37:29
2025-05-31T20:44+00:00,500110047,松山區,YouBike2.0_捷運小巨蛋站(5號出口),25.05176,121.55352,22,12,10,1,2025-06-01 04:37:29
2025-05-31T20:44+00:00,500110048,松山區,YouBike2.0_敦化長春路口,25.0536,121.54871,34,7,26,1,2025-06-01 04:37:29
2025-05-31T20:44+00:00,500110049,松山區,YouBike2.0_饒河疏散門(基四號疏散門),25.05147,121.57683,19,7,9,1,2025-06-01 04:37:29
2025-05-31T20:44+00:00,500110050,松山區,YouBike2.0_捷運松山站(2號出口),25.05013,121.57635,14,2,12,1,2025-06-01 04:37:29
2025-05-31T20:44+00:00,500110051,松山區,YouBike2.0_民權東路三段106巷口,25.062,121.54472,22,4,18,1,2025-06-01 04:37:29
2025-05-31T20:44+00:00,500110052,松山區,YouBike2.0_南京東路五段59巷口,25.05163,121.55907,17,13,3,1,2025-06-01 04:37:29
2025-05-31T20:44+00:00,500110053,松山區,YouBike2.0_三民公園(塔悠路),25.06241,121.56831,20,11,9,1,2025-06-01 04:37:29
2025-05-31T20:44+00:00,500110055,松山區,YouBike2.0_西松公園,25.05406,121.56407,11,7,4,1,2025-06-01 04:37:29
2025-05-31T20:44+00:00,500110056,松山區,YouBike2.0_長壽公園,25.05378,121.55893,22,20,2,1,2025-06-01 04:37:29
2025-05-31T20:44+00:00,500110057,松山區,YouBike2.0_復源公園,25.04634,121.5542,14,7,4,1,2025-06-01 04:37:29
2025-05-31T20:44+00:00,500110059,松山區,YouBike2.0_臺北田徑場(北寧路側),25.04954,121.55261,37,31,6,1,2025-06-01 04:37:29
2025-05-31T20:44+00:00,500110060,松山區,YouBike2.0_西松高中(健康路325巷),25.05567,121.56713,31,17,14,1,2025-06-01 04:37:29
2025-05-31T20:44+00:00,500110061,松山區,YouBike2.0_南京東興路口,25.05149,121.56535,30,15,13,1,2025-06-01 04:37:29
2025-05-31T20:44+00:00,500110062,松山區,YouBike2.0_捷運松山站(3號出口),25.04962,121.57746,52,18,19,1,2025-06-01 04:37:29
2025-05-31T20:44+00:00,500110063,松山區,YouBike2.0_介壽國中,25.05722,121.55706,30,12,18,1,2025-06-01 04:37:29
2025-05-31T20:44+00:00,500110064,松山區,YouBike2.0_敦化南京路口(東北側),25.05226,121.54926,25,8,17,1,2025-06-01 04:37:29
2025-05-31T20:44+00:00,500110067,松山區,YouBike2.0_八德立體停車場,25.04985,121.57189,34,4,30,1,2025-06-01 04:37:29
2025-05-31T20:44+00:00,500110068,松山區,YouBike2.0_長春慶城街口,25.05452,121.54636,28,5,22,1,2025-06-01 04:37:29
2025-05-31T20:44+00:00,500110069,松山區,YouBike2.0_八德路四段652巷口,25.04942,121.57503,20,12,8,1,2025-06-01 04:37:29
2025-05-31T20:44+00:00,500110071,松山區,YouBike2.0_捷運小巨蛋站(3號出口),25.05152,121.55243,28,18,10,1,2025-06-01 04:37:29
2025-05-31T20:44+00:00,500110072,松山區,YouBike2.0_捷運小巨蛋站(5號出口)_1,25.05181,121.5521,20,10,9,1,2025-06-01 04:37:29
2025-05-31T20:44+00:00,500110073,松山區,YouBike2.0_敦化北路155巷口,25.0542,121.5491,30,4,25,1,2025-06-01 04:37:29
2025-05-31T20:44+00:00,500110080,松山區,YouBike2.0_五常街370巷,25.06432,121.54537,11,9,2,1,2025-06-01 04:37:29
2025-05-31T20:44+00:00,500110081,松山區,YouBike2.0_延壽街119巷口,25.05708,121.56486,15,7,3,1,2025-06-01 04:37:29
2025-05-31T20:44+00:00,500110082,松山區,YouBike2.0_市民東寧路口,25.04742,121.56305,23,18,4,1,2025-06-01 04:37:29
2025-05-31T20:44+00:00,500110083,松山區,YouBike2.0_民福簡易綠地,25.06589,121.54529,15,8,7,1,2025-06-01 04:37:29
2025-05-31T20:44+00:00,500110086,松山區,YouBike2.0_民權敦化路口(西北側),25.06185,121.55,24,7,17,1,2025-06-01 04:37:29
2025-05-31T20:44+00:00,500110087,松山區,YouBike2.0_寶清八德路口(北側),25.05028,121.56879,19,11,7,1,2025-06-01 04:37:29
2025-05-31T20:44+00:00,500110089,松山區,YouBike2.0_新東延壽街口,25.05725,121.56608,24,19,3,1,2025-06-01 04:37:29
2025-05-31T20:44+00:00,500110091,松山區,YouBike2.0_新中街4巷口,25.05779,121.56167,36,26,8,1,2025-06-01 04:37:29
2025-05-31T20:44+00:00,500110092,松山區,YouBike2.0_光復北富錦街口,25.06054,121.55489,25,7,18,1,2025-06-01 04:37:29
2025-05-31T20:44+00:00,500110093,松山區,YouBike2.0_松山國小(東北側),25.05141,121.57972,24,11,13,1,2025-06-01 04:37:29
2025-05-31T20:44+00:00,500110098,松山區,YouBike2.0_中崙高中停車場,25.05023,121.56153,25,14,11,1,2025-06-01 04:37:29
2025-05-31T20:44+00:00,500111001,南港區,YouBike2.0_南港公園(東新街),25.04591,121.59226,25,18,7,1,2025-06-01 04:37:29
2025-05-31T20:44+00:00,500111003,南港區,YouBike2.0_捷運昆陽站(1號出口),25.05014,121.59238,65,11,54,1,2025-06-01 04:37:29
2025-05-31T20:44+00:00,500111004,南港區,YouBike2.0_忠孝東路六段225巷口,25.04919,121.58832,35,30,5,1,2025-06-01 04:37:29
2025-05-31T20:44+00:00,500111005,南港區,YouBike2.0_捷運後山埤站(1號出口),25.04437,121.58133,53,3,49,1,2025-06-01 04:37:29
2025-05-31T20:44+00:00,500111006,南港區,YouBike2.0_合樂公園,25.04843,121.58154,15,3,12,1,2025-06-01 04:37:29
2025-05-31T20:44+00:00,500111008,南港區,YouBike2.0_成德國中,25.04592,121.5882,44,30,14,1,2025-06-01 04:37:29
2025-05-31T20:44+00:00,500111010,南港區,YouBike2.0_研究院舊莊街口,25.04239,121.61683,30,20,10,1,2025-06-01 04:37:29
2025-05-31T20:44+00:00,500111012,南港區,YouBike2.0_國家生技園區,25.04763,121.61145,38,5,33,1,2025-06-01 04:37:29
2025-05-31T20:44+00:00,500111013,南港區,YouBike2.0_捷運南港展覽館站(5號出口),25.05469,121.61669,73,18,54,1,2025-06-01 04:37:29
2025-05-31T20:44+00:00,500111014,南港區,YouBike2.0_中研公園,25.04697,121.61375,40,32,8,1,2025-06-01 04:37:29
2025-05-31T20:44+00:00,500111015,南港區,YouBike2.0_福山公園,25.04499,121.61775,30,27,3,1,2025-06-01 04:37:29
2025-05-31T20:44+00:00,500111017,南港區,YouBike2.0_凌雲市場,25.03564,121.61415,35,16,19,1,2025-06-01 04:37:29
2025-05-31T20:44+00:00,500111018,南港區,YouBike2.0_市民大道八段532號,25.054,121.61334,15,14,1,1,2025-06-01 04:37:29
2025-05-31T20:44+00:00,500111019,南港區,YouBike2.0_捷運南港軟體園區(2號出口),25.05933,121.61677,70,1,69,1,2025-06-01 04:37:29
2025-05-31T20:44+00:00,500111020,南港區,YouBike2.0_南港國小,25.05668,121.61137,41,16,25,1,2025-06-01 04:37:29
2025-05-31T20:44+00:00,500111021,南港區,YouBike2.0_興中立體停車場(興中路),25.05629,121.607,26,19,7,1,2025-06-01 04:37:29
2025-05-31T20:44+00:00,500111022,南港區,YouBike2.0_臺北市立圖書館南港分館,25.05485,121.60866,40,32,8,1,2025-06-01 04:37:29
2025-05-31T20:44+00:00,500111023,南港區,YouBike2.0_東陽公園,25.05716,121.59792,48,37,9,1,2025-06-01 04:37:29
2025-05-31T20:44+00:00,500111024,南港區,YouBike2.0_向陽南港路口,25.05437,121.59423,44,8,36,1,2025-06-01 04:37:29
2025-05-31T20:44+00:00,500111025,南港區,YouBike2.0_南港車站(忠孝東路七段415巷),25.05252,121.60922,11,5,6,1,2025-06-01 04:37:29
2025-05-31T20:44+00:00,500111028,南港區,YouBike2.0_東新國小,25.05507,121.6028,22,17,5,1,2025-06-01 04:37:29
2025-05-31T20:44+00:00,500111030,南港區,YouBike2.0_六福公園,25.04681,121.61703,19,14,5,1,2025-06-01 04:37:29
2025-05-31T20:44+00:00,500111031,南港區,YouBike2.0_南港加壓站,25.04805,121.61594,24,14,10,1,2025-06-01 04:37:29
2025-05-31T20:44+00:00,500111032,南港區,YouBike2.0_臺北流行音樂中心(南港路),25.05343,121.59945,21,8,13,1,2025-06-01 04:37:29
2025-05-31T20:44+00:00,500111033,南港區,YouBike2.0_興南公園,25.05766,121.60396,26,11,15,1,2025-06-01 04:37:29
2025-05-31T20:44+00:00,500111034,南港區,YouBike2.0_臺北流行音樂中心(市民大道),25.05211,121.59839,32,6,26,1,2025-06-01 04:37:29
2025-05-31T20:44+00:00,500111036,南港區,YouBike2.0_忠孝東路七段527巷口,25.05266,121.61275,26,19,6,1,2025-06-01 04:37:29
2025-05-31T20:44+00:00,500111037,南港區,YouBike2.0_南港軟體園區(新民街),25.05627,121.61369,25,13,12,1,2025-06-01 04:37:29
2025-05-31T20:44+00:00,500111040,南港區,YouBike2.0_新新公園(昆陽街60巷),25.0521,121.59053,20,8,12,1,2025-06-01 04:37:29
2025-05-31T20:44+00:00,500111041,南港區,YouBike2.0_南港高中(昆陽街),25.05285,121.59279,26,14,12,1,2025-06-01 04:37:29
2025-05-31T20:44+00:00,500111042,南港區,YouBike2.0_南港路三段290巷口,25.05234,121.58152,20,16,4,1,2025-06-01 04:37:29
2025-05-31T20:44+00:00,500111043,南港區,YouBike2.0_南港路三段220巷口,25.05289,121.58599,25,20,5,1,2025-06-01 04:37:29
2025-05-31T20:44+00:00,500111046,南港區,YouBike2.0_捷運後山埤站(3號出口),25.04511,121.5836,18,7,11,1,2025-06-01 04:37:29
2025-05-31T20:44+00:00,500111047,南港區,YouBike2.0_玉成公園運動中心,25.04193,121.58493,26,14,12,1,2025-06-01 04:37:29
2025-05-31T20:44+00:00,500111048,南港區,YouBike2.0_百福公園,25.03884,121.58788,25,17,8,1,2025-06-01 04:37:29
2025-05-31T20:44+00:00,500111050,南港區,YouBike2.0_園區重陽路口,25.05937,121.61072,21,10,11,1,2025-06-01 04:37:29
2025-05-31T20:44+00:00,500111051,南港區,YouBike2.0_南港車站B棟(市民大道),25.05293,121.60549,24,3,21,1,2025-06-01 04:37:29
2025-05-31T20:44+00:00,500111052,南港區,YouBike2.0_胡適公園,25.04014,121.61766,25,10,15,1,2025-06-01 04:37:29
2025-05-31T20:44+00:00,500111056,南港區,YouBike2.0_捷運南港展覽館站(7號出口),25.05436,121.6181,42,2,15,1,2025-06-01 04:37:29
2025-05-31T20:44+00:00,500111057,南港區,YouBike2.0_力行橋(南港),25.05172,121.61686,18,13,5,1,2025-06-01 04:37:29
2025-05-31T20:44+00:00,500111058,南港區,YouBike2.0_舊莊國小(舊莊街一段),25.03987,121.62015,18,12,6,1,2025-06-01 04:37:29
2025-05-31T20:44+00:00,500111059,南港區,YouBike2.0_向陽公園,25.05705,121.59265,24,10,14,1,2025-06-01 04:37:29
2025-05-31T20:44+00:00,500111060,南港區,YouBike2.0_小彎社會住宅,25.0582,121.59368,51,44,6,1,2025-06-01 04:37:29
2025-05-31T20:44+00:00,500111061,南港區,YouBike2.0_捷運南港展覽館站(6號出口),25.05465,121.6185,25,7,18,1,2025-06-01 04:37:29
2025-05-31T20:44+00:00,500111062,南港區,YouBike2.0_捷運南港展覽館站(4號出口),25.05535,121.61838,39,19,20,1,2025-06-01 04:37:29
2025-05-31T20:44+00:00,500111066,南港區,YouBike2.0_昆陽公園,25.0483,121.59425,14,8,6,1,2025-06-01 04:37:29
2025-05-31T20:44+00:00,500111067,南港區,YouBike2.0_南港路二段178巷口,25.05368,121.59969,18,8,10,1,2025-06-01 04:37:29
2025-05-31T20:44+00:00,500111068,南港區,YouBike2.0_南港車站(忠孝東路),25.05225,121.60766,24,11,13,1,2025-06-01 04:37:29
2025-05-31T20:44+00:00,500111069,南港區,YouBike2.0_南港車站(興華路),25.05343,121.60633,48,15,32,1,2025-06-01 04:37:29
2025-05-31T20:44+00:00,500111071,南港區,YouBike2.0_玉東公園(東新街),25.04998,121.58383,25,19,6,1,2025-06-01 04:37:29
2025-05-31T20:44+00:00,500111072,南港區,YouBike2.0_南港出租國宅社區,25.03878,121.59302,25,7,18,1,2025-06-01 04:37:29
2025-05-31T20:44+00:00,500111073,南港區,YouBike2.0_成福路197巷口,25.04066,121.58877,15,0,10,1,2025-06-01 04:37:29
2025-05-31T20:44+00:00,500111074,南港區,YouBike2.0_南港疏散門(基三號疏散門),25.05543,121.5892,24,22,1,1,2025-06-01 04:37:29
2025-05-31T20:44+00:00,500111075,南港區,YouBike2.0_成德立體停車場,25.04557,121.58629,17,13,4,1,2025-06-01 04:37:29
2025-05-31T20:44+00:00,500111076,南港區,YouBike2.0_南港展覽館2館,25.05545,121.61646,18,9,9,1,2025-06-01 04:37:29
2025-05-31T20:44+00:00,500111077,南港區,YouBike2.0_舊莊派出所,25.03827,121.62274,15,12,3,1,2025-06-01 04:37:29
