timestamp,sno,sarea,sna,latitude,longitude,total,available_rent_bikes,available_return_bikes,act,srcUpdateTime
2025-06-21T22:08+00:00,500101001,大安區,YouBike2.0_捷運科技大樓站,25.02605,121.5436,28,10,18,1,2025-06-22 06:01:30
2025-06-21T22:08+00:00,500101002,大安區,YouBike2.0_復興南路二段273號前,25.02565,121.54357,21,18,3,1,2025-06-22 06:01:30
2025-06-21T22:08+00:00,500101003,大安區,YouBike2.0_國北教大實小東側門,25.02429,121.54124,28,19,9,1,2025-06-22 06:01:30
2025-06-21T22:08+00:00,500101005,大安區,YouBike2.0_辛亥復興路口西北側,25.02153,121.54299,16,15,1,1,2025-06-22 06:01:30
2025-06-21T22:08+00:00,500101006,大安區,YouBike2.0_復興南路二段280號前,25.02429,121.54328,27,25,2,1,2025-06-22 06:01:30
2025-06-21T22:08+00:00,500101007,大安區,YouBike2.0_復興南路二段340巷口,25.02253,121.54326,11,9,2,1,2025-06-22 06:01:30
2025-06-21T22:08+00:00,500101008,大安區,YouBike2.0_新生南路三段52號前,25.02112,121.53407,17,3,13,1,2025-06-22 06:01:30
2025-06-21T22:08+00:00,500101009,大安區,YouBike2.0_新生南路三段66號前,25.01976,121.53384,16,3,13,1,2025-06-22 06:01:30
2025-06-21T22:08+00:00,500101010,大安區,YouBike2.0_新生南路三段82號前,25.01894,121.53361,20,5,15,1,2025-06-22 06:01:30
2025-06-21T22:08+00:00,500101019,大安區,YouBike2.0_和平臥龍街口,25.024461,121.546705,24,14,10,1,2025-06-22 06:01:30
2025-06-21T22:08+00:00,500101021,大安區,YouBike2.0_銘傳國小側門,25.01385,121.53549,7,2,5,1,2025-06-22 06:01:30
2025-06-21T22:08+00:00,500101022,大安區,YouBike2.0_捷運公館站(2號出口),25.01491,121.53438,99,9,90,1,2025-06-22 06:01:30
2025-06-21T22:08+00:00,500101025,大安區,YouBike2.0_臺灣科技大學側門,25.01295,121.53973,99,5,94,1,2025-06-22 06:01:30
2025-06-21T22:08+00:00,500101029,大安區,YouBike2.0_臺大環研大樓,25.01234,121.54503,15,10,5,1,2025-06-22 06:01:30
2025-06-21T22:08+00:00,500101037,大安區,YouBike2.0_臺大國青大樓宿舍前,25.02076,121.54432,20,17,3,1,2025-06-22 06:01:30
2025-06-21T22:08+00:00,500101038,大安區,YouBike2.0_臺大社科院圖書館前,25.02101,121.54284,27,4,23,1,2025-06-22 06:01:30
2025-06-21T22:08+00:00,500101039,大安區,YouBike2.0_臺大法人語言訓練中心前,25.02104,121.54081,28,13,15,1,2025-06-22 06:01:30
2025-06-21T22:08+00:00,500101091,大安區,YouBike2.0_國北教大側門南側,25.022864,121.546622,34,17,12,1,2025-06-22 06:01:30
2025-06-21T22:08+00:00,500101094,大安區,YouBike2.0_辛亥泰順街口,25.02193,121.53165,20,12,8,1,2025-06-22 06:01:30
2025-06-21T22:08+00:00,500101097,大安區,YouBike2.0_臥龍樂業街口,25.01856,121.55558,41,33,8,1,2025-06-22 06:01:30
2025-06-21T22:08+00:00,500101104,大安區,YouBike2.0_捷運臺電大樓站(2號出口),25.02021,121.52942,18,6,12,1,2025-06-22 06:01:30
2025-06-21T22:08+00:00,500101105,大安區,YouBike2.0_和平金山路口,25.02669,121.52529,45,1,44,1,2025-06-22 06:01:30
2025-06-21T22:08+00:00,500101109,大安區,YouBike2.0_臺灣師範大學(圖書館),25.0266,121.52973,40,27,12,1,2025-06-22 06:01:30
2025-06-21T22:08+00:00,500101110,大安區,YouBike2.0_捷運古亭站(6號出口),25.0276,121.52217,60,17,43,1,2025-06-22 06:01:30
2025-06-21T22:08+00:00,500101111,大安區,YouBike2.0_捷運古亭站(5號出口),25.02715,121.52293,14,0,14,0,2025-06-22 06:01:30
2025-06-21T22:08+00:00,500101113,大安區,YouBike2.0_臺北市立圖書館(總館),25.02895,121.5379,51,35,16,1,2025-06-22 06:01:30
2025-06-21T22:08+00:00,500101116,大安區,YouBike2.0_金華公園,25.02984,121.53107,44,24,20,1,2025-06-22 06:01:30
2025-06-21T22:08+00:00,500101119,大安區,YouBike2.0_金杭公園,25.03325,121.52436,20,13,7,1,2025-06-22 06:01:30
2025-06-21T22:08+00:00,500101120,大安區,YouBike2.0_愛國金山路口,25.03164,121.52661,43,17,25,1,2025-06-22 06:01:30
2025-06-21T22:08+00:00,500101126,大安區,YouBike2.0_臨江街夜市(基隆路),25.02931,121.55721,29,24,5,1,2025-06-22 06:01:30
2025-06-21T22:08+00:00,500101128,大安區,YouBike2.0_新生南路一段119巷口,25.04003,121.53299,33,9,24,1,2025-06-22 06:01:30
2025-06-21T22:08+00:00,500101129,大安區,YouBike2.0_幸安國小(仁愛路),25.03753,121.53523,28,13,15,1,2025-06-22 06:01:30
2025-06-21T22:08+00:00,500101131,大安區,YouBike2.0_復興南路1段340巷口,25.03701,121.54348,50,10,40,1,2025-06-22 06:01:30
2025-06-21T22:08+00:00,500101133,大安區,YouBike2.0_捷運忠孝復興站(2號出口),25.04035,121.5436,43,34,8,1,2025-06-22 06:01:30
2025-06-21T22:08+00:00,500101137,大安區,YouBike2.0_龍門廣場,25.04092,121.54825,70,13,57,1,2025-06-22 06:01:30
2025-06-21T22:08+00:00,500101138,大安區,YouBike2.0_仁愛安和路口,25.03754,121.55285,33,8,25,1,2025-06-22 06:01:30
2025-06-21T22:08+00:00,500101142,大安區,YouBike2.0_八德市場,25.04463,121.53665,30,27,3,1,2025-06-22 06:01:30
2025-06-21T22:08+00:00,500101148,大安區,YouBike2.0_建國南路一段279巷口,25.03635,121.53833,62,18,44,1,2025-06-22 06:01:30
2025-06-21T22:08+00:00,500101149,大安區,YouBike2.0_捷運忠孝新生站(6號出口),25.04091,121.53295,15,7,8,1,2025-06-22 06:01:30
2025-06-21T22:08+00:00,500101151,大安區,YouBike2.0_大安高工,25.03126,121.54339,23,11,12,1,2025-06-22 06:01:30
2025-06-21T22:08+00:00,500101153,大安區,YouBike2.0_瑠公公園,25.04201,121.54612,20,11,9,1,2025-06-22 06:01:30
2025-06-21T22:08+00:00,500101154,大安區,YouBike2.0_敦化市民路口,25.04405,121.5486,23,14,9,1,2025-06-22 06:01:30
2025-06-21T22:08+00:00,500101159,大安區,YouBike2.0_捷運忠孝復興站(5號出口),25.04253,121.54407,30,18,12,1,2025-06-22 06:01:30
2025-06-21T22:08+00:00,500101166,大安區,YouBike2.0_捷運科技大樓站(台北教育大學),25.02472,121.54417,54,27,21,1,2025-06-22 06:01:30
2025-06-21T22:08+00:00,500101170,大安區,YouBike2.0_成功國宅,25.02681,121.54668,36,31,4,1,2025-06-22 06:01:30
2025-06-21T22:08+00:00,500101171,大安區,YouBike2.0_仁愛延吉街口,25.03748,121.55564,33,11,22,1,2025-06-22 06:01:30
2025-06-21T22:08+00:00,500101172,大安區,YouBike2.0_捷運信義安和站(1號出口),25.03331,121.55265,33,13,19,1,2025-06-22 06:01:30
2025-06-21T22:08+00:00,500101173,大安區,YouBike2.0_敦化南路二段103巷口,25.0287,121.54904,24,8,16,1,2025-06-22 06:01:30
2025-06-21T22:08+00:00,500101174,大安區,YouBike2.0_復興南路二段128巷口,25.02861,121.54336,41,27,14,1,2025-06-22 06:01:30
2025-06-21T22:08+00:00,500101175,大安區,YouBike2.0_和平東建國南路口,25.02575,121.5377,17,5,12,1,2025-06-22 06:01:30
2025-06-21T22:08+00:00,500101180,大安區,YouBike2.0_仁愛路四段48巷口,25.03597,121.54693,12,8,4,1,2025-06-22 06:01:30
2025-06-21T22:08+00:00,500101184,大安區,YouBike2.0_新生南路三段94巷口,25.01744,121.53334,15,3,12,1,2025-06-22 06:01:30
2025-06-21T22:08+00:00,500101185,大安區,YouBike2.0_辛亥新生路口西北側,25.02267,121.5341,40,29,11,1,2025-06-22 06:01:30
2025-06-21T22:08+00:00,500101186,大安區,YouBike2.0_捷運大安站(6號出口),25.03479,121.54376,29,22,6,1,2025-06-22 06:01:30
2025-06-21T22:08+00:00,500101187,大安區,YouBike2.0_臥龍街195巷口,25.01783,121.55224,14,9,5,1,2025-06-22 06:01:30
2025-06-21T22:08+00:00,500101188,大安區,YouBike2.0_辛亥路三段157巷口,25.01727,121.54904,27,16,11,1,2025-06-22 06:01:30
2025-06-21T22:08+00:00,500101192,大安區,YouBike2.0_和平敦化路口,25.02444,121.54908,36,26,9,1,2025-06-22 06:01:30
2025-06-21T22:08+00:00,500101193,大安區,YouBike2.0_基隆長興路口,25.01705,121.54435,51,40,5,1,2025-06-22 06:01:30
2025-06-21T22:08+00:00,500101194,大安區,YouBike2.0_仁愛路四段122巷口,25.03762,121.55009,25,6,19,1,2025-06-22 06:01:30
2025-06-21T22:08+00:00,500101196,大安區,YouBike2.0_市民敦化路口,25.04464,121.54944,32,2,30,1,2025-06-22 06:01:30
2025-06-21T22:08+00:00,500101199,大安區,YouBike2.0_和平新生路口西南側,25.02604,121.534,24,19,5,1,2025-06-22 06:01:30
2025-06-21T22:08+00:00,500101201,大安區,YouBike2.0_信義路三段134巷口,25.03333,121.53968,19,5,14,1,2025-06-22 06:01:30
2025-06-21T22:08+00:00,500101205,大安區,YouBike2.0_四維路170巷口,25.02821,121.54864,22,7,15,1,2025-06-22 06:01:30
2025-06-21T22:08+00:00,500101206,大安區,YouBike2.0_捷運大安站(3號出口),25.03328,121.5425,46,19,27,1,2025-06-22 06:01:30
2025-06-21T22:08+00:00,500101209,大安區,YouBike2.0_臺大資訊大樓,25.02101,121.54153,40,8,31,1,2025-06-22 06:01:30
2025-06-21T22:08+00:00,500101211,大安區,YouBike2.0_原臺北刑務所官舍,25.03054,121.52466,23,19,4,1,2025-06-22 06:01:30
2025-06-21T22:08+00:00,500101213,大安區,YouBike2.0_懷生國中,25.0401,121.54122,24,2,22,1,2025-06-22 06:01:30
2025-06-21T22:08+00:00,500101217,大安區,YouBike2.0_捷運大安站(5號出口),25.03303,121.54372,26,15,11,1,2025-06-22 06:01:30
2025-06-21T22:08+00:00,500101223,大安區,YouBike2.0_樂利路101巷口,25.02528,121.55224,13,6,4,1,2025-06-22 06:01:30
2025-06-21T22:08+00:00,500101224,大安區,YouBike2.0_羅斯福浦城街口,25.02208,121.52678,25,6,19,1,2025-06-22 06:01:30
2025-06-21T22:08+00:00,500101226,大安區,YouBike2.0_通安區民活動中心,25.02942,121.55294,28,14,7,1,2025-06-22 06:01:30
2025-06-21T22:08+00:00,500101227,大安區,YouBike2.0_復興忠孝東路口(東南側),25.04061,121.54389,28,15,13,1,2025-06-22 06:01:30
2025-06-21T22:08+00:00,500101235,大安區,YouBike2.0_光復南路420巷口,25.03601,121.55742,16,10,6,1,2025-06-22 06:01:30
2025-06-21T22:08+00:00,500101237,大安區,YouBike2.0_仁愛復興路口,25.03817,121.544,25,3,22,1,2025-06-22 06:01:30
2025-06-21T22:08+00:00,500101242,大安區,YouBike2.0_和平東路三段308巷口,25.01883,121.5544,14,5,9,1,2025-06-22 06:01:30
2025-06-21T22:08+00:00,500101244,大安區,YouBike2.0_浦城街26巷,25.02324,121.52618,17,3,14,1,2025-06-22 06:01:30
2025-06-21T22:08+00:00,500101245,大安區,YouBike2.0_青峰活動中心,25.01524,121.55121,25,5,19,1,2025-06-22 06:01:30
2025-06-21T22:08+00:00,500101246,大安區,YouBike2.0_忠孝東路三段216巷口,25.04157,121.5402,28,19,9,1,2025-06-22 06:01:30
2025-06-21T22:08+00:00,500101247,大安區,YouBike2.0_捷運忠孝復興站(4號出口),25.04173,121.54412,25,13,12,1,2025-06-22 06:01:30
2025-06-21T22:08+00:00,500101251,大安區,YouBike2.0_捷運忠孝復興站(1號出口),25.04199,121.54362,27,0,0,0,2025-06-22 06:01:30
2025-06-21T22:08+00:00,500101252,大安區,YouBike2.0_政大公企中心,25.03076,121.52781,13,11,2,1,2025-06-22 06:01:30
2025-06-21T22:08+00:00,500101257,大安區,YouBike2.0_龍圖公園,25.0305,121.54184,20,15,5,1,2025-06-22 06:01:30
2025-06-21T22:08+00:00,500101258,大安區,YouBike2.0_新生南路二段54巷口,25.02878,121.53412,8,5,3,1,2025-06-22 06:01:30
2025-06-21T22:08+00:00,500103003,大同區,YouBike2.0_合昌宮,25.07717,121.50934,15,10,5,1,2025-06-22 06:01:30
2025-06-21T22:08+00:00,500103007,大同區,YouBike2.0_陳天來故居,25.05601,121.50895,16,6,10,1,2025-06-22 06:01:30
2025-06-21T22:08+00:00,500103011,大同區,YouBike2.0_重慶國中,25.07567,121.51862,64,6,58,1,2025-06-22 06:01:30
2025-06-21T22:08+00:00,500103012,大同區,YouBike2.0_重慶北路三段383巷口,25.07598,121.51409,34,6,27,1,2025-06-22 06:01:30
2025-06-21T22:08+00:00,500103019,大同區,YouBike2.0_民權延平路口(西北側),25.06326,121.51099,20,3,17,1,2025-06-22 06:01:30
2025-06-21T22:08+00:00,500103020,大同區,YouBike2.0_民權迪化街口,25.06327,121.50943,47,42,5,1,2025-06-22 06:01:30
2025-06-21T22:08+00:00,500103024,大同區,YouBike2.0_捷運大橋頭站(2號出口),25.06314,121.51308,57,39,18,1,2025-06-22 06:01:30
2025-06-21T22:08+00:00,500103026,大同區,YouBike2.0_捷運民權西路站(2號出口),25.06174,121.51969,25,2,22,1,2025-06-22 06:01:30
2025-06-21T22:08+00:00,500103028,大同區,YouBike2.0_捷運北門站(3號出口),25.04991,121.5104,62,27,34,1,2025-06-22 06:01:30
2025-06-21T22:08+00:00,500103031,大同區,YouBike2.0_大龍公園,25.07049,121.51596,26,10,16,1,2025-06-22 06:01:30
2025-06-21T22:08+00:00,500103032,大同區,YouBike2.0_重慶涼州街口,25.06054,121.51338,13,2,11,1,2025-06-22 06:01:30
2025-06-21T22:08+00:00,500103033,大同區,YouBike2.0_圓山線形公園,25.06867,121.51993,26,2,24,1,2025-06-22 06:01:30
2025-06-21T22:08+00:00,500103041,大同區,YouBike2.0_迪化休閒運動公園,25.07491,121.5115,26,15,11,1,2025-06-22 06:01:30
2025-06-21T22:08+00:00,500103043,大同區,YouBike2.0_重慶保安街口(家樂福重慶店),25.05918,121.51373,20,2,18,1,2025-06-22 06:01:30
2025-06-21T22:08+00:00,500103046,大同區,YouBike2.0_民權國中(民權西路),25.06322,121.5144,25,8,17,1,2025-06-22 06:01:30
2025-06-21T22:08+00:00,500103048,大同區,YouBike2.0_南京太原路口,25.05366,121.51638,29,21,8,1,2025-06-22 06:01:30
2025-06-21T22:08+00:00,500103052,大同區,YouBike2.0_捷運民權西路站(3號出口),25.06129,121.52021,50,27,23,1,2025-06-22 06:01:30
2025-06-21T22:08+00:00,500103060,大同區,YouBike2.0_成淵高中,25.06036,121.51996,25,4,21,1,2025-06-22 06:01:30
2025-06-21T22:08+00:00,500103062,大同區,YouBike2.0_寧夏涼州街口,25.06095,121.51428,15,13,2,1,2025-06-22 06:01:30
2025-06-21T22:08+00:00,500103063,大同區,YouBike2.0_延平涼州街口,25.06092,121.51126,14,0,13,1,2025-06-22 06:01:30
2025-06-21T22:08+00:00,500103068,大同區,YouBike2.0_哈密街23巷19弄口,25.07563,121.51815,23,19,4,1,2025-06-22 06:01:30
2025-06-21T22:08+00:00,500103070,大同區,YouBike2.0_重慶北路三段205巷口,25.06997,121.51388,19,13,6,1,2025-06-22 06:01:30
2025-06-21T22:08+00:00,500103071,大同區,YouBike2.0_承德路二段91巷口,25.05621,121.51847,20,7,13,1,2025-06-22 06:01:30
2025-06-21T22:08+00:00,500103072,大同區,YouBike2.0_酒泉庫倫街口,25.07194,121.51626,15,6,9,1,2025-06-22 06:01:30
2025-06-21T22:08+00:00,500103073,大同區,YouBike2.0_民族西大龍街口,25.06864,121.51559,16,13,3,1,2025-06-22 06:01:30
2025-06-21T22:08+00:00,500103078,大同區,YouBike2.0_明倫高中,25.07576,121.52011,32,9,23,1,2025-06-22 06:01:30
2025-06-21T22:08+00:00,500103079,大同區,YouBike2.0_伊寧重慶北路口,25.06465,121.51335,15,3,12,1,2025-06-22 06:01:30
2025-06-21T22:08+00:00,500104001,士林區,YouBike2.0_劍潭抽水站,25.08128,121.51784,17,11,3,1,2025-06-22 06:01:30
2025-06-21T22:08+00:00,500104008,士林區,YouBike2.0_天母運動公園,25.11633,121.53414,50,15,35,1,2025-06-22 06:01:30
2025-06-21T22:08+00:00,500104013,士林區,YouBike2.0_天母北天玉街口,25.12011,121.52652,15,9,6,1,2025-06-22 06:01:30
2025-06-21T22:08+00:00,500104021,士林區,YouBike2.0_芝山抽水站,25.10155,121.52832,41,26,12,1,2025-06-22 06:01:30
2025-06-21T22:08+00:00,500104022,士林區,YouBike2.0_至誠路一段305巷口,25.10186,121.53083,21,17,4,1,2025-06-22 06:01:30
2025-06-21T22:08+00:00,500104023,士林區,YouBike2.0_華齡公園,25.08302,121.52069,32,30,2,1,2025-06-22 06:01:30
2025-06-21T22:08+00:00,500104026,士林區,YouBike2.0_前港公園(前港街),25.0848,121.52125,27,19,6,1,2025-06-22 06:01:30
2025-06-21T22:08+00:00,500104027,士林區,YouBike2.0_百齡高中,25.08736,121.52272,27,6,21,1,2025-06-22 06:01:30
2025-06-21T22:08+00:00,500104030,士林區,YouBike2.0_捷運劍潭站(2號出口),25.08388,121.52535,49,10,39,1,2025-06-22 06:01:30
2025-06-21T22:08+00:00,500104034,士林區,YouBike2.0_中山中正路口,25.09651,121.52753,19,2,17,1,2025-06-22 06:01:30
2025-06-21T22:08+00:00,500104036,士林區,YouBike2.0_陽明高中,25.09164,121.51706,36,17,19,1,2025-06-22 06:01:30
2025-06-21T22:08+00:00,500104039,士林區,YouBike2.0_華聲公園,25.09619,121.5223,35,26,6,1,2025-06-22 06:01:30
2025-06-21T22:08+00:00,500104040,士林區,YouBike2.0_福林公園,25.09419,121.52833,25,4,21,1,2025-06-22 06:01:30
2025-06-21T22:08+00:00,500104041,士林區,YouBike2.0_捷運士林站(2號出口),25.09343,121.52642,30,0,0,0,2025-06-22 06:01:30
2025-06-21T22:08+00:00,500104043,士林區,YouBike2.0_士林高商,25.09435,121.51702,26,5,21,1,2025-06-22 06:01:30
2025-06-21T22:08+00:00,500104044,士林區,YouBike2.0_蘭雅公園,25.10991,121.53039,38,7,31,1,2025-06-22 06:01:30
2025-06-21T22:08+00:00,500104045,士林區,YouBike2.0_聯合醫院陽明院區,25.10455,121.53195,25,10,15,1,2025-06-22 06:01:30
2025-06-21T22:08+00:00,500104050,士林區,YouBike2.0_梅林新村,25.09755,121.54036,25,12,13,1,2025-06-22 06:01:30
2025-06-21T22:08+00:00,500104051,士林區,YouBike2.0_延平北中正路口,25.08678,121.50948,30,16,13,1,2025-06-22 06:01:30
2025-06-21T22:08+00:00,500104054,士林區,YouBike2.0_葫蘆國小,25.08254,121.5075,30,20,10,1,2025-06-22 06:01:30
2025-06-21T22:08+00:00,500104055,士林區,YouBike2.0_士林3號廣場,25.10459,121.52417,38,5,33,1,2025-06-22 06:01:30
2025-06-21T22:08+00:00,500104056,士林區,YouBike2.0_社正公園,25.08824,121.51054,15,3,11,1,2025-06-22 06:01:30
2025-06-21T22:08+00:00,500104057,士林區,YouBike2.0_社子國小,25.09058,121.50142,15,0,15,0,2025-06-22 06:01:30
2025-06-21T22:08+00:00,500104059,士林區,YouBike2.0_忠誠路一段138號,25.10641,121.52944,15,3,11,1,2025-06-22 06:01:30
2025-06-21T22:08+00:00,500104062,士林區,YouBike2.0_泰北高中,25.09763,121.53402,23,17,6,1,2025-06-22 06:01:30
2025-06-21T22:08+00:00,500104063,士林區,YouBike2.0_後港公園,25.09312,121.51419,15,10,5,1,2025-06-22 06:01:30
2025-06-21T22:08+00:00,500104064,士林區,YouBike2.0_重慶北路四段117號,25.08279,121.51219,24,22,2,1,2025-06-22 06:01:30
2025-06-21T22:08+00:00,500104066,士林區,YouBike2.0_延平北路八段133巷口,25.10304,121.48297,22,10,12,1,2025-06-22 06:01:30
2025-06-21T22:08+00:00,500104067,士林區,YouBike2.0_坤天亭,25.1064,121.4836,14,6,8,1,2025-06-22 06:01:30
2025-06-21T22:08+00:00,500104070,士林區,YouBike2.0_福安消防分隊,25.09669,121.49706,20,11,9,1,2025-06-22 06:01:30
2025-06-21T22:08+00:00,500104073,士林區,YouBike2.0_士林新天地,25.08899,121.51751,29,20,9,1,2025-06-22 06:01:30
2025-06-21T22:08+00:00,500104074,士林區,YouBike2.0_蘭雅國小,25.10775,121.52312,30,22,8,1,2025-06-22 06:01:30
2025-06-21T22:08+00:00,500104075,士林區,YouBike2.0_中正基河路口,25.0933,121.51962,37,3,34,1,2025-06-22 06:01:30
2025-06-21T22:08+00:00,500104077,士林區,YouBike2.0_至善臨溪路口,25.09709,121.54229,48,12,34,1,2025-06-22 06:01:30
2025-06-21T22:08+00:00,500104081,士林區,YouBike2.0_雨農橋,25.10012,121.53253,16,8,6,1,2025-06-22 06:01:30
2025-06-21T22:08+00:00,500104082,士林區,YouBike2.0_通河街76巷/承德路四段10巷口,25.08019,121.5202,14,10,1,1,2025-06-22 06:01:30
2025-06-21T22:08+00:00,500104084,士林區,YouBike2.0_至誠雨聲街口,25.10199,121.52927,9,9,0,1,2025-06-22 06:01:30
2025-06-21T22:08+00:00,500104087,士林區,YouBike2.0_基河文林路口,25.08637,121.5247,50,8,42,1,2025-06-22 06:01:30
2025-06-21T22:08+00:00,500104088,士林區,YouBike2.0_文林福華路口,25.10094,121.52243,19,7,12,1,2025-06-22 06:01:30
2025-06-21T22:08+00:00,500104091,士林區,YouBike2.0_捷運劍潭站(1號出口),25.08577,121.52531,70,14,56,1,2025-06-22 06:01:30
2025-06-21T22:08+00:00,500104094,士林區,YouBike2.0_重慶北通河西街口,25.08756,121.51177,12,6,5,1,2025-06-22 06:01:30
2025-06-21T22:08+00:00,500104097,士林區,YouBike2.0_士林區農會社子分部,25.08912,121.5049,8,5,3,1,2025-06-22 06:01:30
2025-06-21T22:08+00:00,500104098,士林區,YouBike2.0_承德劍潭路口,25.0841,121.52341,19,4,14,1,2025-06-22 06:01:30
2025-06-21T22:08+00:00,500104099,士林區,YouBike2.0_文林路101巷口,25.08761,121.52608,17,6,11,1,2025-06-22 06:01:30
2025-06-21T22:08+00:00,500104106,士林區,YouBike2.0_中山北路五段698巷口,25.09765,121.52757,15,5,9,1,2025-06-22 06:01:30
2025-06-21T22:08+00:00,500104107,士林區,YouBike2.0_捷運士林站(1號出口),25.09561,121.52552,38,15,23,1,2025-06-22 06:01:30
2025-06-21T22:08+00:00,500104109,士林區,YouBike2.0_銘傳大學(中山北路五段280巷口),25.08762,121.52711,23,11,11,1,2025-06-22 06:01:30
2025-06-21T22:08+00:00,500104110,士林區,YouBike2.0_海光公園南側,25.08036,121.5084,12,6,4,1,2025-06-22 06:01:30
2025-06-21T22:08+00:00,500104113,士林區,YouBike2.0_士東路91巷口,25.11247,121.52914,16,10,2,1,2025-06-22 06:01:30
2025-06-21T22:08+00:00,500104115,士林區,YouBike2.0_臺北市立大學(忠誠路二段207巷),25.11642,121.53743,17,3,14,1,2025-06-22 06:01:30
2025-06-21T22:08+00:00,500104118,士林區,YouBike2.0_福安河濱公園,25.09646,121.49358,14,10,4,1,2025-06-22 06:01:30
2025-06-21T22:08+00:00,500104120,士林區,YouBike2.0_忠誠忠義街口(南側),25.10519,121.52869,14,12,2,1,2025-06-22 06:01:30
2025-06-21T22:08+00:00,500104121,士林區,YouBike2.0_士林國小,25.09204,121.52472,15,11,4,1,2025-06-22 06:01:30
2025-06-21T22:08+00:00,500104122,士林區,YouBike2.0_雙溪濕地公園,25.09762,121.51321,15,5,10,1,2025-06-22 06:01:30
2025-06-21T22:08+00:00,500104125,士林區,YouBike2.0_忠誠路二段178巷口,25.11633,121.53295,15,2,13,1,2025-06-22 06:01:30
2025-06-21T22:08+00:00,500104128,士林區,YouBike2.0_蘭雅公園(西側),25.10985,121.52859,15,6,6,1,2025-06-22 06:01:30
2025-06-21T22:08+00:00,500104129,士林區,YouBike2.0_福林路100巷77弄口,25.09441,121.53285,18,7,11,1,2025-06-22 06:01:30
2025-06-21T22:08+00:00,500104130,士林區,YouBike2.0_福林路100巷11弄口,25.09601,121.53262,15,10,5,1,2025-06-22 06:01:30
2025-06-21T22:08+00:00,500105002,文山區,YouBike2.0_捷運萬隆站(4號出口),25.0027,121.53861,22,5,17,1,2025-06-22 06:01:30
2025-06-21T22:08+00:00,500105003,文山區,YouBike2.0_捷運萬隆站(1號出口),25.00115,121.53916,34,8,26,1,2025-06-22 06:01:30
2025-06-21T22:08+00:00,500105004,文山區,YouBike2.0_萬和二號公園,25.00154,121.5364,35,26,9,1,2025-06-22 06:01:30
2025-06-21T22:08+00:00,500105006,文山區,YouBike2.0_景仁公園,24.99621,121.54043,16,12,4,1,2025-06-22 06:01:30
2025-06-21T22:08+00:00,500105007,文山區,YouBike2.0_捷運景美站(2號出口),24.99366,121.54124,63,5,58,1,2025-06-22 06:01:30
2025-06-21T22:08+00:00,500105008,文山區,YouBike2.0_羅斯福景隆街口,24.99898,121.5403,50,10,40,1,2025-06-22 06:01:30
2025-06-21T22:08+00:00,500105010,文山區,YouBike2.0_興旺公園,25.00587,121.55012,30,23,7,1,2025-06-22 06:01:30
2025-06-21T22:08+00:00,500105015,文山區,YouBike2.0_師範大學公館校區,25.00792,121.53731,14,11,3,1,2025-06-22 06:01:30
2025-06-21T22:08+00:00,500105016,文山區,YouBike2.0_景華街128巷口,24.99543,121.54725,29,27,2,1,2025-06-22 06:01:30
2025-06-21T22:08+00:00,500105023,文山區,YouBike2.0_捷運辛亥站,25.00467,121.55684,42,4,38,1,2025-06-22 06:01:30
2025-06-21T22:08+00:00,500105024,文山區,YouBike2.0_興豐公園,24.99982,121.54761,25,13,12,1,2025-06-22 06:01:30
2025-06-21T22:08+00:00,500105031,文山區,YouBike2.0_永安藝文館_表演36房,24.98414,121.56907,29,13,16,1,2025-06-22 06:01:30
2025-06-21T22:08+00:00,500105032,文山區,YouBike2.0_忠順區民活動中心,24.98471,121.56332,31,27,4,1,2025-06-22 06:01:30
2025-06-21T22:08+00:00,500105034,文山區,YouBike2.0_老泉街籃球場,24.97619,121.5583,20,15,5,1,2025-06-22 06:01:30
2025-06-21T22:08+00:00,500105037,文山區,YouBike2.0_興隆公共住宅D2區,24.98814,121.56356,27,13,14,1,2025-06-22 06:01:30
2025-06-21T22:08+00:00,500105044,文山區,YouBike2.0_秀明路一段185巷口,24.99151,121.56836,20,0,20,0,2025-06-22 06:01:30
2025-06-21T22:08+00:00,500105046,文山區,YouBike2.0_恆光橋(老泉街),24.97989,121.56753,13,10,3,1,2025-06-22 06:01:30
2025-06-21T22:08+00:00,500105061,文山區,YouBike2.0_師範大學公館校區_1,25.00753,121.53719,34,19,15,1,2025-06-22 06:01:30
2025-06-21T22:08+00:00,500105064,文山區,YouBike2.0_敦南山林,25.00264,121.5768,14,8,6,1,2025-06-22 06:01:30
2025-06-21T22:08+00:00,500105066,文山區,YouBike2.0_景美污水抽水站,25.01076,121.53637,15,4,10,1,2025-06-22 06:01:30
2025-06-21T22:08+00:00,500105067,文山區,YouBike2.0_萬和三號公園(北側),25.00345,121.53636,13,8,5,1,2025-06-22 06:01:30
2025-06-21T22:08+00:00,500105068,文山區,YouBike2.0_景興國中,24.99609,121.54284,10,8,2,1,2025-06-22 06:01:30
2025-06-21T22:08+00:00,500105072,文山區,YouBike2.0_萬興國小,24.98939,121.57682,25,14,11,1,2025-06-22 06:01:30
2025-06-21T22:08+00:00,500105073,文山區,YouBike2.0_辛亥路四段77巷口,25.00743,121.55877,14,9,5,1,2025-06-22 06:01:30
2025-06-21T22:08+00:00,500105074,文山區,YouBike2.0_景興路42巷口,24.99696,121.54454,12,2,10,1,2025-06-22 06:01:30
2025-06-21T22:08+00:00,500105076,文山區,YouBike2.0_木柵路二段109巷,24.98944,121.56195,15,11,4,1,2025-06-22 06:01:30
2025-06-21T22:08+00:00,500105080,文山區,YouBike2.0_萬美萬安街口,25.00223,121.57039,25,12,13,1,2025-06-22 06:01:30
2025-06-21T22:08+00:00,500105082,文山區,YouBike2.0_新光秀明路口,24.99197,121.57371,15,0,13,1,2025-06-22 06:01:30
2025-06-21T22:08+00:00,500105084,文山區,YouBike2.0_光輝公園,24.98655,121.5552,27,8,19,1,2025-06-22 06:01:30
2025-06-21T22:08+00:00,500105086,文山區,YouBike2.0_興隆路二段275巷1弄口,25.00268,121.55277,16,10,6,1,2025-06-22 06:01:30
2025-06-21T22:08+00:00,500105088,文山區,YouBike2.0_樟新街8巷,24.97932,121.55406,17,11,6,1,2025-06-22 06:01:30
2025-06-21T22:08+00:00,500105090,文山區,YouBike2.0_木柵萬芳路口,24.99509,121.57199,29,0,29,1,2025-06-22 06:01:30
2025-06-21T22:08+00:00,500105092,文山區,YouBike2.0_辛亥木柵路口,24.98839,121.55238,20,15,5,1,2025-06-22 06:01:30
2025-06-21T22:08+00:00,500105096,文山區,YouBike2.0_木新路三段155巷口,24.98184,121.56125,15,9,5,1,2025-06-22 06:01:30
2025-06-21T22:08+00:00,500105102,文山區,YouBike2.0_世新大學(試院路),24.98981,121.54783,16,12,4,1,2025-06-22 06:01:30
2025-06-21T22:08+00:00,500105103,文山區,YouBike2.0_興隆社會住宅D1區,24.98783,121.55831,31,3,28,1,2025-06-22 06:01:30
2025-06-21T22:08+00:00,500105106,文山區,YouBike2.0_政大國際會館,24.98994,121.57513,20,11,9,1,2025-06-22 06:01:30
2025-06-21T22:08+00:00,500105108,文山區,YouBike2.0_景美國小,24.9893,121.53976,25,15,10,1,2025-06-22 06:01:30
2025-06-21T22:08+00:00,500105110,文山區,YouBike2.0_保儀路142巷,24.98327,121.56515,22,9,13,1,2025-06-22 06:01:30
2025-06-21T22:08+00:00,500105111,文山區,YouBike2.0_和興水岸社會住宅,24.98505,121.54953,29,16,13,1,2025-06-22 06:01:30
2025-06-21T22:08+00:00,500105115,文山區,YouBike2.0_興隆社會住宅A區,24.988,121.56018,30,5,25,1,2025-06-22 06:01:30
2025-06-21T22:08+00:00,500106002,中正區,YouBike2.0_汀州思源街口東南側,25.014697,121.531908,20,1,19,1,2025-06-22 06:01:30
2025-06-21T22:08+00:00,500106003,中正區,YouBike2.0_捷運公館站(1號出口),25.014529,121.534374,12,4,8,1,2025-06-22 06:01:30
2025-06-21T22:08+00:00,500106004,中正區,YouBike2.0_捷運公館站(4號出口),25.015069,121.533828,12,1,10,1,2025-06-22 06:01:30
2025-06-21T22:08+00:00,500106005,中正區,YouBike2.0_捷運古亭站(9號出口),25.02694,121.52224,24,10,14,1,2025-06-22 06:01:30
2025-06-21T22:08+00:00,500106006,中正區,YouBike2.0_捷運古亭站(2號出口),25.0255,121.52346,55,6,49,1,2025-06-22 06:01:30
2025-06-21T22:08+00:00,500106009,中正區,YouBike2.0_河堤國小,25.02277,121.52289,39,31,8,1,2025-06-22 06:01:30
2025-06-21T22:08+00:00,500106012,中正區,YouBike2.0_捷運臺電大樓站(4號出口),25.02102,121.52751,13,8,5,1,2025-06-22 06:01:30
2025-06-21T22:08+00:00,500106014,中正區,YouBike2.0_牯嶺公園,25.02338,121.51889,58,41,10,1,2025-06-22 06:01:30
2025-06-21T22:08+00:00,500106018,中正區,YouBike2.0_和平重慶路口,25.02723,121.51659,69,57,10,1,2025-06-22 06:01:30
2025-06-21T22:08+00:00,500106022,中正區,YouBike2.0_捷運中正紀念堂站(3號出口),25.03239,121.51866,36,8,28,1,2025-06-22 06:01:30
2025-06-21T22:08+00:00,500106023,中正區,YouBike2.0_捷運中正紀念堂站(4號出口),25.03376,121.51772,29,8,20,1,2025-06-22 06:01:30
2025-06-21T22:08+00:00,500106025,中正區,YouBike2.0_螢橋國小,25.02609,121.51389,41,29,12,1,2025-06-22 06:01:30
2025-06-21T22:08+00:00,500106028,中正區,YouBike2.0_中華路二段409巷口,25.02598,121.50806,15,7,8,1,2025-06-22 06:01:30
2025-06-21T22:08+00:00,500106030,中正區,YouBike2.0_南海和平路口西南側,25.03024,121.50904,19,2,17,1,2025-06-22 06:01:30
2025-06-21T22:08+00:00,500106037,中正區,YouBike2.0_水源路11_1號旁,25.01602,121.52565,31,19,12,1,2025-06-22 06:01:30
2025-06-21T22:08+00:00,500106038,中正區,YouBike2.0_南門國中,25.03543,121.50834,40,11,28,1,2025-06-22 06:01:30
2025-06-21T22:08+00:00,500106042,中正區,YouBike2.0_華山文創園區,25.04367,121.52849,39,7,32,1,2025-06-22 06:01:30
2025-06-21T22:08+00:00,500106043,中正區,YouBike2.0_捷運善導寺站(1號出口),25.04527,121.5222,46,5,40,1,2025-06-22 06:01:30
2025-06-21T22:08+00:00,500106046,中正區,YouBike2.0_林森仁愛路口,25.03915,121.52163,13,1,12,1,2025-06-22 06:01:30
2025-06-21T22:08+00:00,500106053,中正區,YouBike2.0_寶慶博愛路口,25.04129,121.5112,47,5,42,1,2025-06-22 06:01:30
2025-06-21T22:08+00:00,500106054,中正區,YouBike2.0_法務部,25.03705,121.51249,27,4,23,1,2025-06-22 06:01:30
2025-06-21T22:08+00:00,500106055,中正區,YouBike2.0_臺北市立大學(博愛校區),25.03545,121.51327,81,11,70,1,2025-06-22 06:01:30
2025-06-21T22:08+00:00,500106057,中正區,YouBike2.0_市民金山路口,25.0459,121.53068,70,35,34,1,2025-06-22 06:01:30
2025-06-21T22:08+00:00,500106059,中正區,YouBike2.0_中山堂,25.04412,121.51025,43,1,42,1,2025-06-22 06:01:30
2025-06-21T22:08+00:00,500106066,中正區,YouBike2.0_信義連雲街口,25.03377,121.53041,39,26,12,1,2025-06-22 06:01:30
2025-06-21T22:08+00:00,500106067,中正區,YouBike2.0_臺北轉運站,25.04842,121.51994,68,24,41,1,2025-06-22 06:01:30
2025-06-21T22:08+00:00,500106068,中正區,YouBike2.0_莒光大埔街口,25.03132,121.50519,32,25,7,1,2025-06-22 06:01:30
2025-06-21T22:08+00:00,500106073,中正區,YouBike2.0_北平東杭州北路口,25.04553,121.52736,20,5,14,1,2025-06-22 06:01:30
2025-06-21T22:08+00:00,500106078,中正區,YouBike2.0_徐州杭州路口,25.04023,121.52565,30,10,20,1,2025-06-22 06:01:30
2025-06-21T22:08+00:00,500106083,中正區,YouBike2.0_臺北市國父史蹟館(逸仙公園),25.04779,121.52042,31,5,26,1,2025-06-22 06:01:30
2025-06-21T22:08+00:00,500106087,中正區,YouBike2.0_台北市替代役中心,25.01808,121.5275,15,8,7,1,2025-06-22 06:01:30
2025-06-21T22:08+00:00,500106088,中正區,YouBike2.0_紹興徐州路口,25.04051,121.52401,18,14,4,1,2025-06-22 06:01:30
2025-06-21T22:08+00:00,500106089,中正區,YouBike2.0_羅斯福寧波東街口,25.03145,121.51941,26,4,22,1,2025-06-22 06:01:30
2025-06-21T22:08+00:00,500106093,中正區,YouBike2.0_仁愛金山路口,25.0384,121.52801,9,5,4,1,2025-06-22 06:01:30
2025-06-21T22:08+00:00,500106099,中正區,YouBike2.0_林森北平路口,25.04659,121.52377,20,8,12,1,2025-06-22 06:01:30
2025-06-21T22:08+00:00,500106100,中正區,YouBike2.0_北平紹興路口,25.04597,121.52579,39,5,34,1,2025-06-22 06:01:30
2025-06-21T22:08+00:00,500106101,中正區,YouBike2.0_天津北平路口,25.04692,121.52208,25,14,11,1,2025-06-22 06:01:30
2025-06-21T22:08+00:00,500106102,中正區,YouBike2.0_捷運忠孝新生站(1號出口),25.04272,121.53207,19,0,19,1,2025-06-22 06:01:30
2025-06-21T22:08+00:00,500106106,中正區,YouBike2.0_林森濟南路口(東北側),25.0425,121.5227,26,6,20,1,2025-06-22 06:01:30
2025-06-21T22:08+00:00,500106108,中正區,YouBike2.0_中華南海路口,25.02703,121.50686,15,4,10,1,2025-06-22 06:01:30
2025-06-21T22:08+00:00,500106110,中正區,YouBike2.0_捷運善導寺站(3號出口)(忠孝東路側),25.04467,121.52357,31,15,16,1,2025-06-22 06:01:30
2025-06-21T22:08+00:00,500106111,中正區,YouBike2.0_國家音樂廳,25.03788,121.51904,22,2,20,1,2025-06-22 06:01:30
2025-06-21T22:08+00:00,500106113,中正區,YouBike2.0_濟南路二段8巷口,25.04127,121.52697,14,9,5,1,2025-06-22 06:01:30
2025-06-21T22:08+00:00,500106115,中正區,YouBike2.0_臺灣文學基地,25.04148,121.5287,23,11,12,1,2025-06-22 06:01:30
2025-06-21T22:08+00:00,500106116,中正區,YouBike2.0_重慶南詔安街口,25.02507,121.51645,19,11,8,1,2025-06-22 06:01:30
2025-06-21T22:08+00:00,500106118,中正區,YouBike2.0_捷運中正紀念堂站(2號出口),25.03212,121.51861,12,1,10,1,2025-06-22 06:01:30
2025-06-21T22:08+00:00,500106119,中正區,YouBike2.0_螢圃里小公園,25.02484,121.51973,25,17,7,1,2025-06-22 06:01:30
2025-06-21T22:08+00:00,500106121,中正區,YouBike2.0_泉州寧波西街口,25.02965,121.51415,49,31,18,1,2025-06-22 06:01:30
2025-06-21T22:08+00:00,500106126,中正區,YouBike2.0_捷運善導寺站(5號出口),25.04418,121.52552,31,14,17,1,2025-06-22 06:01:30
2025-06-21T22:08+00:00,500106129,中正區,YouBike2.0_南海路112巷口,25.02757,121.50771,31,13,17,1,2025-06-22 06:01:30
2025-06-21T22:08+00:00,500106130,中正區,YouBike2.0_牯嶺街95巷,25.0255,121.52067,16,12,3,1,2025-06-22 06:01:30
2025-06-21T22:08+00:00,500106131,中正區,YouBike2.0_仁愛紹興路口(北側),25.03862,121.52385,23,1,22,1,2025-06-22 06:01:30
2025-06-21T22:08+00:00,500106132,中正區,YouBike2.0_貴陽博愛路口,25.03896,121.51093,69,8,61,1,2025-06-22 06:01:30
2025-06-21T22:08+00:00,500106141,中正區,YouBike2.0_愛國東路116巷口,25.03276,121.52135,25,17,8,1,2025-06-22 06:01:30
2025-06-21T22:08+00:00,500107004,中山區,YouBike2.0_劍潭社區,25.08524,121.53748,13,9,4,1,2025-06-22 06:01:30
2025-06-21T22:08+00:00,500107005,中山區,YouBike2.0_培英公園,25.08258,121.54462,40,8,30,1,2025-06-22 06:01:30
2025-06-21T22:08+00:00,500107006,中山區,YouBike2.0_樂群二明水路口,25.08009,121.55226,20,3,17,1,2025-06-22 06:01:30
2025-06-21T22:08+00:00,500107008,中山區,YouBike2.0_捷運劍南路站(2號出口),25.084751813542,121.555090270105,40,13,27,1,2025-06-22 06:01:30
2025-06-21T22:08+00:00,500107009,中山區,YouBike2.0_樂群二敬業三路口,25.07985,121.55609,20,11,9,1,2025-06-22 06:01:30
2025-06-21T22:08+00:00,500107012,中山區,YouBike2.0_復興市民路口,25.04585,121.54375,52,18,34,1,2025-06-22 06:01:30
2025-06-21T22:08+00:00,500107013,中山區,YouBike2.0_南京遼寧街口,25.05176,121.54217,42,4,37,1,2025-06-22 06:01:30
2025-06-21T22:08+00:00,500107016,中山區,YouBike2.0_市民林森路口,25.04765,121.52589,40,33,6,1,2025-06-22 06:01:30
2025-06-21T22:08+00:00,500107018,中山區,YouBike2.0_一江公園,25.05316,121.53146,37,21,16,1,2025-06-22 06:01:30
2025-06-21T22:08+00:00,500107021,中山區,YouBike2.0_第二果菜批發市場,25.06642,121.53735,40,30,10,1,2025-06-22 06:01:30
2025-06-21T22:08+00:00,500107026,中山區,YouBike2.0_建國長春路口,25.05469,121.53686,16,4,12,1,2025-06-22 06:01:30
2025-06-21T22:08+00:00,500107028,中山區,YouBike2.0_捷運松江南京站(7號出口),25.05246,121.5332,75,55,20,1,2025-06-22 06:01:30
2025-06-21T22:08+00:00,500107032,中山區,YouBike2.0_建國北路一段17巷,25.04699,121.53735,45,26,19,1,2025-06-22 06:01:30
2025-06-21T22:08+00:00,500107033,中山區,YouBike2.0_江寧公園,25.0614,121.53929,15,9,6,1,2025-06-22 06:01:30
2025-06-21T22:08+00:00,500107034,中山區,YouBike2.0_民權龍江路口,25.06225,121.54107,32,14,18,1,2025-06-22 06:01:30
2025-06-21T22:08+00:00,500107039,中山區,YouBike2.0_農安雙城街口,25.06491,121.52449,15,8,7,1,2025-06-22 06:01:30
2025-06-21T22:08+00:00,500107040,中山區,YouBike2.0_新生德惠街口,25.06652,121.52762,35,23,11,1,2025-06-22 06:01:30
2025-06-21T22:08+00:00,500107042,中山區,YouBike2.0_臺北市立美術館,25.06987,121.52291,24,0,24,1,2025-06-22 06:01:30
2025-06-21T22:08+00:00,500107043,中山區,YouBike2.0_中山民族路口,25.06816,121.52265,16,6,10,1,2025-06-22 06:01:30
2025-06-21T22:08+00:00,500107045,中山區,YouBike2.0_南京林森路口(東南側),25.05201,121.52556,10,5,4,1,2025-06-22 06:01:30
2025-06-21T22:08+00:00,500107049,中山區,YouBike2.0_五常國中,25.06505,121.54366,16,9,7,1,2025-06-22 06:01:30
2025-06-21T22:08+00:00,500107051,中山區,YouBike2.0_民權建國路口,25.06251,121.53765,50,25,25,1,2025-06-22 06:01:30
2025-06-21T22:08+00:00,500107053,中山區,YouBike2.0_新喜公園,25.06533,121.53177,13,3,10,1,2025-06-22 06:01:30
2025-06-21T22:08+00:00,500107054,中山區,YouBike2.0_吉林路407巷口,25.06595,121.53041,15,8,5,1,2025-06-22 06:01:30
2025-06-21T22:08+00:00,500107055,中山區,YouBike2.0_民族松江路口,25.06833,121.5328,17,10,5,1,2025-06-22 06:01:30
2025-06-21T22:08+00:00,500107058,中山區,YouBike2.0_渭水八德路口,25.04573,121.53508,23,11,11,1,2025-06-22 06:01:30
2025-06-21T22:08+00:00,500107059,中山區,YouBike2.0_捷運中山站(2號出口),25.05228,121.52176,33,3,30,1,2025-06-22 06:01:30
2025-06-21T22:08+00:00,500107060,中山區,YouBike2.0_撫順公園,25.06416,121.52203,30,1,29,1,2025-06-22 06:01:30
2025-06-21T22:08+00:00,500107066,中山區,YouBike2.0_建國長安路口,25.04836,121.53669,20,6,14,1,2025-06-22 06:01:30
2025-06-21T22:08+00:00,500107067,中山區,YouBike2.0_市民新生路口,25.04611,121.53193,15,2,13,1,2025-06-22 06:01:30
2025-06-21T22:08+00:00,500107068,中山區,YouBike2.0_民權吉林路口,25.06269,121.53061,15,10,3,1,2025-06-22 06:01:30
2025-06-21T22:08+00:00,500107070,中山區,YouBike2.0_捷運行政大樓,25.05575,121.52168,14,7,6,1,2025-06-22 06:01:30
2025-06-21T22:08+00:00,500107075,中山區,YouBike2.0_國立臺北大學(臺北校區),25.05794,121.54244,38,16,22,1,2025-06-22 06:01:30
2025-06-21T22:08+00:00,500107076,中山區,YouBike2.0_錦州吉林路口,25.06028,121.52991,30,17,13,1,2025-06-22 06:01:30
2025-06-21T22:08+00:00,500107077,中山區,YouBike2.0_中山北路二段59巷口,25.05606,121.5229,12,0,12,0,2025-06-22 06:01:30
2025-06-21T22:08+00:00,500107079,中山區,YouBike2.0_新生錦州街口,25.05955,121.52744,20,17,3,1,2025-06-22 06:01:30
2025-06-21T22:08+00:00,500107080,中山區,YouBike2.0_濱江街199巷口,25.0734,121.53985,15,13,1,1,2025-06-22 06:01:30
2025-06-21T22:08+00:00,500107086,中山區,YouBike2.0_植福樂群路口,25.08303,121.5604,10,4,6,1,2025-06-22 06:01:30
2025-06-21T22:08+00:00,500107087,中山區,YouBike2.0_新興公園,25.06157,121.52439,26,18,7,1,2025-06-22 06:01:30
2025-06-21T22:08+00:00,500107088,中山區,YouBike2.0_南京伊通街口,25.05189,121.53517,11,6,5,1,2025-06-22 06:01:30
2025-06-21T22:08+00:00,500107091,中山區,YouBike2.0_臺北市立圖書館大直分館,25.08152,121.54646,20,7,13,1,2025-06-22 06:01:30
2025-06-21T22:08+00:00,500107096,中山區,YouBike2.0_長春路137巷口,25.05791,121.53114,23,18,4,1,2025-06-22 06:01:30
2025-06-21T22:08+00:00,500107099,中山區,YouBike2.0_長春吉林路口,25.05481,121.53032,10,6,4,1,2025-06-22 06:01:30
2025-06-21T22:08+00:00,500107101,中山區,YouBike2.0_捷運松江南京站(8號出口),25.05215,121.53276,29,10,19,1,2025-06-22 06:01:30
2025-06-21T22:08+00:00,500107102,中山區,YouBike2.0_南京一江街口,25.05215,121.53171,20,9,11,1,2025-06-22 06:01:30
2025-06-21T22:08+00:00,500107103,中山區,YouBike2.0_松江長春路口,25.05499,121.53295,16,4,10,1,2025-06-22 06:01:30
2025-06-21T22:08+00:00,500107107,中山區,YouBike2.0_稻江高級護理家事職業學校,25.06532,121.52848,14,6,7,1,2025-06-22 06:01:30
2025-06-21T22:08+00:00,500107108,中山區,YouBike2.0_捷運大直站(3號出口)_1,25.07934,121.54671,18,7,11,1,2025-06-22 06:01:30
2025-06-21T22:08+00:00,500107111,中山區,YouBike2.0_長春龍江路口,25.05473,121.54026,39,9,30,1,2025-06-22 06:01:30
2025-06-21T22:08+00:00,500107113,中山區,YouBike2.0_建國長春路口(北側),25.05476,121.53693,30,3,27,1,2025-06-22 06:01:30
2025-06-21T22:08+00:00,500107116,中山區,YouBike2.0_劍潭社區_1,25.08476,121.53789,42,28,13,1,2025-06-22 06:01:30
2025-06-21T22:08+00:00,500107119,中山區,YouBike2.0_中428公園,25.07825,121.55337,15,7,8,1,2025-06-22 06:01:30
2025-06-21T22:08+00:00,500107120,中山區,YouBike2.0_復華公園,25.05339,121.5401,20,1,19,1,2025-06-22 06:01:30
2025-06-21T22:08+00:00,500107122,中山區,YouBike2.0_捷運南京復興站(1號出口),25.05253,121.54256,21,9,12,1,2025-06-22 06:01:30
2025-06-21T22:08+00:00,500107124,中山區,YouBike2.0_龍江朱崙街口,25.05004,121.54043,14,2,12,1,2025-06-22 06:01:30
2025-06-21T22:08+00:00,500107125,中山區,YouBike2.0_大直街94巷,25.08431,121.54755,15,0,0,0,2025-06-22 06:01:30
2025-06-21T22:08+00:00,500107126,中山區,YouBike2.0_捷運南京復興站(8號出口),25.05196,121.5433,25,15,10,1,2025-06-22 06:01:30
2025-06-21T22:08+00:00,500107127,中山區,YouBike2.0_民權建國路口(南側),25.06228,121.53702,15,7,8,1,2025-06-22 06:01:30
2025-06-21T22:08+00:00,500107129,中山區,YouBike2.0_新生濱江街口(東南側),25.07059,121.52812,21,0,0,0,2025-06-22 06:01:30
2025-06-21T22:08+00:00,500107132,中山區,YouBike2.0_捷運劍南路站(1號出口),25.08519,121.55498,25,9,16,1,2025-06-22 06:01:30
2025-06-21T22:08+00:00,500107134,中山區,YouBike2.0_長春路258巷2弄口,25.05427,121.53896,15,10,4,1,2025-06-22 06:01:30
2025-06-21T22:08+00:00,500107135,中山區,YouBike2.0_長寧大廈社區(南側),25.05418,121.54332,15,1,14,1,2025-06-22 06:01:30
2025-06-21T22:08+00:00,500107137,中山區,YouBike2.0_中山北路二段62巷口,25.05676,121.52268,12,3,9,1,2025-06-22 06:01:30
2025-06-21T22:08+00:00,500107140,中山區,YouBike2.0_捷運中山站(3號出口),25.05236,121.52212,21,2,18,1,2025-06-22 06:01:30
2025-06-21T22:08+00:00,500107145,中山區,YouBike2.0_建國北路三段86巷口,25.06617,121.53526,15,12,2,1,2025-06-22 06:01:30
2025-06-21T22:08+00:00,500107146,中山區,YouBike2.0_正守公園,25.04808,121.52898,15,4,10,1,2025-06-22 06:01:30
2025-06-21T22:08+00:00,500107151,中山區,YouBike2.0_臺北市立大同高中,25.05484,121.53521,22,9,13,1,2025-06-22 06:01:30
2025-06-21T22:08+00:00,500107152,中山區,YouBike2.0_中崙加油站,25.04634,121.53979,27,15,12,1,2025-06-22 06:01:30
2025-06-21T22:08+00:00,500107153,中山區,YouBike2.0_北安明水路口(自強隧道),25.08578,121.55225,12,2,10,1,2025-06-22 06:01:30
2025-06-21T22:08+00:00,500107156,中山區,YouBike2.0_吉林農安街口(西北側),25.06493,121.53034,15,4,9,1,2025-06-22 06:01:30
2025-06-21T22:08+00:00,500107159,中山區,YouBike2.0_民權中山路口(東北側),25.06292,121.52299,25,4,21,1,2025-06-22 06:01:30
2025-06-21T22:08+00:00,500107161,中山區,YouBike2.0_松江長安路口,25.04819,121.53282,20,16,3,1,2025-06-22 06:01:30
2025-06-21T22:08+00:00,500107162,中山區,YouBike2.0_長安國小,25.05018,121.53008,26,16,10,1,2025-06-22 06:01:30
2025-06-21T22:08+00:00,500107163,中山區,YouBike2.0_中山市場,25.05007,121.52107,16,10,4,1,2025-06-22 06:01:30
2025-06-21T22:08+00:00,500107165,中山區,YouBike2.0_吉林南京路口(西北側),25.05234,121.53003,22,7,15,1,2025-06-22 06:01:30
2025-06-21T22:08+00:00,500107167,中山區,YouBike2.0_捷運劍南路站(3號出口),25.08444,121.55657,46,6,40,1,2025-06-22 06:01:30
2025-06-21T22:08+00:00,500107169,中山區,YouBike2.0_大直抽水站公車站,25.07756,121.54556,27,14,13,1,2025-06-22 06:01:30
2025-06-21T22:08+00:00,500107175,中山區,YouBike2.0_中山北德惠街口,25.06671,121.52257,20,6,13,1,2025-06-22 06:01:30
2025-06-21T22:08+00:00,500107176,中山區,YouBike2.0_晴光公園,25.06411,121.52446,15,7,8,1,2025-06-22 06:01:30
2025-06-21T22:08+00:00,500107178,中山區,YouBike2.0_民生東合江街口,25.05777,121.53951,20,17,3,1,2025-06-22 06:01:30
2025-06-21T22:08+00:00,500107183,中山區,YouBike2.0_松江路184巷口,25.05623,121.53296,21,8,13,1,2025-06-22 06:01:30
2025-06-21T22:08+00:00,500107185,中山區,YouBike2.0_長春路258巷2弄(北側),25.05474,121.5383,19,8,11,1,2025-06-22 06:01:30
2025-06-21T22:08+00:00,500107186,中山區,YouBike2.0_中山北路二段96巷口,25.0598,121.52253,18,3,15,1,2025-06-22 06:01:30
2025-06-21T22:08+00:00,500107187,中山區,YouBike2.0_吉林路236巷口,25.05931,121.53025,21,10,11,1,2025-06-22 06:01:30
2025-06-21T22:08+00:00,500108001,內湖區,YouBike2.0_文湖街21巷118弄口,25.09122,121.55961,28,24,4,1,2025-06-22 06:01:30
2025-06-21T22:08+00:00,500108002,內湖區,YouBike2.0_北勢湖環保公園,25.08378,121.56208,27,16,11,1,2025-06-22 06:01:30
2025-06-21T22:08+00:00,500108005,內湖區,YouBike2.0_文湖國小,25.08637,121.56088,43,22,20,1,2025-06-22 06:01:30
2025-06-21T22:08+00:00,500108007,內湖區,YouBike2.0_德明財經科技大學,25.08637,121.56574,36,30,6,1,2025-06-22 06:01:30
2025-06-21T22:08+00:00,500108008,內湖區,YouBike2.0_麗山國小,25.0826,121.57158,18,10,7,1,2025-06-22 06:01:30
2025-06-21T22:08+00:00,500108009,內湖區,YouBike2.0_麗山高中,25.08398,121.57725,33,17,16,1,2025-06-22 06:01:30
2025-06-21T22:08+00:00,500108012,內湖區,YouBike2.0_安湖三號公園,25.07021,121.61593,16,6,10,1,2025-06-22 06:01:30
2025-06-21T22:08+00:00,500108013,內湖區,YouBike2.0_東湖路113巷95弄,25.07177,121.61491,17,14,2,1,2025-06-22 06:01:30
2025-06-21T22:08+00:00,500108019,內湖區,YouBike2.0_星雲街47號,25.07864,121.59177,22,7,14,1,2025-06-22 06:01:30
2025-06-21T22:08+00:00,500108020,內湖區,YouBike2.0_捷運西湖站(1號出口),25.08301,121.56638,23,6,17,1,2025-06-22 06:01:30
2025-06-21T22:08+00:00,500108025,內湖區,YouBike2.0_成功金龍路口,25.08436,121.59478,29,2,27,1,2025-06-22 06:01:30
2025-06-21T22:08+00:00,500108026,內湖區,YouBike2.0_碧山公園,25.0878,121.59227,31,24,4,1,2025-06-22 06:01:30
2025-06-21T22:08+00:00,500108028,內湖區,YouBike2.0_捷運文德站(2號出口),25.07842,121.58464,49,4,45,1,2025-06-22 06:01:30
2025-06-21T22:08+00:00,500108029,內湖區,YouBike2.0_陽光公園,25.07695,121.58764,16,7,9,1,2025-06-22 06:01:30
2025-06-21T22:08+00:00,500108030,內湖區,YouBike2.0_文德二號公園(南側),25.07504,121.58375,13,9,4,1,2025-06-22 06:01:30
2025-06-21T22:08+00:00,500108034,內湖區,YouBike2.0_潭美街213號,25.05575,121.58486,12,7,5,1,2025-06-22 06:01:30
2025-06-21T22:08+00:00,500108035,內湖區,YouBike2.0_南京東路六段180號,25.0559,121.57991,21,14,7,1,2025-06-22 06:01:30
2025-06-21T22:08+00:00,500108037,內湖區,YouBike2.0_新明路343號,25.05653,121.58345,10,4,6,1,2025-06-22 06:01:30
2025-06-21T22:08+00:00,500108040,內湖區,YouBike2.0_樂康公園,25.07007,121.62055,20,10,10,1,2025-06-22 06:01:30
2025-06-21T22:08+00:00,500108044,內湖區,YouBike2.0_南京東路六段368巷,25.05827,121.58707,73,22,51,1,2025-06-22 06:01:30
2025-06-21T22:08+00:00,500108049,內湖區,YouBike2.0_扶輪親恩公園,25.06709,121.58002,30,21,9,1,2025-06-22 06:01:30
2025-06-21T22:08+00:00,500108052,內湖區,YouBike2.0_行善公園,25.05301,121.57592,25,14,11,1,2025-06-22 06:01:30
2025-06-21T22:08+00:00,500108061,內湖區,YouBike2.0_碧湖公園(內湖路二段103巷),25.08317,121.58109,19,13,6,1,2025-06-22 06:01:30
2025-06-21T22:08+00:00,500108062,內湖區,YouBike2.0_貿七社區,25.08357,121.58534,17,12,5,1,2025-06-22 06:01:30
2025-06-21T22:08+00:00,500108065,內湖區,YouBike2.0_康寧金湖路口,25.07896,121.59921,21,12,9,1,2025-06-22 06:01:30
2025-06-21T22:08+00:00,500108066,內湖區,YouBike2.0_康寧路一段156巷20弄口,25.07792,121.59354,20,8,12,1,2025-06-22 06:01:30
2025-06-21T22:08+00:00,500108067,內湖區,YouBike2.0_安康公園,25.06657,121.6136,25,9,16,1,2025-06-22 06:01:30
2025-06-21T22:08+00:00,500108076,內湖區,YouBike2.0_行善路25巷口,25.05707,121.57658,21,5,16,1,2025-06-22 06:01:30
2025-06-21T22:08+00:00,500108077,內湖區,YouBike2.0_新明路460巷口,25.05503,121.57823,22,10,12,1,2025-06-22 06:01:30
2025-06-21T22:08+00:00,500108082,內湖區,YouBike2.0_捷運內湖站(1號出口),25.08373,121.59406,28,4,24,1,2025-06-22 06:01:30
2025-06-21T22:08+00:00,500108083,內湖區,YouBike2.0_瑞光港墘路口,25.07611,121.57487,30,8,22,1,2025-06-22 06:01:30
2025-06-21T22:08+00:00,500108084,內湖區,YouBike2.0_瑞湖陽光街口,25.07296,121.57603,34,8,25,1,2025-06-22 06:01:30
2025-06-21T22:08+00:00,500108085,內湖區,YouBike2.0_金龍公園,25.08554,121.59076,15,8,7,1,2025-06-22 06:01:30
2025-06-21T22:08+00:00,500108086,內湖區,YouBike2.0_星雲街138巷1弄口,25.07943,121.59544,21,11,8,1,2025-06-22 06:01:30
2025-06-21T22:08+00:00,500108087,內湖區,YouBike2.0_東湖一號公園,25.07567,121.6118,19,9,9,1,2025-06-22 06:01:30
2025-06-21T22:08+00:00,500108088,內湖區,YouBike2.0_東湖二號公園,25.07415,121.61075,25,19,6,1,2025-06-22 06:01:30
2025-06-21T22:08+00:00,500108092,內湖區,YouBike2.0_舊宗行善路口,25.05876,121.58062,22,8,14,1,2025-06-22 06:01:30
2025-06-21T22:08+00:00,500108093,內湖區,YouBike2.0_新湖二路250巷口,25.06455,121.58262,20,7,13,1,2025-06-22 06:01:30
2025-06-21T22:08+00:00,500108095,內湖區,YouBike2.0_金湖星雲街口,25.08151,121.59764,30,17,13,1,2025-06-22 06:01:30
2025-06-21T22:08+00:00,500108102,內湖區,YouBike2.0_行善行愛路口,25.0606,121.58286,12,5,7,1,2025-06-22 06:01:30
2025-06-21T22:08+00:00,500108104,內湖區,YouBike2.0_統振大樓,25.06007,121.60138,25,3,22,1,2025-06-22 06:01:30
2025-06-21T22:08+00:00,500108108,內湖區,YouBike2.0_三民國中(民權東路六段47巷),25.06935,121.58692,13,11,2,1,2025-06-22 06:01:30
2025-06-21T22:08+00:00,500108110,內湖區,YouBike2.0_捷運東湖站,25.06664,121.61351,35,6,29,1,2025-06-22 06:01:30
2025-06-21T22:08+00:00,500108116,內湖區,YouBike2.0_宏匯瑞光廣場(瑞光路),25.07676,121.57433,16,6,10,1,2025-06-22 06:01:30
2025-06-21T22:08+00:00,500108124,內湖區,YouBike2.0_湖興公園,25.06671,121.58913,16,10,6,1,2025-06-22 06:01:30
2025-06-21T22:08+00:00,500108126,內湖區,YouBike2.0_安泰街(康樂橋下),25.07849,121.61666,21,9,12,1,2025-06-22 06:01:30
2025-06-21T22:08+00:00,500108127,內湖區,YouBike2.0_康樂綠地,25.07539,121.6203,20,11,9,1,2025-06-22 06:01:30
2025-06-21T22:08+00:00,500108132,內湖區,YouBike2.0_內湖運動公園,25.06745,121.57513,25,6,19,1,2025-06-22 06:01:30
2025-06-21T22:08+00:00,500108133,內湖區,YouBike2.0_內湖路三段326巷口,25.08968,121.58352,20,7,13,1,2025-06-22 06:01:30
2025-06-21T22:08+00:00,500108134,內湖區,YouBike2.0_成功公園,25.08416,121.59665,11,8,3,1,2025-06-22 06:01:30
2025-06-21T22:08+00:00,500108142,內湖區,YouBike2.0_康寧路三段99巷17弄口,25.0721,121.60991,15,7,8,1,2025-06-22 06:01:30
2025-06-21T22:08+00:00,500108143,內湖區,YouBike2.0_堤頂大道二段407巷口,25.08019,121.56316,15,4,11,1,2025-06-22 06:01:30
2025-06-21T22:08+00:00,500108144,內湖區,YouBike2.0_海德堡科技大樓,25.08156,121.56227,12,7,5,1,2025-06-22 06:01:30
2025-06-21T22:08+00:00,500108145,內湖區,YouBike2.0_致伸科技大樓,25.08067,121.5656,17,10,7,1,2025-06-22 06:01:30
2025-06-21T22:08+00:00,500108147,內湖區,YouBike2.0_大都會客運內湖站,25.06749,121.57784,25,16,9,1,2025-06-22 06:01:30
2025-06-21T22:08+00:00,500108151,內湖區,YouBike2.0_遠雄時代總部,25.07821,121.57103,14,6,8,1,2025-06-22 06:01:30
2025-06-21T22:08+00:00,500108154,內湖區,YouBike2.0_世紀經貿,25.08049,121.57361,16,6,10,1,2025-06-22 06:01:30
2025-06-21T22:08+00:00,500108157,內湖區,YouBike2.0_新湖三行忠路72巷口,25.06605,121.58206,18,6,12,1,2025-06-22 06:01:30
2025-06-21T22:08+00:00,500108158,內湖區,YouBike2.0_新湖三新湖二146巷口,25.06407,121.57787,25,3,22,1,2025-06-22 06:01:30
2025-06-21T22:08+00:00,500108161,內湖區,YouBike2.0_內湖路一段120巷15弄,25.08203,121.56298,32,2,30,1,2025-06-22 06:01:30
2025-06-21T22:08+00:00,500108164,內湖區,YouBike2.0_達爾文大樓,25.07941,121.57277,15,3,12,1,2025-06-22 06:01:30
2025-06-21T22:08+00:00,500108168,內湖區,YouBike2.0_捷運西湖站(1號出口)內湖路側,25.08227,121.56709,20,5,15,1,2025-06-22 06:01:30
2025-06-21T22:08+00:00,500108171,內湖區,YouBike2.0_瑞光路316巷,25.07567,121.57341,20,3,17,1,2025-06-22 06:01:30
2025-06-21T22:08+00:00,500108172,內湖區,YouBike2.0_文德路220巷口,25.07862,121.58796,15,8,7,1,2025-06-22 06:01:30
2025-06-21T22:08+00:00,500108173,內湖區,YouBike2.0_長壽抽水站,25.06099,121.59662,15,3,12,1,2025-06-22 06:01:30
2025-06-21T22:08+00:00,500108174,內湖區,YouBike2.0_捷運葫洲站(2號出口),25.07264,121.60692,20,5,15,1,2025-06-22 06:01:30
2025-06-21T22:08+00:00,500108176,內湖區,YouBike2.0_環山路三段1巷(麗山高中),25.08438,121.57876,18,9,9,1,2025-06-22 06:01:30
2025-06-21T22:08+00:00,500108177,內湖區,YouBike2.0_潭美公園(南京東路六段482號),25.06092,121.58898,29,1,28,1,2025-06-22 06:01:30
2025-06-21T22:08+00:00,500108178,內湖區,YouBike2.0_美善公園,25.05703,121.57861,22,10,12,1,2025-06-22 06:01:30
2025-06-21T22:08+00:00,500108181,內湖區,YouBike2.0_麗山國小(內湖路一段411巷),25.08389,121.57189,22,16,6,1,2025-06-22 06:01:30
2025-06-21T22:08+00:00,500108183,內湖區,YouBike2.0_明湖國小(康寧路三段165巷23弄),25.07165,121.61177,26,8,17,1,2025-06-22 06:01:30
2025-06-21T22:08+00:00,500108184,內湖區,YouBike2.0_康寧路三段70巷153號,25.06658,121.60803,20,3,17,1,2025-06-22 06:01:30
2025-06-21T22:08+00:00,500108186,內湖區,YouBike2.0_明美公園(南京東路六段451巷口),25.06082,121.58757,30,11,19,1,2025-06-22 06:01:30
2025-06-21T22:08+00:00,500108192,內湖區,YouBike2.0_上灣公園,25.06572,121.59778,25,12,13,1,2025-06-22 06:01:30
2025-06-21T22:08+00:00,500108193,內湖區,YouBike2.0_湖興公園(成功路),25.06703,121.59048,21,4,17,1,2025-06-22 06:01:30
2025-06-21T22:08+00:00,500108195,內湖區,YouBike2.0_康寧路一段218巷2弄口,25.07837,121.59652,18,7,9,1,2025-06-22 06:01:30
2025-06-21T22:08+00:00,500108197,內湖區,YouBike2.0_成功路二段406巷口,25.07077,121.59,20,9,11,1,2025-06-22 06:01:30
2025-06-21T22:08+00:00,500108199,內湖區,YouBike2.0_捷運東湖站(2號出口),25.06769,121.61163,20,8,12,1,2025-06-22 06:01:30
2025-06-21T22:08+00:00,500108201,內湖區,YouBike2.0_將軍嶺,25.07457,121.5901,23,9,14,1,2025-06-22 06:01:30
2025-06-21T22:08+00:00,500108202,內湖區,YouBike2.0_文湖街21巷82弄口,25.08899,121.56036,18,11,7,1,2025-06-22 06:01:30
2025-06-21T22:08+00:00,500108204,內湖區,YouBike2.0_國立臺灣戲曲學院(內湖校區),25.08107,121.58609,28,18,10,1,2025-06-22 06:01:30
2025-06-21T22:08+00:00,500108205,內湖區,YouBike2.0_內湖路一段285巷65弄,25.08443,121.56912,19,7,12,1,2025-06-22 06:01:30
2025-06-21T22:08+00:00,500108207,內湖區,YouBike2.0_成美疏散門,25.05734,121.58804,22,10,12,1,2025-06-22 06:01:30
2025-06-21T22:08+00:00,500108208,內湖區,YouBike2.0_大湖國小(大湖山莊街173巷口),25.0878,121.60124,19,15,4,1,2025-06-22 06:01:30
2025-06-21T22:08+00:00,500109007,北投區,YouBike2.0_關渡宮,25.11739,121.46288,62,11,50,1,2025-06-22 06:01:30
2025-06-21T22:08+00:00,500109009,北投區,YouBike2.0_關渡醫院,25.1203,121.4665,14,5,9,1,2025-06-22 06:01:30
2025-06-21T22:08+00:00,500109010,北投區,YouBike2.0_捷運忠義站(1號出口),25.13149,121.47365,30,15,15,1,2025-06-22 06:01:30
2025-06-21T22:08+00:00,500109011,北投區,YouBike2.0_捷運關渡站(1號出口),25.12397,121.46712,99,15,84,1,2025-06-22 06:01:30
2025-06-21T22:08+00:00,500109018,北投區,YouBike2.0_稻香重三路口,25.13997,121.48967,15,0,15,1,2025-06-22 06:01:30
2025-06-21T22:08+00:00,500109024,北投區,YouBike2.0_捷運北投站,25.13187,121.499,30,13,11,1,2025-06-22 06:01:30
2025-06-21T22:08+00:00,500109026,北投區,YouBike2.0_八仙里辦公處,25.12297,121.50158,25,15,8,1,2025-06-22 06:01:30
2025-06-21T22:08+00:00,500109029,北投區,YouBike2.0_立農公園,25.11798,121.50342,21,16,5,1,2025-06-22 06:01:30
2025-06-21T22:08+00:00,500109031,北投區,YouBike2.0_捷運唭哩岸站(2號出口),25.12087,121.50523,48,16,32,1,2025-06-22 06:01:30
2025-06-21T22:08+00:00,500109040,北投區,YouBike2.0_振興公園,25.11865,121.5235,25,7,18,1,2025-06-22 06:01:30
2025-06-21T22:08+00:00,500109041,北投區,YouBike2.0_立農國小,25.11978,121.50422,25,17,4,1,2025-06-22 06:01:30
2025-06-21T22:08+00:00,500109042,北投區,YouBike2.0_承德路七段280巷口,25.11587,121.50576,22,5,14,1,2025-06-22 06:01:30
2025-06-21T22:08+00:00,500109045,北投區,YouBike2.0_中正高中,25.10467,121.51654,31,6,25,1,2025-06-22 06:01:30
2025-06-21T22:08+00:00,500109046,北投區,YouBike2.0_立功立德路口,25.12501,121.47158,41,21,20,1,2025-06-22 06:01:30
2025-06-21T22:08+00:00,500109049,北投區,YouBike2.0_捷運新北投站(2號出口),25.13675,121.50224,24,14,10,1,2025-06-22 06:01:30
2025-06-21T22:08+00:00,500109050,北投區,YouBike2.0_復興公園,25.13872,121.5021,28,24,4,1,2025-06-22 06:01:30
2025-06-21T22:08+00:00,500109052,北投區,YouBike2.0_承德路七段188巷口,25.11416,121.50771,16,15,1,1,2025-06-22 06:01:30
2025-06-21T22:08+00:00,500109055,北投區,YouBike2.0_洲美公園,25.10032,121.50599,30,10,20,1,2025-06-22 06:01:30
2025-06-21T22:08+00:00,500109059,北投區,YouBike2.0_珠海復興一路口,25.14045,121.50446,28,8,20,1,2025-06-22 06:01:30
2025-06-21T22:08+00:00,500109061,北投區,YouBike2.0_新奇岩社會住宅,25.12287,121.5037,12,8,4,1,2025-06-22 06:01:30
2025-06-21T22:08+00:00,500109066,北投區,YouBike2.0_福星公園,25.1094,121.51248,30,17,11,1,2025-06-22 06:01:30
2025-06-21T22:08+00:00,500109068,北投區,YouBike2.0_豐年公園_1,25.13529,121.49664,33,22,8,1,2025-06-22 06:01:30
2025-06-21T22:08+00:00,500109076,北投區,YouBike2.0_石牌立農街口,25.11879,121.51921,29,4,23,1,2025-06-22 06:01:30
2025-06-21T22:08+00:00,500109077,北投區,YouBike2.0_捷運唭哩岸站(1號出口),25.12082,121.50727,20,10,9,1,2025-06-22 06:01:30
2025-06-21T22:08+00:00,500109080,北投區,YouBike2.0_福國承德路口,25.10171,121.51263,15,6,9,1,2025-06-22 06:01:30
2025-06-21T22:08+00:00,500109089,北投區,YouBike2.0_文林北明德路口(東北側),25.10576,121.5173,15,5,9,1,2025-06-22 06:01:30
2025-06-21T22:08+00:00,500109094,北投區,YouBike2.0_立功街55巷口,25.12518,121.46922,21,3,18,1,2025-06-22 06:01:30
2025-06-21T22:08+00:00,500109095,北投區,YouBike2.0_承德路七段401巷(洲美橋下),25.11483,121.49934,25,15,10,1,2025-06-22 06:01:30
2025-06-21T22:08+00:00,500109097,北投區,YouBike2.0_中國電影製片廠,25.13843,121.48802,15,7,8,1,2025-06-22 06:01:30
2025-06-21T22:08+00:00,500109098,北投區,YouBike2.0_北投新興公園,25.13997,121.48711,15,14,1,1,2025-06-22 06:01:30
2025-06-21T22:08+00:00,500109100,北投區,YouBike2.0_華碩立功大樓,25.12771,121.47071,15,9,6,1,2025-06-22 06:01:30
2025-06-21T22:08+00:00,500109101,北投區,YouBike2.0_關渡碼頭,25.12066,121.46228,50,37,12,1,2025-06-22 06:01:30
2025-06-21T22:08+00:00,500109102,北投區,YouBike2.0_珠海路(48號公園),25.14262,121.51218,21,14,7,1,2025-06-22 06:01:30
2025-06-21T22:08+00:00,500109103,北投區,YouBike2.0_承德文林北路口(西側),25.11032,121.51097,16,13,3,1,2025-06-22 06:01:30
2025-06-21T22:08+00:00,500109108,北投區,YouBike2.0_幼華中學(大業路),25.13372,121.49602,26,22,4,1,2025-06-22 06:01:30
2025-06-21T22:08+00:00,500109109,北投區,YouBike2.0_溫泉路68巷6弄口,25.13401,121.50564,19,15,4,1,2025-06-22 06:01:30
2025-06-21T22:08+00:00,500110005,松山區,YouBike2.0_中崙高中,25.04878,121.56087,77,52,25,1,2025-06-22 06:01:30
2025-06-21T22:08+00:00,500110006,松山區,YouBike2.0_捷運南京三民站(2號出口),25.05136,121.56283,19,6,13,1,2025-06-22 06:01:30
2025-06-21T22:08+00:00,500110010,松山區,YouBike2.0_西松高中,25.05492,121.56701,14,5,9,1,2025-06-22 06:01:30
2025-06-21T22:08+00:00,500110011,松山區,YouBike2.0_民權復興路口,25.0622,121.54565,36,11,24,1,2025-06-22 06:01:30
2025-06-21T22:08+00:00,500110012,松山區,YouBike2.0_民福三號綠地,25.06374,121.54767,20,9,10,1,2025-06-22 06:01:30
2025-06-21T22:08+00:00,500110015,松山區,YouBike2.0_松基公園,25.0546,121.54486,20,3,17,1,2025-06-22 06:01:30
2025-06-21T22:08+00:00,500110017,松山區,YouBike2.0_民生活動中心,25.05907,121.56305,43,6,37,1,2025-06-22 06:01:30
2025-06-21T22:08+00:00,500110020,松山區,YouBike2.0_民生國小(敦化北路199巷),25.05633,121.55286,20,15,2,1,2025-06-22 06:01:30
2025-06-21T22:08+00:00,500110028,松山區,YouBike2.0_三軍總醫院(松山分院),25.05419,121.55631,43,15,28,1,2025-06-22 06:01:30
2025-06-21T22:08+00:00,500110030,松山區,YouBike2.0_健康社會住宅,25.05433,121.56545,20,14,6,1,2025-06-22 06:01:30
2025-06-21T22:08+00:00,500110034,松山區,YouBike2.0_光復南路46巷,25.04606,121.55665,23,0,23,0,2025-06-22 06:01:30
2025-06-21T22:08+00:00,500110038,松山區,YouBike2.0_民生立體停車場,25.05846,121.55947,24,11,13,1,2025-06-22 06:01:30
2025-06-21T22:08+00:00,500110039,松山區,YouBike2.0_健康新城,25.05408,121.56095,44,29,15,1,2025-06-22 06:01:30
2025-06-21T22:08+00:00,500110043,松山區,YouBike2.0_捷運南京復興站(7號出口),25.05278,121.54478,15,2,13,1,2025-06-22 06:01:30
2025-06-21T22:08+00:00,500110044,松山區,YouBike2.0_捷運南京復興站(5號出口),25.05168,121.54506,52,27,24,1,2025-06-22 06:01:30
2025-06-21T22:08+00:00,500110056,松山區,YouBike2.0_長壽公園,25.05378,121.55893,22,16,6,1,2025-06-22 06:01:30
2025-06-21T22:08+00:00,500110060,松山區,YouBike2.0_西松高中(健康路325巷),25.05567,121.56713,31,17,14,1,2025-06-22 06:01:30
2025-06-21T22:08+00:00,500110062,松山區,YouBike2.0_捷運松山站(3號出口),25.04962,121.57746,52,7,43,1,2025-06-22 06:01:30
2025-06-21T22:08+00:00,500110065,松山區,YouBike2.0_敦化八德路口,25.04802,121.54864,55,13,41,1,2025-06-22 06:01:30
2025-06-21T22:08+00:00,500110068,松山區,YouBike2.0_長春慶城街口,25.05452,121.54636,28,4,24,1,2025-06-22 06:01:30
2025-06-21T22:08+00:00,500110070,松山區,YouBike2.0_捷運松山站(1號出口),25.05014,121.57692,15,8,7,1,2025-06-22 06:01:30
2025-06-21T22:08+00:00,500110072,松山區,YouBike2.0_捷運小巨蛋站(5號出口)_1,25.05181,121.5521,20,13,7,1,2025-06-22 06:01:30
2025-06-21T22:08+00:00,500110078,松山區,YouBike2.0_捷運南京三民站(3號出口),25.05129,121.56426,28,13,14,1,2025-06-22 06:01:30
2025-06-21T22:08+00:00,500110082,松山區,YouBike2.0_市民東寧路口,25.04742,121.56305,23,16,6,1,2025-06-22 06:01:30
2025-06-21T22:08+00:00,500110085,松山區,YouBike2.0_民生郵局,25.05936,121.56586,14,9,5,1,2025-06-22 06:01:30
2025-06-21T22:08+00:00,500110087,松山區,YouBike2.0_寶清八德路口(北側),25.05028,121.56879,19,12,7,1,2025-06-22 06:01:30
2025-06-21T22:08+00:00,500110088,松山區,YouBike2.0_民生東路三段140巷口,25.056,121.5467,15,3,12,1,2025-06-22 06:01:30
2025-06-21T22:08+00:00,500110090,松山區,YouBike2.0_健康公園,25.05434,121.56878,26,13,13,1,2025-06-22 06:01:30
2025-06-21T22:08+00:00,500110097,松山區,YouBike2.0_民權運動公園(北側),25.06198,121.55711,30,17,13,1,2025-06-22 06:01:30
2025-06-21T22:08+00:00,500111001,南港區,YouBike2.0_南港公園(東新街),25.04591,121.59226,25,16,9,1,2025-06-22 06:01:30
2025-06-21T22:08+00:00,500111002,南港區,YouBike2.0_南港公園(福德街),25.04128,121.59089,56,18,37,1,2025-06-22 06:01:30
2025-06-21T22:08+00:00,500111004,南港區,YouBike2.0_忠孝東路六段225巷口,25.04919,121.58832,35,27,8,1,2025-06-22 06:01:30
2025-06-21T22:08+00:00,500111005,南港區,YouBike2.0_捷運後山埤站(1號出口),25.04437,121.58133,53,3,50,1,2025-06-22 06:01:30
2025-06-21T22:08+00:00,500111010,南港區,YouBike2.0_研究院舊莊街口,25.04239,121.61683,30,14,16,1,2025-06-22 06:01:30
2025-06-21T22:08+00:00,500111011,南港區,YouBike2.0_中研院綜合體育館東側,25.04054,121.61374,30,17,13,1,2025-06-22 06:01:30
2025-06-21T22:08+00:00,500111013,南港區,YouBike2.0_捷運南港展覽館站(5號出口),25.05469,121.61669,73,27,46,1,2025-06-22 06:01:30
2025-06-21T22:08+00:00,500111016,南港區,YouBike2.0_舊莊區民活動中心,25.04139,121.6191,34,22,12,1,2025-06-22 06:01:30
2025-06-21T22:08+00:00,500111018,南港區,YouBike2.0_市民大道八段532號,25.054,121.61334,30,13,17,1,2025-06-22 06:01:30
2025-06-21T22:08+00:00,500111025,南港區,YouBike2.0_南港車站(忠孝東路七段415巷),25.05252,121.60922,11,9,2,1,2025-06-22 06:01:30
2025-06-21T22:08+00:00,500111026,南港區,YouBike2.0_捷運南港站(2號出口),25.05201,121.60741,23,20,3,1,2025-06-22 06:01:30
2025-06-21T22:08+00:00,500111029,南港區,YouBike2.0_中華科技大學,25.03392,121.60985,20,14,6,1,2025-06-22 06:01:30
2025-06-21T22:08+00:00,500111031,南港區,YouBike2.0_南港加壓站,25.04805,121.61594,24,13,11,1,2025-06-22 06:01:30
2025-06-21T22:08+00:00,500111032,南港區,YouBike2.0_臺北流行音樂中心(南港路),25.05343,121.59945,21,4,17,1,2025-06-22 06:01:30
2025-06-21T22:08+00:00,500111036,南港區,YouBike2.0_忠孝東路七段527巷口,25.05266,121.61275,26,13,13,1,2025-06-22 06:01:30
2025-06-21T22:08+00:00,500111041,南港區,YouBike2.0_南港高中(昆陽街),25.05285,121.59279,26,10,16,1,2025-06-22 06:01:30
2025-06-21T22:08+00:00,500111044,南港區,YouBike2.0_南港東新街口,25.05168,121.58284,28,4,24,1,2025-06-22 06:01:30
2025-06-21T22:08+00:00,500111052,南港區,YouBike2.0_胡適公園,25.04014,121.61766,25,9,16,1,2025-06-22 06:01:30
2025-06-21T22:08+00:00,500111053,南港區,YouBike2.0_南港抽水站,25.06164,121.61267,19,12,7,1,2025-06-22 06:01:30
2025-06-21T22:08+00:00,500111055,南港區,YouBike2.0_育成高中,25.05853,121.60983,33,15,18,1,2025-06-22 06:01:30
2025-06-21T22:08+00:00,500111056,南港區,YouBike2.0_捷運南港展覽館站(7號出口),25.05436,121.6181,42,3,39,1,2025-06-22 06:01:30
2025-06-21T22:08+00:00,500111057,南港區,YouBike2.0_力行橋(南港),25.05172,121.61686,18,13,5,1,2025-06-22 06:01:30
2025-06-21T22:08+00:00,500111063,南港區,YouBike2.0_成德綠地,25.04675,121.58731,17,4,13,1,2025-06-22 06:01:30
2025-06-21T22:08+00:00,500111064,南港區,YouBike2.0_南港公園(東新街170巷),25.04134,121.59323,16,14,1,1,2025-06-22 06:01:30
2025-06-21T22:08+00:00,500111066,南港區,YouBike2.0_昆陽公園,25.0483,121.59425,14,9,5,1,2025-06-22 06:01:30
2025-06-21T22:08+00:00,500111067,南港區,YouBike2.0_南港路二段178巷口,25.05368,121.59969,18,7,11,1,2025-06-22 06:01:30
2025-06-21T22:08+00:00,500111068,南港區,YouBike2.0_南港車站(忠孝東路),25.05225,121.60766,24,17,7,1,2025-06-22 06:01:30
2025-06-21T22:08+00:00,500111069,南港區,YouBike2.0_南港車站(興華路),25.05343,121.60633,48,29,19,1,2025-06-22 06:01:30
2025-06-21T22:08+00:00,500111070,南港區,YouBike2.0_玉成公園(成福路178巷口),25.04177,121.58735,27,13,13,1,2025-06-22 06:01:30
2025-06-21T22:08+00:00,500111072,南港區,YouBike2.0_南港出租國宅社區,25.03878,121.59302,25,14,11,1,2025-06-22 06:01:30
2025-06-21T22:08+00:00,500111073,南港區,YouBike2.0_成福路197巷口,25.04066,121.58877,15,2,9,1,2025-06-22 06:01:30
2025-06-21T22:08+00:00,500111076,南港區,YouBike2.0_南港展覽館2館,25.05545,121.61646,18,8,10,1,2025-06-22 06:01:30
2025-06-21T22:08+00:00,500111080,南港區,YouBike2.0_忠孝東路六段278巷口,25.04916,121.58906,14,11,3,1,2025-06-22 06:01:30
2025-06-21T22:08+00:00,500111084,南港區,YouBike2.0_忠孝東路六段212巷口,25.0488,121.58742,15,9,6,1,2025-06-22 06:01:30
2025-06-21T22:08+00:00,500111089,南港區,YouBike2.0_向陽南港路口(西北側),25.05486,121.5944,26,6,20,1,2025-06-22 06:01:30
2025-06-21T22:08+00:00,500111091,南港區,YouBike2.0_興中重陽路口,25.05801,121.60674,24,9,15,1,2025-06-22 06:01:30
2025-06-21T22:08+00:00,500111093,南港區,YouBike2.0_中研院人文社會科學研究中心,25.04159,121.61532,16,4,12,1,2025-06-22 06:01:30
2025-06-21T22:08+00:00,500111094,南港區,YouBike2.0_中研院生態時代館,25.04287,121.61342,16,3,13,1,2025-06-22 06:01:30
2025-06-21T22:08+00:00,500111097,南港區,YouBike2.0_捷運南港軟體園區站(1號出口),25.06043,121.61498,36,3,33,1,2025-06-22 06:01:30
2025-06-21T22:08+00:00,500111113,南港區,YouBike2.0_內湖機廠(港東街),25.058,121.62189,20,11,9,1,2025-06-22 06:01:30
2025-06-21T22:08+00:00,500111116,南港區,YouBike2.0_忠孝東路七段265巷,25.05216,121.60338,40,5,35,1,2025-06-22 06:01:30
2025-06-21T22:08+00:00,500111121,南港區,YouBike2.0_經貿二路185巷,25.06148,121.61698,21,5,16,1,2025-06-22 06:01:30
2025-06-21T22:08+00:00,500111124,南港區,YouBike2.0_中坡松隆路口,25.04865,121.58028,21,5,16,1,2025-06-22 06:01:30
2025-06-21T22:08+00:00,500112002,信義區,YouBike2.0_基隆路二段159巷口,25.02561,121.55409,14,7,6,1,2025-06-22 06:01:30
2025-06-21T22:08+00:00,500112006,信義區,YouBike2.0_景勤二號公園,25.02698,121.55841,41,22,19,1,2025-06-22 06:01:30
2025-06-21T22:08+00:00,500112008,信義區,YouBike2.0_三興公園,25.02868,121.55932,47,15,32,1,2025-06-22 06:01:30
2025-06-21T22:08+00:00,500112010,信義區,YouBike2.0_捷運象山站(2號出口),25.03222,121.56974,41,4,36,1,2025-06-22 06:01:30
2025-06-21T22:08+00:00,500112011,信義區,YouBike2.0_象山公園,25.02863,121.56981,48,17,31,1,2025-06-22 06:01:30
2025-06-21T22:08+00:00,500112014,信義區,YouBike2.0_捷運象山站(1號出口),25.03295,121.56867,24,8,16,1,2025-06-22 06:01:30
2025-06-21T22:08+00:00,500112017,信義區,YouBike2.0_台北市災害應變中心,25.02868,121.56672,53,35,17,1,2025-06-22 06:01:30
2025-06-21T22:08+00:00,500112018,信義區,YouBike2.0_信義運動中心,25.03189,121.56678,35,7,28,1,2025-06-22 06:01:30
2025-06-21T22:08+00:00,500112020,信義區,YouBike2.0_景新公園,25.03003,121.56287,17,5,10,1,2025-06-22 06:01:30
2025-06-21T22:08+00:00,500112021,信義區,YouBike2.0_光復信義路口東南側,25.03281,121.55756,16,0,0,0,2025-06-22 06:01:30
2025-06-21T22:08+00:00,500112024,信義區,YouBike2.0_松山工農,25.03961,121.57199,34,2,31,1,2025-06-22 06:01:30
2025-06-21T22:08+00:00,500112025,信義區,YouBike2.0_松友公園,25.03423,121.57636,39,16,8,1,2025-06-22 06:01:30
2025-06-21T22:08+00:00,500112028,信義區,YouBike2.0_永春陂濕地公園,25.03301,121.58096,40,28,12,1,2025-06-22 06:01:30
2025-06-21T22:08+00:00,500112030,信義區,YouBike2.0_松智松壽路口,25.03607,121.56535,39,4,34,1,2025-06-22 06:01:30
2025-06-21T22:08+00:00,500112035,信義區,YouBike2.0_信義廣場(台北101),25.03306,121.5662,36,7,28,1,2025-06-22 06:01:30
2025-06-21T22:08+00:00,500112039,信義區,YouBike2.0_福德國小,25.03846,121.58618,42,36,5,1,2025-06-22 06:01:30
2025-06-21T22:08+00:00,500112042,信義區,YouBike2.0_松高路(信義新天地A4館),25.03918,121.56654,17,6,11,1,2025-06-22 06:01:30
2025-06-21T22:08+00:00,500112045,信義區,YouBike2.0_吳興公車總站,25.02388,121.56984,56,47,8,1,2025-06-22 06:01:30
2025-06-21T22:08+00:00,500112046,信義區,YouBike2.0_泰和公園,25.0193,121.57105,40,27,5,1,2025-06-22 06:01:30
2025-06-21T22:08+00:00,500112047,信義區,YouBike2.0_興雅國小(基隆路一段37巷),25.04773,121.56895,27,10,17,1,2025-06-22 06:01:30
2025-06-21T22:08+00:00,500112048,信義區,YouBike2.0_雅祥公園(松信路50巷口),25.04732,121.57211,12,7,4,1,2025-06-22 06:01:30
2025-06-21T22:08+00:00,500112049,信義區,YouBike2.0_松山車站,25.0489,121.57841,70,23,42,1,2025-06-22 06:01:30
2025-06-21T22:08+00:00,500112050,信義區,YouBike2.0_五常公園,25.04797,121.57432,37,14,20,1,2025-06-22 06:01:30
2025-06-21T22:08+00:00,500112052,信義區,YouBike2.0_三興國小,25.02969,121.55766,26,15,11,1,2025-06-22 06:01:30
2025-06-21T22:08+00:00,500112061,信義區,YouBike2.0_永吉路321巷口,25.04561,121.57549,19,9,5,1,2025-06-22 06:01:30
2025-06-21T22:08+00:00,500112062,信義區,YouBike2.0_松山永吉路口,25.04623,121.57772,20,10,9,1,2025-06-22 06:01:30
2025-06-21T22:08+00:00,500112064,信義區,YouBike2.0_捷運象山站(3號出口),25.03295,121.5712,51,10,41,1,2025-06-22 06:01:30
2025-06-21T22:08+00:00,500112065,信義區,YouBike2.0_松德公園,25.03657,121.57349,40,4,35,1,2025-06-22 06:01:30
2025-06-21T22:08+00:00,500112066,信義區,YouBike2.0_世貿三館,25.03511,121.56369,54,1,53,1,2025-06-22 06:01:30
2025-06-21T22:08+00:00,500112069,信義區,YouBike2.0_基隆路一段101巷口,25.04516,121.56702,32,23,8,1,2025-06-22 06:01:30
2025-06-21T22:08+00:00,500112070,信義區,YouBike2.0_捷運永春站(2號出口),25.0405,121.57538,30,14,16,1,2025-06-22 06:01:30
2025-06-21T22:08+00:00,500112075,信義區,YouBike2.0_信義基隆路口,25.03321,121.55873,26,3,23,1,2025-06-22 06:01:30
2025-06-21T22:08+00:00,500112082,信義區,YouBike2.0_臺北南山廣場_1,25.03404,121.56598,68,1,66,1,2025-06-22 06:01:30
2025-06-21T22:08+00:00,500112084,信義區,YouBike2.0_景平公園,25.02976,121.5642,41,31,9,1,2025-06-22 06:01:30
2025-06-21T22:08+00:00,500112085,信義區,YouBike2.0_捷運市政府站(3號出口),25.04084,121.56789,92,12,80,1,2025-06-22 06:01:30
2025-06-21T22:08+00:00,500112086,信義區,YouBike2.0_五分埔公園,25.04719,121.58058,20,9,11,1,2025-06-22 06:01:30
2025-06-21T22:08+00:00,500112089,信義區,YouBike2.0_忠孝東路五段215巷口,25.0409,121.5705,24,2,21,1,2025-06-22 06:01:30
2025-06-21T22:08+00:00,500112090,信義區,YouBike2.0_松勤莊敬路口,25.03203,121.5615,15,4,11,1,2025-06-22 06:01:30
2025-06-21T22:08+00:00,500112092,信義區,YouBike2.0_信義松德路口,25.03322,121.57433,23,15,8,1,2025-06-22 06:01:30
2025-06-21T22:08+00:00,500112098,信義區,YouBike2.0_永吉路468巷口,25.04533,121.57915,13,9,3,1,2025-06-22 06:01:30
2025-06-21T22:08+00:00,500112103,信義區,YouBike2.0_臺北文化體育園區辦公大樓,25.04144,121.56126,33,3,29,1,2025-06-22 06:01:30
2025-06-21T22:08+00:00,500112104,信義區,YouBike2.0_捷運國父紀念館站(5號出口),25.04206,121.55792,23,11,12,1,2025-06-22 06:01:30
2025-06-21T22:08+00:00,500112106,信義區,YouBike2.0_中坡北永吉路口,25.04557,121.58059,15,5,8,1,2025-06-22 06:01:30
2025-06-21T22:08+00:00,500112111,信義區,YouBike2.0_吳興新村,25.02815,121.56114,22,18,4,1,2025-06-22 06:01:30
2025-06-21T22:08+00:00,500112112,信義區,YouBike2.0_松山文創園區(一號倉庫),25.04503,121.55951,19,10,9,1,2025-06-22 06:01:30
2025-06-21T22:08+00:00,500112115,信義區,YouBike2.0_信安街/富陽街44巷口,25.02309,121.55537,21,7,12,1,2025-06-22 06:01:30
2025-06-21T22:08+00:00,500112116,信義區,YouBike2.0_吳興公園,25.02383,121.56767,20,17,3,1,2025-06-22 06:01:30
2025-06-21T22:08+00:00,500112117,信義區,YouBike2.0_逸仙松高路口,25.03942,121.56149,25,5,20,1,2025-06-22 06:01:30
2025-06-21T22:08+00:00,500112123,信義區,YouBike2.0_松山松隆路口,25.04831,121.57766,18,6,10,1,2025-06-22 06:01:30
2025-06-21T22:08+00:00,500112125,信義區,YouBike2.0_象山公園(松勤街140巷),25.03098,121.5697,29,2,27,1,2025-06-22 06:01:30
2025-06-21T22:08+00:00,500112128,信義區,YouBike2.0_臺北文創大樓(菸廠路),25.04499,121.56082,27,4,23,1,2025-06-22 06:01:30
2025-06-21T22:08+00:00,500113003,萬華區,YouBike2.0_萬大路486巷口,25.01975,121.4973,10,10,0,1,2025-06-22 06:01:30
2025-06-21T22:08+00:00,500113004,萬華區,YouBike2.0_國興中華路口,25.02485,121.50898,22,13,9,1,2025-06-22 06:01:30
2025-06-21T22:08+00:00,500113005,萬華區,YouBike2.0_古亭國中,25.02442,121.5107,25,15,10,1,2025-06-22 06:01:30
2025-06-21T22:08+00:00,500113007,萬華區,YouBike2.0_青年公園高爾夫球場,25.02481,121.50755,25,22,0,1,2025-06-22 06:01:30
2025-06-21T22:08+00:00,500113008,萬華區,YouBike2.0_國興青年路口,25.02594,121.50651,51,35,16,1,2025-06-22 06:01:30
2025-06-21T22:08+00:00,500113012,萬華區,YouBike2.0_復華花園新城,25.02964,121.50258,38,27,9,1,2025-06-22 06:01:30
2025-06-21T22:08+00:00,500113013,萬華區,YouBike2.0_新和國小,25.02582,121.50255,20,9,11,1,2025-06-22 06:01:30
2025-06-21T22:08+00:00,500113015,萬華區,YouBike2.0_莒光立體停車場,25.03116,121.50336,10,4,6,1,2025-06-22 06:01:30
2025-06-21T22:08+00:00,500113017,萬華區,YouBike2.0_東園國小,25.02257,121.49807,33,28,4,1,2025-06-22 06:01:30
2025-06-21T22:08+00:00,500113018,萬華區,YouBike2.0_華中疏散門,25.01688,121.49534,12,7,5,1,2025-06-22 06:01:30
2025-06-21T22:08+00:00,500113019,萬華區,YouBike2.0_錦德公園,25.02332,121.49264,29,18,5,1,2025-06-22 06:01:30
2025-06-21T22:08+00:00,500113020,萬華區,YouBike2.0_忠德公園,25.02516,121.49604,19,11,6,1,2025-06-22 06:01:30
2025-06-21T22:08+00:00,500113026,萬華區,YouBike2.0_長順區民活動中心,25.03284,121.48908,26,11,15,1,2025-06-22 06:01:30
2025-06-21T22:08+00:00,500113027,萬華區,YouBike2.0_華江國小,25.03397,121.49029,17,7,10,1,2025-06-22 06:01:30
2025-06-21T22:08+00:00,500113041,萬華區,YouBike2.0_龍山國小,25.0355,121.49541,30,12,16,1,2025-06-22 06:01:30
2025-06-21T22:08+00:00,500113045,萬華區,YouBike2.0_萬華火車站(D2廣場),25.03394,121.50117,42,9,33,1,2025-06-22 06:01:30
2025-06-21T22:08+00:00,500113046,萬華區,YouBike2.0_捷運龍山寺站(3號出口),25.03509,121.50199,32,9,23,1,2025-06-22 06:01:30
2025-06-21T22:08+00:00,500113047,萬華區,YouBike2.0_臺北市電影主題公園(峨眉街),25.04445,121.50306,20,8,12,1,2025-06-22 06:01:30
2025-06-21T22:08+00:00,500113048,萬華區,YouBike2.0_臺北市電影主題公園(康定路),25.04551,121.50318,15,12,3,1,2025-06-22 06:01:30
2025-06-21T22:08+00:00,500113049,萬華區,YouBike2.0_中華峨眉街口,25.04345,121.50841,24,14,9,1,2025-06-22 06:01:30
2025-06-21T22:08+00:00,500113050,萬華區,YouBike2.0_萬華266號綠地,25.0403,121.50197,19,11,6,1,2025-06-22 06:01:30
2025-06-21T22:08+00:00,500113051,萬華區,YouBike2.0_萬大國小(萬大路344巷口),25.02376,121.49986,23,5,18,1,2025-06-22 06:01:30
2025-06-21T22:08+00:00,500113053,萬華區,YouBike2.0_環河南和平西路口,25.03517,121.49048,20,2,18,1,2025-06-22 06:01:30
2025-06-21T22:08+00:00,500113058,萬華區,YouBike2.0_綠堤社區公園,25.03302,121.4931,28,13,12,1,2025-06-22 06:01:30
2025-06-21T22:08+00:00,500113061,萬華區,YouBike2.0_環南綜合市場,25.0286,121.48908,26,12,14,1,2025-06-22 06:01:30
2025-06-21T22:08+00:00,500113063,萬華區,YouBike2.0_洛陽停車場,25.04776,121.50612,22,6,15,1,2025-06-22 06:01:30
2025-06-21T22:08+00:00,500113083,萬華區,YouBike2.0_綠堤公園(西北側),25.03338,121.49267,14,8,5,1,2025-06-22 06:01:30
2025-06-21T22:08+00:00,500113087,萬華區,YouBike2.0_萬青街186號,25.02263,121.50154,21,16,5,1,2025-06-22 06:01:30
2025-06-21T22:08+00:00,500113090,萬華區,YouBike2.0_華江高中(西藏路),25.02901,121.49659,32,14,18,1,2025-06-22 06:01:30
2025-06-21T22:08+00:00,500113091,萬華區,YouBike2.0_新和國小(中華路二段416巷),25.02677,121.50283,19,10,9,1,2025-06-22 06:01:30
2025-06-21T22:08+00:00,500113092,萬華區,YouBike2.0_環南綜合市場(西藏路),25.0294,121.49082,15,0,15,1,2025-06-22 06:01:30
2025-06-21T22:08+00:00,500113093,萬華區,YouBike2.0_萬華青年社會住宅(青年路168巷49弄),25.01995,121.50229,20,6,14,1,2025-06-22 06:01:30
2025-06-21T22:08+00:00,500119005,臺大公館校區,YouBike2.0_臺大水源舍區A棟,25.01493,121.53044,37,35,2,1,2025-06-22 06:01:30
2025-06-21T22:08+00:00,500119006,臺大公館校區,YouBike2.0_臺大卓越研究大樓,25.01466,121.52917,92,65,27,1,2025-06-22 06:01:30
2025-06-21T22:08+00:00,500119009,臺大公館校區,YouBike2.0_臺大水源舍區B棟,25.01525,121.53009,30,21,9,1,2025-06-22 06:01:30
2025-06-21T22:08+00:00,500119045,臺大公館校區,YouBike2.0_臺大農業陳列館北側,25.01839,121.53404,45,10,35,1,2025-06-22 06:01:30
2025-06-21T22:08+00:00,500119054,臺大公館校區,YouBike2.0_臺大心理系館南側,25.01941,121.5404,30,16,13,1,2025-06-22 06:01:30
2025-06-21T22:08+00:00,500119056,臺大公館校區,YouBike2.0_臺大農化新館西側,25.01627,121.53535,10,3,7,1,2025-06-22 06:01:30
2025-06-21T22:08+00:00,500119061,臺大公館校區,YouBike2.0_臺大鹿鳴堂東側,25.01511,121.53786,39,4,35,1,2025-06-22 06:01:30
2025-06-21T22:08+00:00,500119064,臺大公館校區,YouBike2.0_臺大明達館機車停車場,25.01754,121.54398,28,3,24,1,2025-06-22 06:01:30
2025-06-21T22:08+00:00,500119067,臺大公館校區,YouBike2.0_臺大社科院西側,25.02053,121.54145,42,11,31,1,2025-06-22 06:01:30
2025-06-21T22:08+00:00,500119068,臺大公館校區,YouBike2.0_臺大社會系館南側,25.01987,121.54175,66,9,56,1,2025-06-22 06:01:30
2025-06-21T22:08+00:00,500119069,臺大公館校區,YouBike2.0_臺大思亮館東南側,25.02074,121.53906,26,7,19,1,2025-06-22 06:01:30
2025-06-21T22:08+00:00,500119074,臺大公館校區,YouBike2.0_臺大生命科學館西北側,25.01548,121.53825,30,2,28,1,2025-06-22 06:01:30
2025-06-21T22:08+00:00,500119075,臺大公館校區,YouBike2.0_臺大第一活動中心西南側,25.01761,121.53995,48,3,45,1,2025-06-22 06:01:30
2025-06-21T22:08+00:00,500119076,臺大公館校區,YouBike2.0_臺大博理館西側,25.01922,121.54195,22,4,18,1,2025-06-22 06:01:30
2025-06-21T22:08+00:00,500119082,臺大公館校區,YouBike2.0_臺大四號館東北側,25.01703,121.53781,10,3,7,1,2025-06-22 06:01:30
2025-06-21T22:08+00:00,500119088,臺大公館校區,YouBike2.0_臺大黑森林西側,25.01995,121.54347,35,31,4,1,2025-06-22 06:01:30
2025-06-21T22:08+00:00,500119089,臺大公館校區,YouBike2.0_臺大獸醫館南側,25.01791,121.54242,24,2,22,1,2025-06-22 06:01:30
2025-06-21T22:08+00:00,500119094,臺大公館校區,YouBike2.0_臺大大一女餐廳廣場,25.01479,121.53494,40,13,14,1,2025-06-22 06:01:30
2025-06-21T22:08+00:00,500119095,臺大公館校區,YouBike2.0_臺大學新館,25.01944,121.54339,33,10,23,1,2025-06-22 06:01:30
