timestamp,sno,sarea,sna,latitude,longitude,total,available_rent_bikes,available_return_bikes,act,srcUpdateTime
2025-06-21T20:16+00:00,500101019,大安區,YouBike2.0_和平臥龍街口,25.024461,121.546705,24,16,8,1,2025-06-22 04:03:31
2025-06-21T20:16+00:00,500101020,大安區,YouBike2.0_溫州停車場,25.02093,121.5331,5,0,5,0,2025-06-22 04:03:31
2025-06-21T20:16+00:00,500101023,大安區,YouBike2.0_第二學生活動中心,25.01244,121.53661,25,1,24,1,2025-06-22 04:03:31
2025-06-21T20:16+00:00,500101025,大安區,YouBike2.0_臺灣科技大學側門,25.01295,121.53973,99,9,90,1,2025-06-22 04:03:31
2025-06-21T20:16+00:00,500101031,大安區,YouBike2.0_臺大男七舍前,25.01537,121.54698,20,16,3,1,2025-06-22 04:03:31
2025-06-21T20:16+00:00,500101041,大安區,YouBike2.0_辛亥新生路口東南側,25.02218,121.53474,50,14,36,1,2025-06-22 04:03:31
2025-06-21T20:16+00:00,500101091,大安區,YouBike2.0_國北教大側門南側,25.022864,121.546622,34,13,16,1,2025-06-22 04:03:31
2025-06-21T20:16+00:00,500101105,大安區,YouBike2.0_和平金山路口,25.02669,121.52529,45,3,42,1,2025-06-22 04:03:31
2025-06-21T20:16+00:00,500101108,大安區,YouBike2.0_和平泰順街口,25.02621,121.53171,19,12,2,1,2025-06-22 04:03:31
2025-06-21T20:16+00:00,500101109,大安區,YouBike2.0_臺灣師範大學(圖書館),25.0266,121.52973,40,31,9,1,2025-06-22 04:03:31
2025-06-21T20:16+00:00,500101110,大安區,YouBike2.0_捷運古亭站(6號出口),25.0276,121.52217,60,20,40,1,2025-06-22 04:03:31
2025-06-21T20:16+00:00,500101115,大安區,YouBike2.0_建國和平路口西北側,25.02606,121.53738,50,16,34,1,2025-06-22 04:03:31
2025-06-21T20:16+00:00,500101118,大安區,YouBike2.0_金甌女中,25.03519,121.5245,15,13,2,1,2025-06-22 04:03:31
2025-06-21T20:16+00:00,500101119,大安區,YouBike2.0_金杭公園,25.03325,121.52436,20,14,6,1,2025-06-22 04:03:31
2025-06-21T20:16+00:00,500101124,大安區,YouBike2.0_安和路二段181巷口,25.02721,121.54988,29,2,27,1,2025-06-22 04:03:31
2025-06-21T20:16+00:00,500101125,大安區,YouBike2.0_臨江街夜市(通化街101巷口),25.02952,121.55406,30,4,15,1,2025-06-22 04:03:31
2025-06-21T20:16+00:00,500101131,大安區,YouBike2.0_復興南路1段340巷口,25.03701,121.54348,50,17,33,1,2025-06-22 04:03:31
2025-06-21T20:16+00:00,500101134,大安區,YouBike2.0_捷運大安站(4號出口),25.0332,121.5439,13,2,10,1,2025-06-22 04:03:31
2025-06-21T20:16+00:00,500101139,大安區,YouBike2.0_信義敦化路口,25.03333,121.54977,52,39,11,1,2025-06-22 04:03:31
2025-06-21T20:16+00:00,500101145,大安區,YouBike2.0_信義延吉街口,25.03318,121.55725,15,2,13,1,2025-06-22 04:03:31
2025-06-21T20:16+00:00,500101146,大安區,YouBike2.0_光信公園(光復南路456巷),25.03513,121.5561,25,12,13,1,2025-06-22 04:03:31
2025-06-21T20:16+00:00,500101148,大安區,YouBike2.0_建國南路一段279巷口,25.03635,121.53833,62,20,42,1,2025-06-22 04:03:31
2025-06-21T20:16+00:00,500101152,大安區,YouBike2.0_捷運忠孝新生站(3號出口),25.04189,121.53376,43,18,25,1,2025-06-22 04:03:31
2025-06-21T20:16+00:00,500101156,大安區,YouBike2.0_信義建國路口,25.0328,121.53746,52,42,9,1,2025-06-22 04:03:31
2025-06-21T20:16+00:00,500101163,大安區,YouBike2.0_瑞安街208巷,25.02979,121.54053,15,9,6,1,2025-06-22 04:03:31
2025-06-21T20:16+00:00,500101165,大安區,YouBike2.0_樂利路21巷口,25.0277,121.55132,17,10,5,1,2025-06-22 04:03:31
2025-06-21T20:16+00:00,500101169,大安區,YouBike2.0_捷運信義安和站(4號出口),25.03305,121.55378,49,27,21,1,2025-06-22 04:03:31
2025-06-21T20:16+00:00,500101172,大安區,YouBike2.0_捷運信義安和站(1號出口),25.03331,121.55265,33,16,16,1,2025-06-22 04:03:31
2025-06-21T20:16+00:00,500101176,大安區,YouBike2.0_芳蘭山莊,25.01223,121.54788,16,8,8,1,2025-06-22 04:03:31
2025-06-21T20:16+00:00,500101180,大安區,YouBike2.0_仁愛路四段48巷口,25.03597,121.54693,12,8,4,1,2025-06-22 04:03:31
2025-06-21T20:16+00:00,500101182,大安區,YouBike2.0_臺北科技大學(電機工程系),25.04196,121.53653,34,4,30,1,2025-06-22 04:03:31
2025-06-21T20:16+00:00,500101188,大安區,YouBike2.0_辛亥路三段157巷口,25.01727,121.54904,27,16,11,1,2025-06-22 04:03:31
2025-06-21T20:16+00:00,500101192,大安區,YouBike2.0_和平敦化路口,25.02444,121.54908,36,27,8,1,2025-06-22 04:03:31
2025-06-21T20:16+00:00,500101194,大安區,YouBike2.0_仁愛路四段122巷口,25.03762,121.55009,25,4,21,1,2025-06-22 04:03:31
2025-06-21T20:16+00:00,500101196,大安區,YouBike2.0_市民敦化路口,25.04464,121.54944,32,5,27,1,2025-06-22 04:03:31
2025-06-21T20:16+00:00,500101202,大安區,YouBike2.0_仁愛敦南圓環(東南側),25.03715,121.54936,16,6,10,1,2025-06-22 04:03:31
2025-06-21T20:16+00:00,500101204,大安區,YouBike2.0_外交部外交及國際事務學院,25.0371,121.54839,26,6,20,1,2025-06-22 04:03:31
2025-06-21T20:16+00:00,500101211,大安區,YouBike2.0_原臺北刑務所官舍,25.03054,121.52466,23,16,7,1,2025-06-22 04:03:31
2025-06-21T20:16+00:00,500101216,大安區,YouBike2.0_和平東路二段18巷口,25.02268,121.53608,24,22,2,1,2025-06-22 04:03:31
2025-06-21T20:16+00:00,500101217,大安區,YouBike2.0_捷運大安站(5號出口),25.03303,121.54372,26,16,10,1,2025-06-22 04:03:31
2025-06-21T20:16+00:00,500101221,大安區,YouBike2.0_忠孝東路四段248巷口,25.04132,121.55393,25,14,10,1,2025-06-22 04:03:31
2025-06-21T20:16+00:00,500101223,大安區,YouBike2.0_樂利路101巷口,25.02528,121.55224,13,9,1,1,2025-06-22 04:03:31
2025-06-21T20:16+00:00,500101229,大安區,YouBike2.0_臺灣師範大學(浦城街),25.02476,121.52803,20,19,1,1,2025-06-22 04:03:31
2025-06-21T20:16+00:00,500101232,大安區,YouBike2.0_捷運古亭站(3號出口),25.02572,121.52359,15,5,10,1,2025-06-22 04:03:31
2025-06-21T20:16+00:00,500101233,大安區,YouBike2.0_捷運忠孝復興站(3號出口),25.04152,121.54414,37,3,32,1,2025-06-22 04:03:31
2025-06-21T20:16+00:00,500101236,大安區,YouBike2.0_富陽臥龍街口,25.0187,121.55688,18,15,1,1,2025-06-22 04:03:31
2025-06-21T20:16+00:00,500101237,大安區,YouBike2.0_仁愛復興路口,25.03817,121.544,25,4,21,1,2025-06-22 04:03:31
2025-06-21T20:16+00:00,500101243,大安區,YouBike2.0_忠孝建國路口(東南側),25.04159,121.5378,21,5,16,1,2025-06-22 04:03:31
2025-06-21T20:16+00:00,500101244,大安區,YouBike2.0_浦城街26巷,25.02324,121.52618,17,8,9,1,2025-06-22 04:03:31
2025-06-21T20:16+00:00,500101245,大安區,YouBike2.0_青峰活動中心,25.01524,121.55121,25,7,18,1,2025-06-22 04:03:31
2025-06-21T20:16+00:00,500101248,大安區,YouBike2.0_和平溫州街口,25.02634,121.53342,23,16,7,1,2025-06-22 04:03:31
2025-06-21T20:16+00:00,500101251,大安區,YouBike2.0_捷運忠孝復興站(1號出口),25.04199,121.54362,27,0,0,0,2025-06-22 04:03:31
2025-06-21T20:16+00:00,500101254,大安區,YouBike2.0_師大附中運動中心,25.03626,121.53997,33,30,2,1,2025-06-22 04:03:31
2025-06-21T20:16+00:00,500101256,大安區,YouBike2.0_敦化基隆路口(東北側),25.02196,121.54899,19,9,10,1,2025-06-22 04:03:31
2025-06-21T20:16+00:00,500103002,大同區,YouBike2.0_臺北市立圖書館大同分館,25.0741,121.51349,40,21,19,1,2025-06-22 04:03:31
2025-06-21T20:16+00:00,500103004,大同區,YouBike2.0_民族延平路口,25.06864,121.5107,36,26,1,1,2025-06-22 04:03:31
2025-06-21T20:16+00:00,500103007,大同區,YouBike2.0_陳天來故居,25.05601,121.50895,16,6,10,1,2025-06-22 04:03:31
2025-06-21T20:16+00:00,500103020,大同區,YouBike2.0_民權迪化街口,25.06327,121.50943,47,42,5,1,2025-06-22 04:03:31
2025-06-21T20:16+00:00,500103021,大同區,YouBike2.0_大稻埕公園,25.05915,121.51033,35,19,15,1,2025-06-22 04:03:31
2025-06-21T20:16+00:00,500103030,大同區,YouBike2.0_永樂市場,25.05454,121.51052,38,15,22,1,2025-06-22 04:03:31
2025-06-21T20:16+00:00,500103031,大同區,YouBike2.0_大龍公園,25.07049,121.51596,26,10,16,1,2025-06-22 04:03:31
2025-06-21T20:16+00:00,500103039,大同區,YouBike2.0_聯合醫院中興院區,25.05205,121.50818,40,5,35,1,2025-06-22 04:03:31
2025-06-21T20:16+00:00,500103042,大同區,YouBike2.0_大同運動中心,25.06496,121.51608,16,12,4,1,2025-06-22 04:03:31
2025-06-21T20:16+00:00,500103043,大同區,YouBike2.0_重慶保安街口(家樂福重慶店),25.05918,121.51373,20,2,18,1,2025-06-22 04:03:31
2025-06-21T20:16+00:00,500103046,大同區,YouBike2.0_民權國中(民權西路),25.06322,121.5144,25,8,17,1,2025-06-22 04:03:31
2025-06-21T20:16+00:00,500103047,大同區,YouBike2.0_承德民權路口,25.06247,121.51839,36,3,33,1,2025-06-22 04:03:31
2025-06-21T20:16+00:00,500103050,大同區,YouBike2.0_太原五原路口,25.05646,121.51698,32,12,19,1,2025-06-22 04:03:31
2025-06-21T20:16+00:00,500103057,大同區,YouBike2.0_捷運圓山站(2號出口),25.07182,121.51929,37,0,0,0,2025-06-22 04:03:31
2025-06-21T20:16+00:00,500103063,大同區,YouBike2.0_延平涼州街口,25.06092,121.51126,14,1,12,1,2025-06-22 04:03:31
2025-06-21T20:16+00:00,500103064,大同區,YouBike2.0_大同行政中心,25.06603,121.51481,16,14,2,1,2025-06-22 04:03:31
2025-06-21T20:16+00:00,500103071,大同區,YouBike2.0_承德路二段91巷口,25.05621,121.51847,20,7,13,1,2025-06-22 04:03:31
2025-06-21T20:16+00:00,500103075,大同區,YouBike2.0_玉泉公園(鄭州路),25.05044,121.50766,20,10,10,1,2025-06-22 04:03:31
2025-06-21T20:16+00:00,500104001,士林區,YouBike2.0_劍潭抽水站,25.08128,121.51784,17,4,5,1,2025-06-22 04:03:31
2025-06-21T20:16+00:00,500104016,士林區,YouBike2.0_劍潭海外青年活動中心,25.07994,121.52426,23,4,19,1,2025-06-22 04:03:31
2025-06-21T20:16+00:00,500104018,士林區,YouBike2.0_忠誠路一段173巷口,25.10813,121.5304,11,9,2,1,2025-06-22 04:03:31
2025-06-21T20:16+00:00,500104020,士林區,YouBike2.0_忠誠公園,25.10399,121.52593,25,4,21,1,2025-06-22 04:03:31
2025-06-21T20:16+00:00,500104026,士林區,YouBike2.0_前港公園(前港街),25.0848,121.52125,27,17,8,1,2025-06-22 04:03:31
2025-06-21T20:16+00:00,500104038,士林區,YouBike2.0_臺北市立天文館,25.09598,121.51776,50,2,48,1,2025-06-22 04:03:31
2025-06-21T20:16+00:00,500104040,士林區,YouBike2.0_福林公園,25.09419,121.52833,25,3,22,1,2025-06-22 04:03:31
2025-06-21T20:16+00:00,500104045,士林區,YouBike2.0_聯合醫院陽明院區,25.10455,121.53195,25,9,16,1,2025-06-22 04:03:31
2025-06-21T20:16+00:00,500104047,士林區,YouBike2.0_至誠公園,25.10143,121.53585,20,14,6,1,2025-06-22 04:03:31
2025-06-21T20:16+00:00,500104048,士林區,YouBike2.0_原住民文化主題公園,25.10113,121.55159,21,16,5,1,2025-06-22 04:03:31
2025-06-21T20:16+00:00,500104052,士林區,YouBike2.0_重慶北路四段190巷口,25.08505,121.51166,13,10,3,1,2025-06-22 04:03:31
2025-06-21T20:16+00:00,500104054,士林區,YouBike2.0_葫蘆國小,25.08254,121.5075,30,20,10,1,2025-06-22 04:03:31
2025-06-21T20:16+00:00,500104057,士林區,YouBike2.0_社子國小,25.09058,121.50142,15,0,15,0,2025-06-22 04:03:31
2025-06-21T20:16+00:00,500104060,士林區,YouBike2.0_社子公園,25.0902,121.50622,31,29,2,1,2025-06-22 04:03:31
2025-06-21T20:16+00:00,500104063,士林區,YouBike2.0_後港公園,25.09312,121.51419,15,10,5,1,2025-06-22 04:03:31
2025-06-21T20:16+00:00,500104078,士林區,YouBike2.0_市立圖書館葫蘆堵分館,25.08217,121.51074,13,8,5,1,2025-06-22 04:03:31
2025-06-21T20:16+00:00,500104080,士林區,YouBike2.0_永平社會住宅,25.08887,121.50314,15,9,5,1,2025-06-22 04:03:31
2025-06-21T20:16+00:00,500104082,士林區,YouBike2.0_通河街76巷/承德路四段10巷口,25.08019,121.5202,14,7,0,1,2025-06-22 04:03:31
2025-06-21T20:16+00:00,500104084,士林區,YouBike2.0_至誠雨聲街口,25.10199,121.52927,9,5,4,1,2025-06-22 04:03:31
2025-06-21T20:16+00:00,500104088,士林區,YouBike2.0_文林福華路口,25.10094,121.52243,19,10,9,1,2025-06-22 04:03:31
2025-06-21T20:16+00:00,500104092,士林區,YouBike2.0_德行東山路口,25.1107,121.53999,12,8,4,1,2025-06-22 04:03:31
2025-06-21T20:16+00:00,500104100,士林區,YouBike2.0_延平北路五段257巷15弄口,25.08408,121.50959,11,9,2,1,2025-06-22 04:03:31
2025-06-21T20:16+00:00,500104103,士林區,YouBike2.0_中山福國路口,25.10203,121.52561,14,8,6,1,2025-06-22 04:03:31
2025-06-21T20:16+00:00,500104105,士林區,YouBike2.0_承德後港街口,25.08238,121.52309,20,9,11,1,2025-06-22 04:03:31
2025-06-21T20:16+00:00,500104106,士林區,YouBike2.0_中山北路五段698巷口,25.09765,121.52757,15,8,6,1,2025-06-22 04:03:31
2025-06-21T20:16+00:00,500104109,士林區,YouBike2.0_銘傳大學(中山北路五段280巷口),25.08762,121.52711,23,10,12,1,2025-06-22 04:03:31
2025-06-21T20:16+00:00,500104114,士林區,YouBike2.0_美崙公園,25.09677,121.51931,22,9,13,1,2025-06-22 04:03:31
2025-06-21T20:16+00:00,500104116,士林區,YouBike2.0_天母東路8巷/忠誠路二段154巷口,25.11579,121.53113,14,8,4,1,2025-06-22 04:03:31
2025-06-21T20:16+00:00,500104119,士林區,YouBike2.0_忠誠忠義街口(北側),25.10566,121.52922,13,9,4,1,2025-06-22 04:03:31
2025-06-21T20:16+00:00,500104122,士林區,YouBike2.0_雙溪濕地公園,25.09762,121.51321,15,5,10,1,2025-06-22 04:03:31
2025-06-21T20:16+00:00,500104128,士林區,YouBike2.0_蘭雅公園(西側),25.10985,121.52859,15,8,4,1,2025-06-22 04:03:31
2025-06-21T20:16+00:00,500104129,士林區,YouBike2.0_福林路100巷77弄口,25.09441,121.53285,18,7,11,1,2025-06-22 04:03:31
2025-06-21T20:16+00:00,500104133,士林區,YouBike2.0_福林路255巷口,25.09854,121.53528,18,1,17,1,2025-06-22 04:03:31
2025-06-21T20:16+00:00,500105003,文山區,YouBike2.0_捷運萬隆站(1號出口),25.00115,121.53916,34,6,28,1,2025-06-22 04:03:31
2025-06-21T20:16+00:00,500105005,文山區,YouBike2.0_捷運萬隆站(2號出口),25.00144,121.53983,18,2,16,1,2025-06-22 04:03:31
2025-06-21T20:16+00:00,500105006,文山區,YouBike2.0_景仁公園,24.99621,121.54043,16,12,4,1,2025-06-22 04:03:31
2025-06-21T20:16+00:00,500105013,文山區,YouBike2.0_景美運動公園,25.00219,121.54454,26,9,15,1,2025-06-22 04:03:31
2025-06-21T20:16+00:00,500105024,文山區,YouBike2.0_興豐公園,24.99982,121.54761,25,17,8,1,2025-06-22 04:03:31
2025-06-21T20:16+00:00,500105026,文山區,YouBike2.0_考試院,24.98747,121.54984,39,10,28,1,2025-06-22 04:03:31
2025-06-21T20:16+00:00,500105028,文山區,YouBike2.0_世新大學,24.98859,121.54336,30,18,12,1,2025-06-22 04:03:31
2025-06-21T20:16+00:00,500105033,文山區,YouBike2.0_景文中學,24.98574,121.56745,36,14,22,1,2025-06-22 04:03:31
2025-06-21T20:16+00:00,500105035,文山區,YouBike2.0_文山行政中心,24.98959,121.56959,27,9,18,1,2025-06-22 04:03:31
2025-06-21T20:16+00:00,500105036,文山區,YouBike2.0_木柵公園,24.98718,121.56059,38,3,35,1,2025-06-22 04:03:31
2025-06-21T20:16+00:00,500105037,文山區,YouBike2.0_興隆公共住宅D2區,24.98814,121.56356,27,13,14,1,2025-06-22 04:03:31
2025-06-21T20:16+00:00,500105047,文山區,YouBike2.0_萬有3號公園,24.99889,121.5433,14,9,4,1,2025-06-22 04:03:31
2025-06-21T20:16+00:00,500105049,文山區,YouBike2.0_興得閱覽室,24.99579,121.55498,24,14,10,1,2025-06-22 04:03:31
2025-06-21T20:16+00:00,500105050,文山區,YouBike2.0_辛亥生態公園,25.00348,121.55642,23,7,16,1,2025-06-22 04:03:31
2025-06-21T20:16+00:00,500105054,文山區,YouBike2.0_政大一街口,24.98543,121.58006,14,10,4,1,2025-06-22 04:03:31
2025-06-21T20:16+00:00,500105058,文山區,YouBike2.0_明道國小東南側,24.98695,121.56456,28,6,21,1,2025-06-22 04:03:31
2025-06-21T20:16+00:00,500105061,文山區,YouBike2.0_師範大學公館校區_1,25.00753,121.53719,34,21,13,1,2025-06-22 04:03:31
2025-06-21T20:16+00:00,500105062,文山區,YouBike2.0_捷運動物園站(2號出口),24.99766,121.57875,39,0,39,0,2025-06-22 04:03:31
2025-06-21T20:16+00:00,500105066,文山區,YouBike2.0_景美污水抽水站,25.01076,121.53637,15,4,10,1,2025-06-22 04:03:31
2025-06-21T20:16+00:00,500105068,文山區,YouBike2.0_景興國中,24.99609,121.54284,10,7,3,1,2025-06-22 04:03:31
2025-06-21T20:16+00:00,500105069,文山區,YouBike2.0_景仁公園_1,24.9966,121.5403,30,19,11,1,2025-06-22 04:03:31
2025-06-21T20:16+00:00,500105077,文山區,YouBike2.0_試院公園,24.98808,121.54723,15,5,10,1,2025-06-22 04:03:31
2025-06-21T20:16+00:00,500105086,文山區,YouBike2.0_興隆路二段275巷1弄口,25.00268,121.55277,16,10,6,1,2025-06-22 04:03:31
2025-06-21T20:16+00:00,500105089,文山區,YouBike2.0_仙岩路22巷口,24.99892,121.54887,28,19,8,1,2025-06-22 04:03:31
2025-06-21T20:16+00:00,500105091,文山區,YouBike2.0_福興路78巷,25.00437,121.55048,14,10,4,1,2025-06-22 04:03:31
2025-06-21T20:16+00:00,500105094,文山區,YouBike2.0_興岩社會福利綜合大樓,25.00061,121.54941,18,8,10,1,2025-06-22 04:03:31
2025-06-21T20:16+00:00,500105096,文山區,YouBike2.0_木新路三段155巷口,24.98184,121.56125,15,8,6,1,2025-06-22 04:03:31
2025-06-21T20:16+00:00,500105103,文山區,YouBike2.0_興隆社會住宅D1區,24.98783,121.55831,31,3,28,1,2025-06-22 04:03:31
2025-06-21T20:16+00:00,500105107,文山區,YouBike2.0_萬芳出租國宅,25.00335,121.5655,36,8,28,1,2025-06-22 04:03:31
2025-06-21T20:16+00:00,500105108,文山區,YouBike2.0_景美國小,24.9893,121.53976,25,14,11,1,2025-06-22 04:03:31
2025-06-21T20:16+00:00,500105111,文山區,YouBike2.0_和興水岸社會住宅,24.98505,121.54953,29,18,11,1,2025-06-22 04:03:31
2025-06-21T20:16+00:00,500105113,文山區,YouBike2.0_考選部國家考場,24.98703,121.54884,26,9,17,1,2025-06-22 04:03:31
2025-06-21T20:16+00:00,500105114,文山區,YouBike2.0_明道國小(明道國宅),24.98686,121.56301,26,7,19,1,2025-06-22 04:03:31
2025-06-21T20:16+00:00,500106006,中正區,YouBike2.0_捷運古亭站(2號出口),25.0255,121.52346,55,6,49,1,2025-06-22 04:03:31
2025-06-21T20:16+00:00,500106007,中正區,YouBike2.0_捷運臺電大樓站(1號出口),25.0197,121.529,34,10,24,1,2025-06-22 04:03:31
2025-06-21T20:16+00:00,500106009,中正區,YouBike2.0_河堤國小,25.02277,121.52289,39,38,1,1,2025-06-22 04:03:31
2025-06-21T20:16+00:00,500106010,中正區,YouBike2.0_紀州庵,25.02092,121.52049,45,36,9,1,2025-06-22 04:03:31
2025-06-21T20:16+00:00,500106011,中正區,YouBike2.0_捷運臺電大樓站(5號出口),25.02075,121.52771,21,10,11,1,2025-06-22 04:03:31
2025-06-21T20:16+00:00,500106017,中正區,YouBike2.0_南昌公園,25.02698,121.52081,55,2,53,1,2025-06-22 04:03:31
2025-06-21T20:16+00:00,500106021,中正區,YouBike2.0_金華杭州南路口,25.031,121.52211,35,10,25,1,2025-06-22 04:03:31
2025-06-21T20:16+00:00,500106022,中正區,YouBike2.0_捷運中正紀念堂站(3號出口),25.03239,121.51866,36,8,28,1,2025-06-22 04:03:31
2025-06-21T20:16+00:00,500106028,中正區,YouBike2.0_中華路二段409巷口,25.02598,121.50806,15,8,7,1,2025-06-22 04:03:31
2025-06-21T20:16+00:00,500106043,中正區,YouBike2.0_捷運善導寺站(1號出口),25.04527,121.5222,46,5,40,1,2025-06-22 04:03:31
2025-06-21T20:16+00:00,500106048,中正區,YouBike2.0_信義杭州路口,25.0357,121.5241,59,13,45,1,2025-06-22 04:03:31
2025-06-21T20:16+00:00,500106054,中正區,YouBike2.0_法務部,25.03705,121.51249,27,4,23,1,2025-06-22 04:03:31
2025-06-21T20:16+00:00,500106059,中正區,YouBike2.0_中山堂,25.04412,121.51025,43,1,41,1,2025-06-22 04:03:31
2025-06-21T20:16+00:00,500106061,中正區,YouBike2.0_中華路一段21巷口,25.04677,121.50989,22,1,21,1,2025-06-22 04:03:31
2025-06-21T20:16+00:00,500106066,中正區,YouBike2.0_信義連雲街口,25.03377,121.53041,39,11,26,1,2025-06-22 04:03:31
2025-06-21T20:16+00:00,500106067,中正區,YouBike2.0_臺北轉運站,25.04842,121.51994,68,14,49,1,2025-06-22 04:03:31
2025-06-21T20:16+00:00,500106078,中正區,YouBike2.0_徐州杭州路口,25.04023,121.52565,30,11,19,1,2025-06-22 04:03:31
2025-06-21T20:16+00:00,500106085,中正區,YouBike2.0_弘道國中,25.03828,121.51524,33,3,30,1,2025-06-22 04:03:31
2025-06-21T20:16+00:00,500106093,中正區,YouBike2.0_仁愛金山路口,25.0384,121.52801,9,6,3,1,2025-06-22 04:03:31
2025-06-21T20:16+00:00,500106095,中正區,YouBike2.0_仁愛杭州路口,25.03846,121.52497,25,15,10,1,2025-06-22 04:03:31
2025-06-21T20:16+00:00,500106102,中正區,YouBike2.0_捷運忠孝新生站(1號出口),25.04272,121.53207,19,1,18,1,2025-06-22 04:03:31
2025-06-21T20:16+00:00,500106105,中正區,YouBike2.0_臺大醫院兒童醫院,25.04461,121.5188,22,13,8,1,2025-06-22 04:03:31
2025-06-21T20:16+00:00,500106113,中正區,YouBike2.0_濟南路二段8巷口,25.04127,121.52697,14,11,3,1,2025-06-22 04:03:31
2025-06-21T20:16+00:00,500106119,中正區,YouBike2.0_螢圃里小公園,25.02484,121.51973,25,18,6,1,2025-06-22 04:03:31
2025-06-21T20:16+00:00,500106123,中正區,YouBike2.0_仁愛新生路口(西南側),25.03796,121.53261,18,7,11,1,2025-06-22 04:03:31
2025-06-21T20:16+00:00,500106126,中正區,YouBike2.0_捷運善導寺站(5號出口),25.04418,121.52552,31,6,25,1,2025-06-22 04:03:31
2025-06-21T20:16+00:00,500106130,中正區,YouBike2.0_牯嶺街95巷,25.0255,121.52067,16,13,2,1,2025-06-22 04:03:31
2025-06-21T20:16+00:00,500106133,中正區,YouBike2.0_國立臺灣博物館南門館,25.03351,121.5156,21,6,15,1,2025-06-22 04:03:31
2025-06-21T20:16+00:00,500106134,中正區,YouBike2.0_汀州路一段106巷口,25.03008,121.50768,21,13,7,1,2025-06-22 04:03:31
2025-06-21T20:16+00:00,500107001,中山區,YouBike2.0_通北街65巷口,25.08251,121.54004,16,11,5,1,2025-06-22 04:03:31
2025-06-21T20:16+00:00,500107006,中山區,YouBike2.0_樂群二明水路口,25.08009,121.55226,20,3,17,1,2025-06-22 04:03:31
2025-06-21T20:16+00:00,500107013,中山區,YouBike2.0_南京遼寧街口,25.05176,121.54217,42,2,39,1,2025-06-22 04:03:31
2025-06-21T20:16+00:00,500107016,中山區,YouBike2.0_市民林森路口,25.04765,121.52589,40,35,4,1,2025-06-22 04:03:31
2025-06-21T20:16+00:00,500107017,中山區,YouBike2.0_南京新生路口,25.05194,121.52766,34,0,33,1,2025-06-22 04:03:31
2025-06-21T20:16+00:00,500107020,中山區,YouBike2.0_新生長春路口,25.05639,121.52752,32,25,7,1,2025-06-22 04:03:31
2025-06-21T20:16+00:00,500107021,中山區,YouBike2.0_第二果菜批發市場,25.06642,121.53735,40,24,16,1,2025-06-22 04:03:31
2025-06-21T20:16+00:00,500107023,中山區,YouBike2.0_興安華城,25.05606,121.54175,62,51,11,1,2025-06-22 04:03:31
2025-06-21T20:16+00:00,500107025,中山區,YouBike2.0_龍江錦州街口,25.06045,121.54077,16,14,2,1,2025-06-22 04:03:31
2025-06-21T20:16+00:00,500107030,中山區,YouBike2.0_中吉公園,25.05604,121.53166,30,17,12,1,2025-06-22 04:03:31
2025-06-21T20:16+00:00,500107036,中山區,YouBike2.0_捷運行天宮站(3號出口),25.05992,121.5333,48,20,28,1,2025-06-22 04:03:31
2025-06-21T20:16+00:00,500107041,中山區,YouBike2.0_民族林森路口,25.06847,121.52559,37,15,22,1,2025-06-22 04:03:31
2025-06-21T20:16+00:00,500107044,中山區,YouBike2.0_新生高架停車場(林森北路107巷口),25.04983,121.52853,14,3,9,1,2025-06-22 04:03:31
2025-06-21T20:16+00:00,500107045,中山區,YouBike2.0_南京林森路口(東南側),25.05201,121.52556,10,0,9,1,2025-06-22 04:03:31
2025-06-21T20:16+00:00,500107046,中山區,YouBike2.0_仁德公園,25.05337,121.5289,18,7,8,1,2025-06-22 04:03:31
2025-06-21T20:16+00:00,500107051,中山區,YouBike2.0_民權建國路口,25.06251,121.53765,50,22,28,1,2025-06-22 04:03:31
2025-06-21T20:16+00:00,500107052,中山區,YouBike2.0_松江路431巷口,25.06585,121.53338,15,12,2,1,2025-06-22 04:03:31
2025-06-21T20:16+00:00,500107054,中山區,YouBike2.0_吉林路407巷口,25.06595,121.53041,15,10,3,1,2025-06-22 04:03:31
2025-06-21T20:16+00:00,500107060,中山區,YouBike2.0_撫順公園,25.06416,121.52203,30,4,26,1,2025-06-22 04:03:31
2025-06-21T20:16+00:00,500107061,中山區,YouBike2.0_新生公園,25.06839,121.53032,29,25,3,1,2025-06-22 04:03:31
2025-06-21T20:16+00:00,500107065,中山區,YouBike2.0_松江路77巷口,25.04985,121.53312,10,8,2,1,2025-06-22 04:03:31
2025-06-21T20:16+00:00,500107066,中山區,YouBike2.0_建國長安路口,25.04836,121.53669,20,5,15,1,2025-06-22 04:03:31
2025-06-21T20:16+00:00,500107070,中山區,YouBike2.0_捷運行政大樓,25.05575,121.52168,14,6,7,1,2025-06-22 04:03:31
2025-06-21T20:16+00:00,500107071,中山區,YouBike2.0_中吉公園(松江路188巷),25.0568,121.53191,22,15,7,1,2025-06-22 04:03:31
2025-06-21T20:16+00:00,500107075,中山區,YouBike2.0_國立臺北大學(臺北校區),25.05794,121.54244,38,16,22,1,2025-06-22 04:03:31
2025-06-21T20:16+00:00,500107076,中山區,YouBike2.0_錦州吉林路口,25.06028,121.52991,30,19,11,1,2025-06-22 04:03:31
2025-06-21T20:16+00:00,500107083,中山區,YouBike2.0_興安合江路口,25.05619,121.53949,29,17,6,1,2025-06-22 04:03:31
2025-06-21T20:16+00:00,500107086,中山區,YouBike2.0_植福樂群路口,25.08303,121.5604,10,4,6,1,2025-06-22 04:03:31
2025-06-21T20:16+00:00,500107089,中山區,YouBike2.0_南京龍江路口,25.05205,121.54012,24,4,19,1,2025-06-22 04:03:31
2025-06-21T20:16+00:00,500107095,中山區,YouBike2.0_中429公園,25.07864,121.55557,21,13,8,1,2025-06-22 04:03:31
2025-06-21T20:16+00:00,500107098,中山區,YouBike2.0_松江路132巷口,25.05277,121.53013,14,4,9,1,2025-06-22 04:03:31
2025-06-21T20:16+00:00,500107100,中山區,YouBike2.0_長春一江街口,25.05488,121.53142,11,7,4,1,2025-06-22 04:03:31
2025-06-21T20:16+00:00,500107103,中山區,YouBike2.0_松江長春路口,25.05499,121.53295,16,2,11,1,2025-06-22 04:03:31
2025-06-21T20:16+00:00,500107112,中山區,YouBike2.0_民權新生路口,25.06305,121.52776,26,20,6,1,2025-06-22 04:03:31
2025-06-21T20:16+00:00,500107113,中山區,YouBike2.0_建國長春路口(北側),25.05476,121.53693,30,4,26,1,2025-06-22 04:03:31
2025-06-21T20:16+00:00,500107115,中山區,YouBike2.0_臺北市立美術館_1,25.07063,121.52327,30,1,29,1,2025-06-22 04:03:31
2025-06-21T20:16+00:00,500107121,中山區,YouBike2.0_新生民族路口(西南側),25.06819,121.52767,15,7,7,1,2025-06-22 04:03:31
2025-06-21T20:16+00:00,500107123,中山區,YouBike2.0_八德市場(北側),25.04478,121.53661,26,7,19,1,2025-06-22 04:03:31
2025-06-21T20:16+00:00,500107124,中山區,YouBike2.0_龍江朱崙街口,25.05004,121.54043,14,4,10,1,2025-06-22 04:03:31
2025-06-21T20:16+00:00,500107125,中山區,YouBike2.0_大直街94巷,25.08431,121.54755,15,0,0,0,2025-06-22 04:03:31
2025-06-21T20:16+00:00,500107131,中山區,YouBike2.0_新生長春路口(東北側),25.05532,121.52769,19,18,0,1,2025-06-22 04:03:31
2025-06-21T20:16+00:00,500107134,中山區,YouBike2.0_長春路258巷2弄口,25.05427,121.53896,15,10,4,1,2025-06-22 04:03:31
2025-06-21T20:16+00:00,500107136,中山區,YouBike2.0_建國五常街口,25.06419,121.53732,20,6,14,1,2025-06-22 04:03:31
2025-06-21T20:16+00:00,500107138,中山區,YouBike2.0_市民安東街口,25.0448,121.54213,27,16,11,1,2025-06-22 04:03:31
2025-06-21T20:16+00:00,500107139,中山區,YouBike2.0_市民大道二段5巷口,25.04812,121.52166,15,12,2,1,2025-06-22 04:03:31
2025-06-21T20:16+00:00,500107142,中山區,YouBike2.0_朱崙公園,25.04919,121.54198,20,14,6,1,2025-06-22 04:03:31
2025-06-21T20:16+00:00,500107149,中山區,YouBike2.0_北安通北街口,25.07965,121.54148,17,4,12,1,2025-06-22 04:03:31
2025-06-21T20:16+00:00,500107150,中山區,YouBike2.0_民權東復興北路口(西北側),25.06246,121.54323,20,2,18,1,2025-06-22 04:03:31
2025-06-21T20:16+00:00,500107154,中山區,YouBike2.0_中正國小(南京東路三段48巷),25.05126,121.53845,15,6,9,1,2025-06-22 04:03:31
2025-06-21T20:16+00:00,500107158,中山區,YouBike2.0_環山抽水站,25.07734,121.5631,21,14,7,1,2025-06-22 04:03:31
2025-06-21T20:16+00:00,500107164,中山區,YouBike2.0_捷運雙連站(1號出口),25.05767,121.52097,17,9,8,1,2025-06-22 04:03:31
2025-06-21T20:16+00:00,500107169,中山區,YouBike2.0_大直抽水站公車站,25.07756,121.54556,27,15,12,1,2025-06-22 04:03:31
2025-06-21T20:16+00:00,500107173,中山區,YouBike2.0_林森公園東北側,25.05381,121.52674,18,2,16,1,2025-06-22 04:03:31
2025-06-21T20:16+00:00,500107174,中山區,YouBike2.0_康樂公園西北側,25.05377,121.52456,18,7,11,1,2025-06-22 04:03:31
2025-06-21T20:16+00:00,500107180,中山區,YouBike2.0_內湖堤頂大道(西南側),25.08462,121.56016,24,4,20,1,2025-06-22 04:03:31
2025-06-21T20:16+00:00,500107183,中山區,YouBike2.0_松江路184巷口,25.05623,121.53296,21,9,12,1,2025-06-22 04:03:31
2025-06-21T20:16+00:00,500107184,中山區,YouBike2.0_民權東路三段60巷,25.06058,121.54236,18,12,5,1,2025-06-22 04:03:31
2025-06-21T20:16+00:00,500107188,中山區,YouBike2.0_明水路475巷口,25.07792,121.55137,18,11,7,1,2025-06-22 04:03:31
2025-06-21T20:16+00:00,500108005,內湖區,YouBike2.0_文湖國小,25.08637,121.56088,43,34,8,1,2025-06-22 04:03:31
2025-06-21T20:16+00:00,500108011,內湖區,YouBike2.0_大湖國小,25.08803,121.59958,29,23,6,1,2025-06-22 04:03:31
2025-06-21T20:16+00:00,500108019,內湖區,YouBike2.0_星雲街47號,25.07864,121.59177,22,9,12,1,2025-06-22 04:03:31
2025-06-21T20:16+00:00,500108022,內湖區,YouBike2.0_洲子二號公園,25.07932,121.56869,60,13,46,1,2025-06-22 04:03:31
2025-06-21T20:16+00:00,500108023,內湖區,YouBike2.0_港都公園,25.08296,121.5752,15,7,8,1,2025-06-22 04:03:31
2025-06-21T20:16+00:00,500108024,內湖區,YouBike2.0_環山路二段26巷口,25.08598,121.572,22,16,6,1,2025-06-22 04:03:31
2025-06-21T20:16+00:00,500108028,內湖區,YouBike2.0_捷運文德站(2號出口),25.07842,121.58464,49,3,45,1,2025-06-22 04:03:31
2025-06-21T20:16+00:00,500108034,內湖區,YouBike2.0_潭美街213號,25.05575,121.58486,12,7,5,1,2025-06-22 04:03:31
2025-06-21T20:16+00:00,500108035,內湖區,YouBike2.0_南京東路六段180號,25.0559,121.57991,21,16,5,1,2025-06-22 04:03:31
2025-06-21T20:16+00:00,500108037,內湖區,YouBike2.0_新明路343號,25.05653,121.58345,10,6,4,1,2025-06-22 04:03:31
2025-06-21T20:16+00:00,500108040,內湖區,YouBike2.0_樂康公園,25.07007,121.62055,20,10,10,1,2025-06-22 04:03:31
2025-06-21T20:16+00:00,500108045,內湖區,YouBike2.0_新明成功路口,25.06058,121.5911,30,15,15,1,2025-06-22 04:03:31
2025-06-21T20:16+00:00,500108048,內湖區,YouBike2.0_民權東路六段15巷,25.06853,121.57813,28,9,19,1,2025-06-22 04:03:31
2025-06-21T20:16+00:00,500108051,內湖區,YouBike2.0_內湖119號綠地,25.05594,121.57865,41,23,18,1,2025-06-22 04:03:31
2025-06-21T20:16+00:00,500108055,內湖區,YouBike2.0_福華商場,25.06877,121.59265,25,2,23,1,2025-06-22 04:03:31
2025-06-21T20:16+00:00,500108059,內湖區,YouBike2.0_金湖路347巷125弄口,25.0733,121.59834,25,23,2,1,2025-06-22 04:03:31
2025-06-21T20:16+00:00,500108061,內湖區,YouBike2.0_碧湖公園(內湖路二段103巷),25.08317,121.58109,19,10,9,1,2025-06-22 04:03:31
2025-06-21T20:16+00:00,500108062,內湖區,YouBike2.0_貿七社區,25.08357,121.58534,17,13,4,1,2025-06-22 04:03:31
2025-06-21T20:16+00:00,500108065,內湖區,YouBike2.0_康寧金湖路口,25.07896,121.59921,21,12,9,1,2025-06-22 04:03:31
2025-06-21T20:16+00:00,500108075,內湖區,YouBike2.0_康寧路三段54巷口,25.0716,121.60936,15,5,10,1,2025-06-22 04:03:31
2025-06-21T20:16+00:00,500108082,內湖區,YouBike2.0_捷運內湖站(1號出口),25.08373,121.59406,28,6,22,1,2025-06-22 04:03:31
2025-06-21T20:16+00:00,500108096,內湖區,YouBike2.0_國防醫學院,25.06851,121.59559,25,9,16,1,2025-06-22 04:03:31
2025-06-21T20:16+00:00,500108099,內湖區,YouBike2.0_九華公園,25.08844,121.56122,25,20,4,1,2025-06-22 04:03:31
2025-06-21T20:16+00:00,500108102,內湖區,YouBike2.0_行善行愛路口,25.0606,121.58286,12,5,7,1,2025-06-22 04:03:31
2025-06-21T20:16+00:00,500108103,內湖區,YouBike2.0_民善新湖二路口(家樂福內湖店),25.06017,121.57552,23,8,15,1,2025-06-22 04:03:31
2025-06-21T20:16+00:00,500108108,內湖區,YouBike2.0_三民國中(民權東路六段47巷),25.06935,121.58692,13,10,3,1,2025-06-22 04:03:31
2025-06-21T20:16+00:00,500108109,內湖區,YouBike2.0_瑞光路76巷口,25.07168,121.58125,12,7,4,1,2025-06-22 04:03:31
2025-06-21T20:16+00:00,500108112,內湖區,YouBike2.0_碧山內湖路口,25.08627,121.5914,16,13,1,1,2025-06-22 04:03:31
2025-06-21T20:16+00:00,500108117,內湖區,YouBike2.0_宏匯瑞光廣場(港墘路),25.07777,121.57562,20,5,15,1,2025-06-22 04:03:31
2025-06-21T20:16+00:00,500108120,內湖區,YouBike2.0_成功路三段83號前,25.07823,121.5898,17,7,10,1,2025-06-22 04:03:31
2025-06-21T20:16+00:00,500108121,內湖區,YouBike2.0_內湖路一段47巷,25.08781,121.55872,22,10,11,1,2025-06-22 04:03:31
2025-06-21T20:16+00:00,500108122,內湖區,YouBike2.0_陽光舊宗路口,25.07243,121.57416,20,6,14,1,2025-06-22 04:03:31
2025-06-21T20:16+00:00,500108124,內湖區,YouBike2.0_湖興公園,25.06671,121.58913,16,12,4,1,2025-06-22 04:03:31
2025-06-21T20:16+00:00,500108126,內湖區,YouBike2.0_安泰街(康樂橋下),25.07849,121.61666,21,9,12,1,2025-06-22 04:03:31
2025-06-21T20:16+00:00,500108128,內湖區,YouBike2.0_捷運港墘站(1號出口),25.08004,121.57568,23,7,16,1,2025-06-22 04:03:31
2025-06-21T20:16+00:00,500108135,內湖區,YouBike2.0_康寧路三段189巷93弄口,25.0735,121.61258,14,10,4,1,2025-06-22 04:03:31
2025-06-21T20:16+00:00,500108147,內湖區,YouBike2.0_大都會客運內湖站,25.06749,121.57784,25,15,10,1,2025-06-22 04:03:31
2025-06-21T20:16+00:00,500108154,內湖區,YouBike2.0_世紀經貿,25.08049,121.57361,16,7,9,1,2025-06-22 04:03:31
2025-06-21T20:16+00:00,500108158,內湖區,YouBike2.0_新湖三新湖二146巷口,25.06407,121.57787,25,3,22,1,2025-06-22 04:03:31
2025-06-21T20:16+00:00,500108159,內湖區,YouBike2.0_舊宗新湖二路口,25.06151,121.57811,25,3,22,1,2025-06-22 04:03:31
2025-06-21T20:16+00:00,500108161,內湖區,YouBike2.0_內湖路一段120巷15弄,25.08203,121.56298,32,3,29,1,2025-06-22 04:03:31
2025-06-21T20:16+00:00,500108162,內湖區,YouBike2.0_北勢湖環保公園(堤頂大道側),25.08318,121.56154,21,9,12,1,2025-06-22 04:03:31
2025-06-21T20:16+00:00,500108164,內湖區,YouBike2.0_達爾文大樓,25.07941,121.57277,15,4,11,1,2025-06-22 04:03:31
2025-06-21T20:16+00:00,500108171,內湖區,YouBike2.0_瑞光路316巷,25.07567,121.57341,20,3,17,1,2025-06-22 04:03:31
2025-06-21T20:16+00:00,500108175,內湖區,YouBike2.0_五分埤,25.07595,121.62257,16,10,6,1,2025-06-22 04:03:31
2025-06-21T20:16+00:00,500108177,內湖區,YouBike2.0_潭美公園(南京東路六段482號),25.06092,121.58898,29,1,28,1,2025-06-22 04:03:31
2025-06-21T20:16+00:00,500108178,內湖區,YouBike2.0_美善公園,25.05703,121.57861,22,12,10,1,2025-06-22 04:03:31
2025-06-21T20:16+00:00,500108182,內湖區,YouBike2.0_行善路417巷,25.06468,121.58654,26,18,8,1,2025-06-22 04:03:31
2025-06-21T20:16+00:00,500108186,內湖區,YouBike2.0_明美公園(南京東路六段451巷口),25.06082,121.58757,30,12,18,1,2025-06-22 04:03:31
2025-06-21T20:16+00:00,500108189,內湖區,YouBike2.0_捷運大湖公園站(1號出口),25.08383,121.60253,24,4,20,1,2025-06-22 04:03:31
2025-06-21T20:16+00:00,500108192,內湖區,YouBike2.0_上灣公園,25.06572,121.59778,25,12,13,1,2025-06-22 04:03:31
2025-06-21T20:16+00:00,500108193,內湖區,YouBike2.0_湖興公園(成功路),25.06703,121.59048,21,4,17,1,2025-06-22 04:03:31
2025-06-21T20:16+00:00,500108194,內湖區,YouBike2.0_文德三號公園(文德路),25.07834,121.58076,21,8,12,1,2025-06-22 04:03:31
2025-06-21T20:16+00:00,500108196,內湖區,YouBike2.0_星雲街210巷口,25.07966,121.59793,16,8,8,1,2025-06-22 04:03:31
2025-06-21T20:16+00:00,500108202,內湖區,YouBike2.0_文湖街21巷82弄口,25.08899,121.56036,18,11,7,1,2025-06-22 04:03:31
2025-06-21T20:16+00:00,500108203,內湖區,YouBike2.0_西湖公園(內湖路一段387巷),25.08409,121.57066,25,15,10,1,2025-06-22 04:03:31
2025-06-21T20:16+00:00,500108206,內湖區,YouBike2.0_西湖國中,25.08466,121.56577,21,2,19,1,2025-06-22 04:03:31
2025-06-21T20:16+00:00,500108207,內湖區,YouBike2.0_成美疏散門,25.05734,121.58804,22,10,12,1,2025-06-22 04:03:31
2025-06-21T20:16+00:00,500108208,內湖區,YouBike2.0_大湖國小(大湖山莊街173巷口),25.0878,121.60124,19,15,4,1,2025-06-22 04:03:31
2025-06-21T20:16+00:00,500109004,北投區,YouBike2.0_捷運明德站(1號出口),25.10896,121.51936,23,13,10,1,2025-06-22 04:03:31
2025-06-21T20:16+00:00,500109005,北投區,YouBike2.0_文林建民路口,25.10788,121.51457,25,18,5,1,2025-06-22 04:03:31
2025-06-21T20:16+00:00,500109010,北投區,YouBike2.0_捷運忠義站(1號出口),25.13149,121.47365,30,4,26,1,2025-06-22 04:03:31
2025-06-21T20:16+00:00,500109013,北投區,YouBike2.0_中央北路四段540巷口,25.12796,121.46782,31,28,3,1,2025-06-22 04:03:31
2025-06-21T20:16+00:00,500109015,北投區,YouBike2.0_捷運復興崗站(1號出口),25.1378,121.4863,45,4,41,1,2025-06-22 04:03:31
2025-06-21T20:16+00:00,500109016,北投區,YouBike2.0_捷運復興崗站旅客服務中心,25.13666,121.48159,15,7,7,1,2025-06-22 04:03:31
2025-06-21T20:16+00:00,500109018,北投區,YouBike2.0_稻香重三路口,25.13997,121.48967,15,2,13,1,2025-06-22 04:03:31
2025-06-21T20:16+00:00,500109019,北投區,YouBike2.0_國防大學政治作戰學院,25.13776,121.49345,45,37,8,1,2025-06-22 04:03:31
2025-06-21T20:16+00:00,500109026,北投區,YouBike2.0_八仙里辦公處,25.12297,121.50158,25,15,8,1,2025-06-22 04:03:31
2025-06-21T20:16+00:00,500109030,北投區,YouBike2.0_北投奇岩長青樂活大樓,25.12666,121.50373,25,7,18,1,2025-06-22 04:03:31
2025-06-21T20:16+00:00,500109031,北投區,YouBike2.0_捷運唭哩岸站(2號出口),25.12087,121.50523,48,12,36,1,2025-06-22 04:03:31
2025-06-21T20:16+00:00,500109034,北投區,YouBike2.0_捷運石牌站(2號出口),25.11451,121.51567,62,22,40,1,2025-06-22 04:03:31
2025-06-21T20:16+00:00,500109037,北投區,YouBike2.0_振興醫院,25.11753,121.52186,36,10,26,1,2025-06-22 04:03:31
2025-06-21T20:16+00:00,500109039,北投區,YouBike2.0_石牌國小,25.1144,121.51307,26,10,16,1,2025-06-22 04:03:31
2025-06-21T20:16+00:00,500109044,北投區,YouBike2.0_榮富公園,25.1137,121.52437,13,10,3,1,2025-06-22 04:03:31
2025-06-21T20:16+00:00,500109045,北投區,YouBike2.0_中正高中,25.10467,121.51654,31,6,25,1,2025-06-22 04:03:31
2025-06-21T20:16+00:00,500109047,北投區,YouBike2.0_桃源國中,25.13485,121.47769,31,26,5,1,2025-06-22 04:03:31
2025-06-21T20:16+00:00,500109050,北投區,YouBike2.0_復興公園,25.13872,121.5021,28,21,6,1,2025-06-22 04:03:31
2025-06-21T20:16+00:00,500109053,北投區,YouBike2.0_捷運明德站(3號出口),25.11,121.51841,48,23,25,1,2025-06-22 04:03:31
2025-06-21T20:16+00:00,500109059,北投區,YouBike2.0_珠海復興一路口,25.14045,121.50446,28,9,19,1,2025-06-22 04:03:31
2025-06-21T20:16+00:00,500109061,北投區,YouBike2.0_新奇岩社會住宅,25.12287,121.5037,12,9,3,1,2025-06-22 04:03:31
2025-06-21T20:16+00:00,500109063,北投區,YouBike2.0_奇岩4號綠地,25.12533,121.50573,12,6,5,1,2025-06-22 04:03:31
2025-06-21T20:16+00:00,500109071,北投區,YouBike2.0_和信治癌中心醫院,25.12757,121.47207,25,13,12,1,2025-06-22 04:03:31
2025-06-21T20:16+00:00,500109073,北投區,YouBike2.0_北投公園露天溫泉,25.13684,121.50792,15,5,10,1,2025-06-22 04:03:31
2025-06-21T20:16+00:00,500109076,北投區,YouBike2.0_石牌立農街口,25.11879,121.51921,29,4,23,1,2025-06-22 04:03:31
2025-06-21T20:16+00:00,500109080,北投區,YouBike2.0_福國承德路口,25.10171,121.51263,15,7,8,1,2025-06-22 04:03:31
2025-06-21T20:16+00:00,500109087,北投區,YouBike2.0_大業路65巷口,25.12307,121.49906,25,13,12,1,2025-06-22 04:03:31
2025-06-21T20:16+00:00,500109089,北投區,YouBike2.0_文林北明德路口(東北側),25.10576,121.5173,15,7,7,1,2025-06-22 04:03:31
2025-06-21T20:16+00:00,500109091,北投區,YouBike2.0_永興路一段32巷口,25.13905,121.50012,12,7,4,1,2025-06-22 04:03:31
2025-06-21T20:16+00:00,500109092,北投區,YouBike2.0_國立陽明交通大學(甲棟),25.11944,121.51453,30,3,27,1,2025-06-22 04:03:31
2025-06-21T20:16+00:00,500109093,北投區,YouBike2.0_關渡國中,25.11955,121.46735,24,19,4,1,2025-06-22 04:03:31
2025-06-21T20:16+00:00,500109099,北投區,YouBike2.0_捷運石牌站(2號出口)(西安街一段),25.11332,121.51615,23,7,16,1,2025-06-22 04:03:31
2025-06-21T20:16+00:00,500109101,北投區,YouBike2.0_關渡碼頭,25.12066,121.46228,50,34,15,1,2025-06-22 04:03:31
2025-06-21T20:16+00:00,500109102,北投區,YouBike2.0_珠海路(48號公園),25.14262,121.51218,21,17,4,1,2025-06-22 04:03:31
2025-06-21T20:16+00:00,500109103,北投區,YouBike2.0_承德文林北路口(西側),25.11032,121.51097,16,13,3,1,2025-06-22 04:03:31
2025-06-21T20:16+00:00,500109107,北投區,YouBike2.0_大業路667巷口,25.13709,121.4996,23,12,11,1,2025-06-22 04:03:31
2025-06-21T20:16+00:00,500109108,北投區,YouBike2.0_幼華中學(大業路),25.13372,121.49602,26,22,4,1,2025-06-22 04:03:31
2025-06-21T20:16+00:00,500109109,北投區,YouBike2.0_溫泉路68巷6弄口,25.13401,121.50564,19,17,2,1,2025-06-22 04:03:31
2025-06-21T20:16+00:00,500109113,北投區,YouBike2.0_北投市場(民族街口),25.13221,121.50388,24,12,12,1,2025-06-22 04:03:31
2025-06-21T20:16+00:00,500110007,松山區,YouBike2.0_捷運南京三民站(1號出口),25.05155,121.5636,39,5,33,1,2025-06-22 04:03:31
2025-06-21T20:16+00:00,500110011,松山區,YouBike2.0_民權復興路口,25.0622,121.54565,36,12,23,1,2025-06-22 04:03:31
2025-06-21T20:16+00:00,500110013,松山區,YouBike2.0_民有一號公園,25.06095,121.54731,41,24,17,1,2025-06-22 04:03:31
2025-06-21T20:16+00:00,500110016,松山區,YouBike2.0_三民路166巷口,25.0619,121.56328,12,9,3,1,2025-06-22 04:03:31
2025-06-21T20:16+00:00,500110024,松山區,YouBike2.0_民生光復路口,25.05834,121.55496,33,15,17,1,2025-06-22 04:03:31
2025-06-21T20:16+00:00,500110030,松山區,YouBike2.0_健康社會住宅,25.05433,121.56545,20,16,4,1,2025-06-22 04:03:31
2025-06-21T20:16+00:00,500110037,松山區,YouBike2.0_南京光復路口,25.05143,121.55716,31,19,12,1,2025-06-22 04:03:31
2025-06-21T20:16+00:00,500110039,松山區,YouBike2.0_健康新城,25.05408,121.56095,44,32,11,1,2025-06-22 04:03:31
2025-06-21T20:16+00:00,500110041,松山區,YouBike2.0_復盛公園,25.04763,121.56115,37,30,6,1,2025-06-22 04:03:31
2025-06-21T20:16+00:00,500110051,松山區,YouBike2.0_民權東路三段106巷口,25.062,121.54472,22,4,18,1,2025-06-22 04:03:31
2025-06-21T20:16+00:00,500110052,松山區,YouBike2.0_南京東路五段59巷口,25.05163,121.55907,17,7,10,1,2025-06-22 04:03:31
2025-06-21T20:16+00:00,500110056,松山區,YouBike2.0_長壽公園,25.05378,121.55893,22,19,3,1,2025-06-22 04:03:31
2025-06-21T20:16+00:00,500110058,松山區,YouBike2.0_南京東路四段179巷口,25.05173,121.55609,13,9,3,1,2025-06-22 04:03:31
2025-06-21T20:16+00:00,500110060,松山區,YouBike2.0_西松高中(健康路325巷),25.05567,121.56713,31,17,14,1,2025-06-22 04:03:31
2025-06-21T20:16+00:00,500110065,松山區,YouBike2.0_敦化八德路口,25.04802,121.54864,55,10,43,1,2025-06-22 04:03:31
2025-06-21T20:16+00:00,500110066,松山區,YouBike2.0_新東街51巷口,25.0615,121.56332,27,12,10,1,2025-06-22 04:03:31
2025-06-21T20:16+00:00,500110068,松山區,YouBike2.0_長春慶城街口,25.05452,121.54636,28,3,25,1,2025-06-22 04:03:31
2025-06-21T20:16+00:00,500110077,松山區,YouBike2.0_龍城市場,25.05454,121.55417,22,17,0,1,2025-06-22 04:03:31
2025-06-21T20:16+00:00,500110080,松山區,YouBike2.0_五常街370巷,25.06432,121.54537,11,8,2,1,2025-06-22 04:03:31
2025-06-21T20:16+00:00,500110084,松山區,YouBike2.0_三民國小(撫遠街),25.06457,121.56458,26,26,0,1,2025-06-22 04:03:31
2025-06-21T20:16+00:00,500110085,松山區,YouBike2.0_民生郵局,25.05936,121.56586,14,6,8,1,2025-06-22 04:03:31
2025-06-21T20:16+00:00,500110090,松山區,YouBike2.0_健康公園,25.05434,121.56878,26,12,14,1,2025-06-22 04:03:31
2025-06-21T20:16+00:00,500110091,松山區,YouBike2.0_新中街4巷口,25.05779,121.56167,36,29,1,1,2025-06-22 04:03:31
2025-06-21T20:16+00:00,500110092,松山區,YouBike2.0_光復北富錦街口,25.06054,121.55489,25,9,16,1,2025-06-22 04:03:31
2025-06-21T20:16+00:00,500110096,松山區,YouBike2.0_民權三民路口,25.06293,121.56296,20,8,11,1,2025-06-22 04:03:31
2025-06-21T20:16+00:00,500110097,松山區,YouBike2.0_民權運動公園(北側),25.06198,121.55711,30,18,11,1,2025-06-22 04:03:31
2025-06-21T20:16+00:00,500110100,松山區,YouBike2.0_富錦新東街口(西側),25.06108,121.5647,13,10,3,1,2025-06-22 04:03:31
2025-06-21T20:16+00:00,500110101,松山區,YouBike2.0_延壽街18巷口,25.05725,121.56843,17,9,8,1,2025-06-22 04:03:31
2025-06-21T20:16+00:00,500111001,南港區,YouBike2.0_南港公園(東新街),25.04591,121.59226,25,11,14,1,2025-06-22 04:03:31
2025-06-21T20:16+00:00,500111006,南港區,YouBike2.0_合樂公園,25.04843,121.58154,15,4,11,1,2025-06-22 04:03:31
2025-06-21T20:16+00:00,500111029,南港區,YouBike2.0_中華科技大學,25.03392,121.60985,20,12,8,1,2025-06-22 04:03:31
2025-06-21T20:16+00:00,500111030,南港區,YouBike2.0_六福公園,25.04681,121.61703,19,12,7,1,2025-06-22 04:03:31
2025-06-21T20:16+00:00,500111031,南港區,YouBike2.0_南港加壓站,25.04805,121.61594,24,14,10,1,2025-06-22 04:03:31
2025-06-21T20:16+00:00,500111034,南港區,YouBike2.0_臺北流行音樂中心(市民大道),25.05211,121.59839,32,6,26,1,2025-06-22 04:03:31
2025-06-21T20:16+00:00,500111037,南港區,YouBike2.0_南港軟體園區(新民街),25.05627,121.61369,25,1,24,1,2025-06-22 04:03:31
2025-06-21T20:16+00:00,500111050,南港區,YouBike2.0_園區重陽路口,25.05937,121.61072,21,13,8,1,2025-06-22 04:03:31
2025-06-21T20:16+00:00,500111051,南港區,YouBike2.0_南港車站B棟(市民大道),25.05293,121.60549,24,15,9,1,2025-06-22 04:03:31
2025-06-21T20:16+00:00,500111054,南港區,YouBike2.0_經貿公園,25.06271,121.61597,20,1,19,1,2025-06-22 04:03:31
2025-06-21T20:16+00:00,500111056,南港區,YouBike2.0_捷運南港展覽館站(7號出口),25.05436,121.6181,42,3,39,1,2025-06-22 04:03:31
2025-06-21T20:16+00:00,500111058,南港區,YouBike2.0_舊莊國小(舊莊街一段),25.03987,121.62015,18,13,5,1,2025-06-22 04:03:31
2025-06-21T20:16+00:00,500111059,南港區,YouBike2.0_向陽公園,25.05705,121.59265,24,15,9,1,2025-06-22 04:03:31
2025-06-21T20:16+00:00,500111065,南港區,YouBike2.0_中坡市民路口(東北側),25.04969,121.58028,27,11,16,1,2025-06-22 04:03:31
2025-06-21T20:16+00:00,500111074,南港區,YouBike2.0_南港疏散門(基三號疏散門),25.05543,121.5892,24,16,8,1,2025-06-22 04:03:31
2025-06-21T20:16+00:00,500111077,南港區,YouBike2.0_舊莊派出所,25.03827,121.62274,15,9,6,1,2025-06-22 04:03:31
2025-06-21T20:16+00:00,500111078,南港區,YouBike2.0_南港路三段80巷,25.05394,121.59124,15,10,5,1,2025-06-22 04:03:31
2025-06-21T20:16+00:00,500111087,南港區,YouBike2.0_中興公園,25.04487,121.61481,15,2,13,1,2025-06-22 04:03:31
2025-06-21T20:16+00:00,500111092,南港區,YouBike2.0_中研院近代史研究所研究大樓,25.03999,121.61538,16,2,14,1,2025-06-22 04:03:31
2025-06-21T20:16+00:00,500111093,南港區,YouBike2.0_中研院人文社會科學研究中心,25.04159,121.61532,16,4,12,1,2025-06-22 04:03:31
2025-06-21T20:16+00:00,500111094,南港區,YouBike2.0_中研院生態時代館,25.04287,121.61342,16,3,13,1,2025-06-22 04:03:31
2025-06-21T20:16+00:00,500111096,南港區,YouBike2.0_東明公園,25.05469,121.60381,20,12,8,1,2025-06-22 04:03:31
2025-06-21T20:16+00:00,500111097,南港區,YouBike2.0_捷運南港軟體園區站(1號出口),25.06043,121.61498,36,3,33,1,2025-06-22 04:03:31
2025-06-21T20:16+00:00,500111098,南港區,YouBike2.0_南港花園社區A18,25.04015,121.59111,13,11,1,1,2025-06-22 04:03:31
2025-06-21T20:16+00:00,500111119,南港區,YouBike2.0_經貿二路105巷口(經貿二路),25.05791,121.61704,37,6,31,1,2025-06-22 04:03:31
2025-06-21T20:16+00:00,500111120,南港區,YouBike2.0_經貿二路105巷口(經貿一路),25.0586,121.61973,20,3,17,1,2025-06-22 04:03:31
2025-06-21T20:16+00:00,500111121,南港區,YouBike2.0_經貿二路185巷,25.06148,121.61698,21,5,16,1,2025-06-22 04:03:31
2025-06-21T20:16+00:00,500112004,信義區,YouBike2.0_和平東路三段631巷口,25.0132,121.56335,24,17,7,1,2025-06-22 04:03:31
2025-06-21T20:16+00:00,500112005,信義區,YouBike2.0_和平東路三段530巷口,25.01545,121.56134,25,7,18,1,2025-06-22 04:03:31
2025-06-21T20:16+00:00,500112006,信義區,YouBike2.0_景勤二號公園,25.02698,121.55841,41,21,20,1,2025-06-22 04:03:31
2025-06-21T20:16+00:00,500112010,信義區,YouBike2.0_捷運象山站(2號出口),25.03222,121.56974,41,1,39,1,2025-06-22 04:03:31
2025-06-21T20:16+00:00,500112013,信義區,YouBike2.0_興雅國中,25.03616,121.56983,18,0,17,1,2025-06-22 04:03:31
2025-06-21T20:16+00:00,500112016,信義區,YouBike2.0_中全公園,25.0382,121.57495,34,28,5,1,2025-06-22 04:03:31
2025-06-21T20:16+00:00,500112042,信義區,YouBike2.0_松高路(信義新天地A4館),25.03918,121.56654,17,6,11,1,2025-06-22 04:03:31
2025-06-21T20:16+00:00,500112048,信義區,YouBike2.0_雅祥公園(松信路50巷口),25.04732,121.57211,12,7,4,1,2025-06-22 04:03:31
2025-06-21T20:16+00:00,500112049,信義區,YouBike2.0_松山車站,25.0489,121.57841,70,9,56,1,2025-06-22 04:03:31
2025-06-21T20:16+00:00,500112052,信義區,YouBike2.0_三興國小,25.02969,121.55766,26,26,0,1,2025-06-22 04:03:31
2025-06-21T20:16+00:00,500112053,信義區,YouBike2.0_市民松信路口,25.04927,121.57205,20,16,3,1,2025-06-22 04:03:31
2025-06-21T20:16+00:00,500112054,信義區,YouBike2.0_松山高中,25.0433,121.5638,42,8,33,1,2025-06-22 04:03:31
2025-06-21T20:16+00:00,500112058,信義區,YouBike2.0_捷運後山埤站(2號出口),25.04395,121.58184,22,5,17,1,2025-06-22 04:03:31
2025-06-21T20:16+00:00,500112059,信義區,YouBike2.0_虎林永吉路口,25.04519,121.57712,21,16,1,1,2025-06-22 04:03:31
2025-06-21T20:16+00:00,500112066,信義區,YouBike2.0_世貿三館,25.03511,121.56369,54,3,51,1,2025-06-22 04:03:31
2025-06-21T20:16+00:00,500112067,信義區,YouBike2.0_松德虎林街口,25.0383,121.5762,30,22,6,1,2025-06-22 04:03:31
2025-06-21T20:16+00:00,500112069,信義區,YouBike2.0_基隆路一段101巷口,25.04516,121.56702,32,25,6,1,2025-06-22 04:03:31
2025-06-21T20:16+00:00,500112070,信義區,YouBike2.0_捷運永春站(2號出口),25.0405,121.57538,30,23,7,1,2025-06-22 04:03:31
2025-06-21T20:16+00:00,500112071,信義區,YouBike2.0_吳興街260巷,25.02606,121.5631,32,19,7,1,2025-06-22 04:03:31
2025-06-21T20:16+00:00,500112072,信義區,YouBike2.0_松山家商(林口街),25.03593,121.57906,47,35,12,1,2025-06-22 04:03:31
2025-06-21T20:16+00:00,500112076,信義區,YouBike2.0_捷運台北101/世貿站(2號出口),25.0327,121.56157,52,11,38,1,2025-06-22 04:03:31
2025-06-21T20:16+00:00,500112078,信義區,YouBike2.0_吳興街284巷36弄口,25.02236,121.56268,25,13,9,1,2025-06-22 04:03:31
2025-06-21T20:16+00:00,500112079,信義區,YouBike2.0_協和祐德高級中學,25.0426,121.58381,20,10,10,1,2025-06-22 04:03:31
2025-06-21T20:16+00:00,500112082,信義區,YouBike2.0_臺北南山廣場_1,25.03404,121.56598,68,0,67,1,2025-06-22 04:03:31
2025-06-21T20:16+00:00,500112084,信義區,YouBike2.0_景平公園,25.02976,121.5642,41,32,8,1,2025-06-22 04:03:31
2025-06-21T20:16+00:00,500112087,信義區,YouBike2.0_松仁路305號,25.02306,121.57036,21,16,5,1,2025-06-22 04:03:31
2025-06-21T20:16+00:00,500112088,信義區,YouBike2.0_吳興街394巷口,25.02474,121.56741,12,10,2,1,2025-06-22 04:03:31
2025-06-21T20:16+00:00,500112089,信義區,YouBike2.0_忠孝東路五段215巷口,25.0409,121.5705,24,0,23,1,2025-06-22 04:03:31
2025-06-21T20:16+00:00,500112090,信義區,YouBike2.0_松勤莊敬路口,25.03203,121.5615,15,6,9,1,2025-06-22 04:03:31
2025-06-21T20:16+00:00,500112092,信義區,YouBike2.0_信義松德路口,25.03322,121.57433,23,16,7,1,2025-06-22 04:03:31
2025-06-21T20:16+00:00,500112094,信義區,YouBike2.0_吳興街284巷(廣安宮),25.02326,121.56329,15,11,0,1,2025-06-22 04:03:31
2025-06-21T20:16+00:00,500112099,信義區,YouBike2.0_廣慈博愛園區(西側),25.03866,121.58082,23,11,11,1,2025-06-22 04:03:31
2025-06-21T20:16+00:00,500112100,信義區,YouBike2.0_和平東路三段341巷口,25.02188,121.55891,22,11,7,1,2025-06-22 04:03:31
2025-06-21T20:16+00:00,500112103,信義區,YouBike2.0_臺北文化體育園區辦公大樓,25.04144,121.56126,33,1,31,1,2025-06-22 04:03:31
2025-06-21T20:16+00:00,500112104,信義區,YouBike2.0_捷運國父紀念館站(5號出口),25.04206,121.55792,23,10,13,1,2025-06-22 04:03:31
2025-06-21T20:16+00:00,500112108,信義區,YouBike2.0_基隆市民路口,25.04892,121.56906,26,15,11,1,2025-06-22 04:03:31
2025-06-21T20:16+00:00,500112110,信義區,YouBike2.0_松德路169巷口,25.03633,121.57582,20,15,5,1,2025-06-22 04:03:31
2025-06-21T20:16+00:00,500112113,信義區,YouBike2.0_永吉路187巷口,25.04584,121.57273,16,15,1,1,2025-06-22 04:03:31
2025-06-21T20:16+00:00,500112115,信義區,YouBike2.0_信安街/富陽街44巷口,25.02309,121.55537,21,12,8,1,2025-06-22 04:03:31
2025-06-21T20:16+00:00,500112116,信義區,YouBike2.0_吳興公園,25.02383,121.56767,20,16,4,1,2025-06-22 04:03:31
2025-06-21T20:16+00:00,500112120,信義區,YouBike2.0_松山家商(東側),25.03568,121.58133,24,18,6,1,2025-06-22 04:03:31
2025-06-21T20:16+00:00,500112124,信義區,YouBike2.0_松智松平路口,25.0304,121.5654,16,1,15,1,2025-06-22 04:03:31
2025-06-21T20:16+00:00,500112127,信義區,YouBike2.0_永吉路120巷15弄口,25.04501,121.57028,21,13,8,1,2025-06-22 04:03:31
2025-06-21T20:16+00:00,500112128,信義區,YouBike2.0_臺北文創大樓(菸廠路),25.04499,121.56082,27,7,20,1,2025-06-22 04:03:31
2025-06-21T20:16+00:00,500113002,萬華區,YouBike2.0_寶興長泰街口(西南角),25.0216,121.49597,17,15,2,1,2025-06-22 04:03:31
2025-06-21T20:16+00:00,500113008,萬華區,YouBike2.0_國興青年路口,25.02594,121.50651,51,29,22,1,2025-06-22 04:03:31
2025-06-21T20:16+00:00,500113012,萬華區,YouBike2.0_復華花園新城,25.02964,121.50258,38,25,11,1,2025-06-22 04:03:31
2025-06-21T20:16+00:00,500113016,萬華區,YouBike2.0_艋舺大道146巷口,25.03301,121.5016,14,3,11,1,2025-06-22 04:03:31
2025-06-21T20:16+00:00,500113017,萬華區,YouBike2.0_東園國小,25.02257,121.49807,33,27,5,1,2025-06-22 04:03:31
2025-06-21T20:16+00:00,500113018,萬華區,YouBike2.0_華中疏散門,25.01688,121.49534,12,8,4,1,2025-06-22 04:03:31
2025-06-21T20:16+00:00,500113019,萬華區,YouBike2.0_錦德公園,25.02332,121.49264,29,18,5,1,2025-06-22 04:03:31
2025-06-21T20:16+00:00,500113020,萬華區,YouBike2.0_忠德公園,25.02516,121.49604,19,13,4,1,2025-06-22 04:03:31
2025-06-21T20:16+00:00,500113023,萬華區,YouBike2.0_西園艋舺路口,25.03267,121.49757,50,15,35,1,2025-06-22 04:03:31
2025-06-21T20:16+00:00,500113031,萬華區,YouBike2.0_糖廍文化園區,25.03383,121.4946,18,2,12,1,2025-06-22 04:03:31
2025-06-21T20:16+00:00,500113034,萬華區,YouBike2.0_開封西寧路口,25.04662,121.50717,68,13,55,1,2025-06-22 04:03:31
2025-06-21T20:16+00:00,500113037,萬華區,YouBike2.0_貓公園(中興橋頭),25.04369,121.5018,16,14,2,1,2025-06-22 04:03:31
2025-06-21T20:16+00:00,500113039,萬華區,YouBike2.0_中華桂林路口,25.03771,121.50662,34,20,14,1,2025-06-22 04:03:31
2025-06-21T20:16+00:00,500113040,萬華區,YouBike2.0_捷運龍山寺站(1號出口),25.03535,121.49938,33,2,30,1,2025-06-22 04:03:31
2025-06-21T20:16+00:00,500113047,萬華區,YouBike2.0_臺北市電影主題公園(峨眉街),25.04445,121.50306,20,12,8,1,2025-06-22 04:03:31
2025-06-21T20:16+00:00,500113054,萬華區,YouBike2.0_長順街60巷口,25.03119,121.48858,15,7,8,1,2025-06-22 04:03:31
2025-06-21T20:16+00:00,500113056,萬華區,YouBike2.0_華江污水廠,25.03606,121.49163,20,17,0,1,2025-06-22 04:03:31
2025-06-21T20:16+00:00,500113058,萬華區,YouBike2.0_綠堤社區公園,25.03302,121.4931,28,13,12,1,2025-06-22 04:03:31
2025-06-21T20:16+00:00,500113060,萬華區,YouBike2.0_富民路145巷口,25.01796,121.49988,18,6,12,1,2025-06-22 04:03:31
2025-06-21T20:16+00:00,500113063,萬華區,YouBike2.0_洛陽停車場,25.04776,121.50612,22,5,16,1,2025-06-22 04:03:31
2025-06-21T20:16+00:00,500113065,萬華區,YouBike2.0_萬華國中_1,25.02926,121.49936,36,22,14,1,2025-06-22 04:03:31
2025-06-21T20:16+00:00,500113066,萬華區,YouBike2.0_青年公園3號出口,25.02273,121.50271,46,40,6,1,2025-06-22 04:03:31
2025-06-21T20:16+00:00,500113069,萬華區,YouBike2.0_莒光社會住宅,25.0317,121.50033,30,26,4,1,2025-06-22 04:03:31
2025-06-21T20:16+00:00,500113074,萬華區,YouBike2.0_和平西路二段190巷口,25.03348,121.50445,15,7,8,1,2025-06-22 04:03:31
2025-06-21T20:16+00:00,500113078,萬華區,YouBike2.0_水源青年路口,25.02005,121.50429,24,9,15,1,2025-06-22 04:03:31
2025-06-21T20:16+00:00,500113083,萬華區,YouBike2.0_綠堤公園(西北側),25.03338,121.49267,14,9,4,1,2025-06-22 04:03:31
2025-06-21T20:16+00:00,500113091,萬華區,YouBike2.0_新和國小(中華路二段416巷),25.02677,121.50283,19,8,11,1,2025-06-22 04:03:31
2025-06-21T20:16+00:00,500113092,萬華區,YouBike2.0_環南綜合市場(西藏路),25.0294,121.49082,15,6,9,1,2025-06-22 04:03:31
2025-06-21T20:16+00:00,500119006,臺大公館校區,YouBike2.0_臺大卓越研究大樓,25.01466,121.52917,92,64,28,1,2025-06-22 04:03:31
2025-06-21T20:16+00:00,500119047,臺大公館校區,YouBike2.0_臺大土木系館,25.01761,121.53844,30,1,29,1,2025-06-22 04:03:31
2025-06-21T20:16+00:00,500119054,臺大公館校區,YouBike2.0_臺大心理系館南側,25.01941,121.5404,30,16,13,1,2025-06-22 04:03:31
2025-06-21T20:16+00:00,500119058,臺大公館校區,YouBike2.0_臺大舊體育館西側,25.0198,121.53583,33,3,30,1,2025-06-22 04:03:31
2025-06-21T20:16+00:00,500119061,臺大公館校區,YouBike2.0_臺大鹿鳴堂東側,25.01511,121.53786,39,4,35,1,2025-06-22 04:03:31
2025-06-21T20:16+00:00,500119065,臺大公館校區,YouBike2.0_臺大二號館,25.01699,121.53574,10,5,5,1,2025-06-22 04:03:31
2025-06-21T20:16+00:00,500119066,臺大公館校區,YouBike2.0_臺大凝態館南側,25.02157,121.53633,20,0,20,1,2025-06-22 04:03:31
2025-06-21T20:16+00:00,500119067,臺大公館校區,YouBike2.0_臺大社科院西側,25.02053,121.54145,42,12,30,1,2025-06-22 04:03:31
2025-06-21T20:16+00:00,500119072,臺大公館校區,YouBike2.0_臺大原分所北側,25.01881,121.53868,12,4,8,1,2025-06-22 04:03:31
2025-06-21T20:16+00:00,500119074,臺大公館校區,YouBike2.0_臺大生命科學館西北側,25.01548,121.53825,30,3,27,1,2025-06-22 04:03:31
2025-06-21T20:16+00:00,500119079,臺大公館校區,YouBike2.0_臺大一號館,25.01698,121.53455,19,4,14,1,2025-06-22 04:03:31
2025-06-21T20:16+00:00,500119080,臺大公館校區,YouBike2.0_臺大小小福西南側,25.01539,121.53686,10,2,7,1,2025-06-22 04:03:31
2025-06-21T20:16+00:00,500119081,臺大公館校區,YouBike2.0_臺大教研館北側,25.01337,121.53909,26,2,24,1,2025-06-22 04:03:31
2025-06-21T20:16+00:00,500119083,臺大公館校區,YouBike2.0_臺大新生教室南側,25.0196,121.53846,18,6,12,1,2025-06-22 04:03:31
2025-06-21T20:16+00:00,500119088,臺大公館校區,YouBike2.0_臺大黑森林西側,25.01995,121.54347,35,32,3,1,2025-06-22 04:03:31
2025-06-21T20:16+00:00,500119091,臺大公館校區,YouBike2.0_臺大明達館北側(員工宿舍),25.01816,121.54469,18,12,6,1,2025-06-22 04:03:31
2025-06-21T20:16+00:00,500119095,臺大公館校區,YouBike2.0_臺大學新館,25.01944,121.54339,33,10,23,1,2025-06-22 04:03:31
2025-06-21T20:16+00:00,500119096,臺大公館校區,YouBike2.0_臺大水源舍區C棟,25.01547,121.52892,99,70,29,1,2025-06-22 04:03:31
