timestamp,sno,sarea,sna,latitude,longitude,total,available_rent_bikes,available_return_bikes,act,srcUpdateTime
2025-05-27T02:46+00:00,500101008,大安區,YouBike2.0_新生南路三段52號前,25.02112,121.53407,17,0,17,1,2025-05-27 10:24:30
2025-05-27T02:46+00:00,500101012,大安區,YouBike2.0_辛亥路一段30號前,25.01986,121.52982,8,0,8,1,2025-05-27 10:24:30
2025-05-27T02:46+00:00,500101018,大安區,YouBike2.0_溫州公園,25.01895,121.53156,5,0,5,1,2025-05-27 10:24:30
2025-05-27T02:46+00:00,500101019,大安區,YouBike2.0_和平臥龍街口,25.024461,121.546705,24,10,14,1,2025-05-27 10:24:30
2025-05-27T02:46+00:00,500101020,大安區,YouBike2.0_溫州停車場,25.02093,121.5331,5,0,5,0,2025-05-27 10:24:30
2025-05-27T02:46+00:00,500101022,大安區,YouBike2.0_捷運公館站(2號出口),25.01491,121.53438,99,1,97,1,2025-05-27 10:24:30
2025-05-27T02:46+00:00,500101027,大安區,YouBike2.0_臺灣科技大學後門,25.01182,121.54165,39,18,21,1,2025-05-27 10:24:30
2025-05-27T02:46+00:00,500101029,大安區,YouBike2.0_臺大環研大樓,25.01234,121.54503,15,2,13,1,2025-05-27 10:24:30
2025-05-27T02:46+00:00,500101030,大安區,YouBike2.0_臺大永齡生醫工程館,25.0136,121.54656,34,12,22,1,2025-05-27 10:24:30
2025-05-27T02:46+00:00,500101033,大安區,YouBike2.0_臺大男六舍前,25.01664,121.5452,40,0,40,1,2025-05-27 10:24:30
2025-05-27T02:46+00:00,500101034,大安區,YouBike2.0_臺大動物醫院前,25.01576,121.54291,18,8,10,1,2025-05-27 10:24:30
2025-05-27T02:46+00:00,500101036,大安區,YouBike2.0_臺大萬才館前,25.02032,121.54497,20,5,15,1,2025-05-27 10:24:30
2025-05-27T02:46+00:00,500101037,大安區,YouBike2.0_臺大國青大樓宿舍前,25.02076,121.54432,20,0,20,1,2025-05-27 10:24:30
2025-05-27T02:46+00:00,500101041,大安區,YouBike2.0_辛亥新生路口東南側,25.02218,121.53474,50,4,46,1,2025-05-27 10:24:30
2025-05-27T02:46+00:00,500101091,大安區,YouBike2.0_國北教大側門南側,25.022864,121.546622,34,27,7,1,2025-05-27 10:24:30
2025-05-27T02:46+00:00,500101092,大安區,YouBike2.0_和平實小東北側,25.021641,121.54704,25,16,9,1,2025-05-27 10:24:30
2025-05-27T02:46+00:00,500101097,大安區,YouBike2.0_臥龍樂業街口,25.01856,121.55558,41,2,39,1,2025-05-27 10:24:30
2025-05-27T02:46+00:00,500101102,大安區,YouBike2.0_喬治工商,25.02705,121.55551,22,1,20,1,2025-05-27 10:24:30
2025-05-27T02:46+00:00,500101105,大安區,YouBike2.0_和平金山路口,25.02669,121.52529,45,6,39,1,2025-05-27 10:24:30
2025-05-27T02:46+00:00,500101107,大安區,YouBike2.0_和平龍泉街口,25.02638,121.52971,34,18,16,1,2025-05-27 10:24:30
2025-05-27T02:46+00:00,500101110,大安區,YouBike2.0_捷運古亭站(6號出口),25.0276,121.52217,60,2,58,1,2025-05-27 10:24:30
2025-05-27T02:46+00:00,500101113,大安區,YouBike2.0_臺北市立圖書館(總館),25.02895,121.5379,51,5,45,1,2025-05-27 10:24:30
2025-05-27T02:46+00:00,500101114,大安區,YouBike2.0_新生和平路口東北側,25.02657,121.53515,51,28,22,1,2025-05-27 10:24:30
2025-05-27T02:46+00:00,500101118,大安區,YouBike2.0_金甌女中,25.03519,121.5245,15,12,3,1,2025-05-27 10:24:30
2025-05-27T02:46+00:00,500101120,大安區,YouBike2.0_愛國金山路口,25.03164,121.52661,43,30,13,1,2025-05-27 10:24:30
2025-05-27T02:46+00:00,500101124,大安區,YouBike2.0_安和路二段181巷口,25.02721,121.54988,29,25,4,1,2025-05-27 10:24:30
2025-05-27T02:46+00:00,500101128,大安區,YouBike2.0_新生南路一段119巷口,25.04003,121.53299,33,2,31,1,2025-05-27 10:24:30
2025-05-27T02:46+00:00,500101129,大安區,YouBike2.0_幸安國小(仁愛路),25.03753,121.53523,28,6,21,1,2025-05-27 10:24:30
2025-05-27T02:46+00:00,500101130,大安區,YouBike2.0_民榮公園,25.03534,121.5354,15,1,14,1,2025-05-27 10:24:30
2025-05-27T02:46+00:00,500101131,大安區,YouBike2.0_復興南路1段340巷口,25.03701,121.54348,50,41,9,1,2025-05-27 10:24:30
2025-05-27T02:46+00:00,500101134,大安區,YouBike2.0_捷運大安站(4號出口),25.0332,121.5439,13,0,13,1,2025-05-27 10:24:30
2025-05-27T02:46+00:00,500101140,大安區,YouBike2.0_仁愛國中,25.03706,121.55166,25,7,17,1,2025-05-27 10:24:30
2025-05-27T02:46+00:00,500101149,大安區,YouBike2.0_捷運忠孝新生站(6號出口),25.04091,121.53295,15,1,14,1,2025-05-27 10:24:30
2025-05-27T02:46+00:00,500101150,大安區,YouBike2.0_捷運忠孝新生站(4號出口),25.04239,121.53324,46,1,45,1,2025-05-27 10:24:30
2025-05-27T02:46+00:00,500101152,大安區,YouBike2.0_捷運忠孝新生站(3號出口),25.04189,121.53376,43,3,40,1,2025-05-27 10:24:30
2025-05-27T02:46+00:00,500101153,大安區,YouBike2.0_瑠公公園,25.04201,121.54612,20,8,12,1,2025-05-27 10:24:30
2025-05-27T02:46+00:00,500101168,大安區,YouBike2.0_仁愛醫院,25.03756,121.54587,36,31,5,1,2025-05-27 10:24:30
2025-05-27T02:46+00:00,500101173,大安區,YouBike2.0_敦化南路二段103巷口,25.0287,121.54904,24,3,10,1,2025-05-27 10:24:30
2025-05-27T02:46+00:00,500101174,大安區,YouBike2.0_復興南路二段128巷口,25.02861,121.54336,41,4,37,1,2025-05-27 10:24:30
2025-05-27T02:46+00:00,500101179,大安區,YouBike2.0_捷運東門站(5號出口),25.03363,121.52962,28,0,28,1,2025-05-27 10:24:30
2025-05-27T02:46+00:00,500101186,大安區,YouBike2.0_捷運大安站(6號出口),25.03479,121.54376,29,3,26,1,2025-05-27 10:24:30
2025-05-27T02:46+00:00,500101188,大安區,YouBike2.0_辛亥路三段157巷口,25.01727,121.54904,27,2,25,1,2025-05-27 10:24:30
2025-05-27T02:46+00:00,500101189,大安區,YouBike2.0_臥龍基隆路口,25.02039,121.54853,28,9,19,1,2025-05-27 10:24:30
2025-05-27T02:46+00:00,500101198,大安區,YouBike2.0_市民復興路口(東南側),25.04472,121.54401,16,15,0,1,2025-05-27 10:24:30
2025-05-27T02:46+00:00,500101200,大安區,YouBike2.0_全安公園,25.02535,121.55101,16,4,11,1,2025-05-27 10:24:30
2025-05-27T02:46+00:00,500101201,大安區,YouBike2.0_信義路三段134巷口,25.03333,121.53968,19,7,12,1,2025-05-27 10:24:30
2025-05-27T02:46+00:00,500101203,大安區,YouBike2.0_臺北遠企購物中心,25.02709,121.54902,33,28,4,1,2025-05-27 10:24:30
2025-05-27T02:46+00:00,500101210,大安區,YouBike2.0_敦化南路二段81巷,25.03002,121.54893,40,35,5,1,2025-05-27 10:24:30
2025-05-27T02:46+00:00,500101213,大安區,YouBike2.0_懷生國中,25.0401,121.54122,24,4,20,1,2025-05-27 10:24:30
2025-05-27T02:46+00:00,500101217,大安區,YouBike2.0_捷運大安站(5號出口),25.03303,121.54372,26,0,25,1,2025-05-27 10:24:30
2025-05-27T02:46+00:00,500101226,大安區,YouBike2.0_通安區民活動中心,25.02942,121.55294,28,1,27,1,2025-05-27 10:24:30
2025-05-27T02:46+00:00,500101227,大安區,YouBike2.0_復興忠孝東路口(東南側),25.04061,121.54389,28,5,23,1,2025-05-27 10:24:30
2025-05-27T02:46+00:00,500101237,大安區,YouBike2.0_仁愛復興路口,25.03817,121.544,25,20,4,1,2025-05-27 10:24:30
2025-05-27T02:46+00:00,500101239,大安區,YouBike2.0_古風公園,25.02187,121.52912,15,0,15,1,2025-05-27 10:24:30
2025-05-27T02:46+00:00,500101243,大安區,YouBike2.0_忠孝建國路口(東南側),25.04159,121.5378,21,6,15,1,2025-05-27 10:24:30
2025-05-27T02:46+00:00,500101258,大安區,YouBike2.0_新生南路二段54巷口,25.02878,121.53412,26,12,14,1,2025-05-27 10:24:30
2025-05-27T02:46+00:00,500103001,大同區,YouBike2.0_延平國宅,25.07894,121.51121,30,4,26,1,2025-05-27 10:24:30
2025-05-27T02:46+00:00,500103003,大同區,YouBike2.0_合昌宮,25.07717,121.50934,15,6,9,1,2025-05-27 10:24:30
2025-05-27T02:46+00:00,500103008,大同區,YouBike2.0_臺北孔廟,25.07378,121.51583,37,20,17,1,2025-05-27 10:24:30
2025-05-27T02:46+00:00,500103022,大同區,YouBike2.0_大龍老人住宅,25.06853,121.51729,14,4,10,1,2025-05-27 10:24:30
2025-05-27T02:46+00:00,500103026,大同區,YouBike2.0_捷運民權西路站(2號出口),25.06174,121.51969,25,3,21,1,2025-05-27 10:24:30
2025-05-27T02:46+00:00,500103035,大同區,YouBike2.0_重慶民族路口,25.06853,121.51359,32,1,31,1,2025-05-27 10:24:30
2025-05-27T02:46+00:00,500103040,大同區,YouBike2.0_蔣渭水紀念公園,25.06011,121.51729,36,5,30,1,2025-05-27 10:24:30
2025-05-27T02:46+00:00,500103041,大同區,YouBike2.0_迪化休閒運動公園,25.07491,121.5115,26,6,19,1,2025-05-27 10:24:30
2025-05-27T02:46+00:00,500103043,大同區,YouBike2.0_重慶保安街口(家樂福重慶店),25.05918,121.51373,20,8,12,1,2025-05-27 10:24:30
2025-05-27T02:46+00:00,500103050,大同區,YouBike2.0_太原五原路口,25.05646,121.51698,32,0,32,1,2025-05-27 10:24:30
2025-05-27T02:46+00:00,500103051,大同區,YouBike2.0_臺北轉運站(華陰街),25.04937,121.51914,20,8,12,1,2025-05-27 10:24:30
2025-05-27T02:46+00:00,500103061,大同區,YouBike2.0_雙蓮國小,25.06157,121.51683,20,12,8,1,2025-05-27 10:24:30
2025-05-27T02:46+00:00,500103063,大同區,YouBike2.0_延平涼州街口,25.06092,121.51126,14,8,4,1,2025-05-27 10:24:30
2025-05-27T02:46+00:00,500103065,大同區,YouBike2.0_大龍市場,25.07473,121.51451,15,7,8,1,2025-05-27 10:24:30
2025-05-27T02:46+00:00,500103070,大同區,YouBike2.0_重慶北路三段205巷口,25.06997,121.51388,19,16,3,1,2025-05-27 10:24:30
2025-05-27T02:46+00:00,500103074,大同區,YouBike2.0_承德路三段324巷口,25.07477,121.51977,45,32,13,1,2025-05-27 10:24:30
2025-05-27T02:46+00:00,500103075,大同區,YouBike2.0_玉泉公園(鄭州路),25.05044,121.50766,20,2,18,1,2025-05-27 10:24:30
2025-05-27T02:46+00:00,500103078,大同區,YouBike2.0_明倫高中,25.07576,121.52011,32,10,22,1,2025-05-27 10:24:30
2025-05-27T02:46+00:00,500104006,士林區,YouBike2.0_天和公園,25.12011,121.53357,16,5,11,1,2025-05-27 10:24:30
2025-05-27T02:46+00:00,500104010,士林區,YouBike2.0_忠誠路二段53巷,25.11127,121.53244,37,29,8,1,2025-05-27 10:24:30
2025-05-27T02:46+00:00,500104018,士林區,YouBike2.0_忠誠路一段173巷口,25.10813,121.5304,11,0,10,1,2025-05-27 10:24:30
2025-05-27T02:46+00:00,500104025,士林區,YouBike2.0_華齡街185巷口,25.08828,121.51985,12,1,11,1,2025-05-27 10:24:30
2025-05-27T02:46+00:00,500104026,士林區,YouBike2.0_前港公園(前港街),25.0848,121.52125,27,5,22,1,2025-05-27 10:24:30
2025-05-27T02:46+00:00,500104030,士林區,YouBike2.0_捷運劍潭站(2號出口),25.08388,121.52535,49,21,28,1,2025-05-27 10:24:30
2025-05-27T02:46+00:00,500104032,士林區,YouBike2.0_志成公園,25.09667,121.53206,23,0,23,0,2025-05-27 10:24:30
2025-05-27T02:46+00:00,500104033,士林區,YouBike2.0_福林國小,25.09896,121.53025,14,3,11,1,2025-05-27 10:24:30
2025-05-27T02:46+00:00,500104034,士林區,YouBike2.0_中山中正路口,25.09651,121.52753,19,13,6,1,2025-05-27 10:24:30
2025-05-27T02:46+00:00,500104036,士林區,YouBike2.0_陽明高中,25.09164,121.51706,36,14,22,1,2025-05-27 10:24:30
2025-05-27T02:46+00:00,500104039,士林區,YouBike2.0_華聲公園,25.09619,121.5223,35,16,18,1,2025-05-27 10:24:30
2025-05-27T02:46+00:00,500104045,士林區,YouBike2.0_聯合醫院陽明院區,25.10455,121.53195,25,9,15,1,2025-05-27 10:24:30
2025-05-27T02:46+00:00,500104049,士林區,YouBike2.0_通河東街2段10巷口,25.09106,121.51502,15,1,14,1,2025-05-27 10:24:30
2025-05-27T02:46+00:00,500104050,士林區,YouBike2.0_梅林新村,25.09755,121.54036,25,19,6,1,2025-05-27 10:24:30
2025-05-27T02:46+00:00,500104057,士林區,YouBike2.0_社子國小,25.09058,121.50142,15,0,15,0,2025-05-27 10:24:30
2025-05-27T02:46+00:00,500104058,士林區,YouBike2.0_社中街384巷口,25.09346,121.50376,24,20,4,1,2025-05-27 10:24:30
2025-05-27T02:46+00:00,500104059,士林區,YouBike2.0_忠誠路一段138號,25.10641,121.52944,15,6,9,1,2025-05-27 10:24:30
2025-05-27T02:46+00:00,500104061,士林區,YouBike2.0_國立故宮博物院,25.09833,121.54788,17,5,12,1,2025-05-27 10:24:30
2025-05-27T02:46+00:00,500104065,士林區,YouBike2.0_社子島島頭公園,25.10893,121.46639,22,16,6,1,2025-05-27 10:24:30
2025-05-27T02:46+00:00,500104071,士林區,YouBike2.0_聖山綠地,25.10696,121.53234,15,4,10,1,2025-05-27 10:24:30
2025-05-27T02:46+00:00,500104072,士林區,YouBike2.0_芝山國小,25.11044,121.53595,38,24,13,1,2025-05-27 10:24:30
2025-05-27T02:46+00:00,500104075,士林區,YouBike2.0_中正基河路口,25.0933,121.51962,37,25,11,1,2025-05-27 10:24:30
2025-05-27T02:46+00:00,500104080,士林區,YouBike2.0_永平社會住宅,25.08887,121.50314,15,2,13,1,2025-05-27 10:24:30
2025-05-27T02:46+00:00,500104087,士林區,YouBike2.0_基河文林路口,25.08637,121.5247,50,7,43,1,2025-05-27 10:24:30
2025-05-27T02:46+00:00,500104088,士林區,YouBike2.0_文林福華路口,25.10094,121.52243,19,1,18,1,2025-05-27 10:24:30
2025-05-27T02:46+00:00,500104094,士林區,YouBike2.0_重慶北通河西街口,25.08756,121.51177,12,8,4,1,2025-05-27 10:24:30
2025-05-27T02:46+00:00,500104101,士林區,YouBike2.0_延平北路五段257巷4弄口,25.08471,121.5089,15,4,11,1,2025-05-27 10:24:30
2025-05-27T02:46+00:00,500104102,士林區,YouBike2.0_啟明學校,25.11742,121.53472,16,7,9,1,2025-05-27 10:24:30
2025-05-27T02:46+00:00,500104104,士林區,YouBike2.0_德行公園,25.10585,121.52376,14,8,4,1,2025-05-27 10:24:30
2025-05-27T02:46+00:00,500104107,士林區,YouBike2.0_捷運士林站(1號出口),25.09561,121.52552,38,29,5,1,2025-05-27 10:24:30
2025-05-27T02:46+00:00,500104113,士林區,YouBike2.0_士東路91巷口,25.11247,121.52914,16,5,11,1,2025-05-27 10:24:30
2025-05-27T02:46+00:00,500104114,士林區,YouBike2.0_美崙公園,25.09677,121.51931,22,7,15,1,2025-05-27 10:24:30
2025-05-27T02:46+00:00,500104115,士林區,YouBike2.0_臺北市立大學(忠誠路二段207巷),25.11642,121.53743,17,17,0,1,2025-05-27 10:24:30
2025-05-27T02:46+00:00,500104118,士林區,YouBike2.0_福安河濱公園,25.09646,121.49358,14,7,6,1,2025-05-27 10:24:30
2025-05-27T02:46+00:00,500104121,士林區,YouBike2.0_士林國小,25.09204,121.52472,15,1,14,1,2025-05-27 10:24:30
2025-05-27T02:46+00:00,500104122,士林區,YouBike2.0_雙溪濕地公園,25.09762,121.51321,15,5,10,1,2025-05-27 10:24:30
2025-05-27T02:46+00:00,500104134,士林區,YouBike2.0_中山北路五段378巷口,25.09064,121.52765,27,6,21,1,2025-05-27 10:24:30
2025-05-27T02:46+00:00,500104135,士林區,YouBike2.0_中山北路六段405巷,25.11576,121.52693,21,4,17,1,2025-05-27 10:24:30
2025-05-27T02:46+00:00,500104138,士林區,YouBike2.0_社子島抽水站,25.10844,121.49552,15,8,7,1,2025-05-27 10:24:30
2025-05-27T02:46+00:00,500104140,士林區,YouBike2.0_士林分局,25.09033,121.52687,24,4,19,1,2025-05-27 10:24:30
2025-05-27T02:46+00:00,500105005,文山區,YouBike2.0_捷運萬隆站(2號出口),25.00144,121.53983,18,17,1,1,2025-05-27 10:24:30
2025-05-27T02:46+00:00,500105007,文山區,YouBike2.0_捷運景美站(2號出口),24.99366,121.54124,63,36,27,1,2025-05-27 10:24:30
2025-05-27T02:46+00:00,500105020,文山區,YouBike2.0_捷運木柵站,24.99798,121.57455,31,22,8,1,2025-05-27 10:24:30
2025-05-27T02:46+00:00,500105028,文山區,YouBike2.0_世新大學,24.98859,121.54336,30,21,9,1,2025-05-27 10:24:30
2025-05-27T02:46+00:00,500105036,文山區,YouBike2.0_木柵公園,24.98718,121.56059,38,3,35,1,2025-05-27 10:24:30
2025-05-27T02:46+00:00,500105037,文山區,YouBike2.0_興隆公共住宅D2區,24.98814,121.56356,27,16,11,1,2025-05-27 10:24:30
2025-05-27T02:46+00:00,500105042,文山區,YouBike2.0_萊茵公園,24.98642,121.56514,21,6,15,1,2025-05-27 10:24:30
2025-05-27T02:46+00:00,500105045,文山區,YouBike2.0_秀明路一段129巷口,24.99111,121.56703,22,11,11,1,2025-05-27 10:24:30
2025-05-27T02:46+00:00,500105046,文山區,YouBike2.0_恆光橋(老泉街),24.97989,121.56753,13,11,2,1,2025-05-27 10:24:30
2025-05-27T02:46+00:00,500105051,文山區,YouBike2.0_博嘉運動公園,25.00079,121.57534,12,4,8,1,2025-05-27 10:24:30
2025-05-27T02:46+00:00,500105054,文山區,YouBike2.0_政大一街口,24.98543,121.58006,14,4,10,1,2025-05-27 10:24:30
2025-05-27T02:46+00:00,500105056,文山區,YouBike2.0_移民署訓練中心,24.99271,121.55865,13,4,9,1,2025-05-27 10:24:30
2025-05-27T02:46+00:00,500105058,文山區,YouBike2.0_明道國小東南側,24.98695,121.56456,28,3,25,1,2025-05-27 10:24:30
2025-05-27T02:46+00:00,500105061,文山區,YouBike2.0_師範大學公館校區_1,25.00753,121.53719,34,1,33,1,2025-05-27 10:24:30
2025-05-27T02:46+00:00,500105062,文山區,YouBike2.0_捷運動物園站(2號出口),24.99766,121.57875,39,0,39,0,2025-05-27 10:24:30
2025-05-27T02:46+00:00,500105064,文山區,YouBike2.0_敦南山林,25.00264,121.5768,14,4,10,1,2025-05-27 10:24:30
2025-05-27T02:46+00:00,500105069,文山區,YouBike2.0_景仁公園_1,24.9966,121.5403,30,6,24,1,2025-05-27 10:24:30
2025-05-27T02:46+00:00,500105077,文山區,YouBike2.0_試院公園,24.98808,121.54723,15,7,2,1,2025-05-27 10:24:30
2025-05-27T02:46+00:00,500105102,文山區,YouBike2.0_世新大學(試院路),24.98981,121.54783,16,4,10,1,2025-05-27 10:24:30
2025-05-27T02:46+00:00,500105108,文山區,YouBike2.0_景美國小,24.9893,121.53976,25,12,13,1,2025-05-27 10:24:30
2025-05-27T02:46+00:00,500105111,文山區,YouBike2.0_和興水岸社會住宅,24.98505,121.54953,29,8,21,1,2025-05-27 10:24:30
2025-05-27T02:46+00:00,500105112,文山區,YouBike2.0_萬芳路107巷口,24.99715,121.56179,20,1,19,1,2025-05-27 10:24:30
2025-05-27T02:46+00:00,500105113,文山區,YouBike2.0_考選部國家考場,24.98703,121.54884,26,8,18,1,2025-05-27 10:24:30
2025-05-27T02:46+00:00,500105114,文山區,YouBike2.0_明道國小(明道國宅),24.98686,121.56301,26,7,19,1,2025-05-27 10:24:30
2025-05-27T02:46+00:00,500106001,中正區,YouBike2.0_臺北自來水事業處,25.013741,121.53068,20,0,20,1,2025-05-27 10:24:30
2025-05-27T02:46+00:00,500106003,中正區,YouBike2.0_捷運公館站(1號出口),25.014529,121.534374,12,0,12,1,2025-05-27 10:24:30
2025-05-27T02:46+00:00,500106006,中正區,YouBike2.0_捷運古亭站(2號出口),25.0255,121.52346,55,11,43,1,2025-05-27 10:24:30
2025-05-27T02:46+00:00,500106008,中正區,YouBike2.0_客家文化主題公園,25.02069,121.52456,31,15,14,1,2025-05-27 10:24:30
2025-05-27T02:46+00:00,500106010,中正區,YouBike2.0_紀州庵,25.02092,121.52049,45,4,39,1,2025-05-27 10:24:30
2025-05-27T02:46+00:00,500106014,中正區,YouBike2.0_牯嶺公園,25.02338,121.51889,58,3,53,1,2025-05-27 10:24:30
2025-05-27T02:46+00:00,500106017,中正區,YouBike2.0_南昌公園,25.02698,121.52081,55,27,28,1,2025-05-27 10:24:30
2025-05-27T02:46+00:00,500106019,中正區,YouBike2.0_孫立人將軍官邸,25.02933,121.51854,23,18,5,1,2025-05-27 10:24:30
2025-05-27T02:46+00:00,500106023,中正區,YouBike2.0_捷運中正紀念堂站(4號出口),25.03376,121.51772,29,10,17,1,2025-05-27 10:24:30
2025-05-27T02:46+00:00,500106026,中正區,YouBike2.0_古亭智慧圖書館,25.02543,121.51052,21,4,17,1,2025-05-27 10:24:30
2025-05-27T02:46+00:00,500106030,中正區,YouBike2.0_南海和平路口西南側,25.03024,121.50904,19,19,0,1,2025-05-27 10:24:30
2025-05-27T02:46+00:00,500106039,中正區,YouBike2.0_捷運小南門站(2號出口),25.03567,121.51006,24,22,1,1,2025-05-27 10:24:30
2025-05-27T02:46+00:00,500106043,中正區,YouBike2.0_捷運善導寺站(1號出口),25.04527,121.5222,46,22,24,1,2025-05-27 10:24:30
2025-05-27T02:46+00:00,500106048,中正區,YouBike2.0_信義杭州路口,25.0357,121.5241,59,50,9,1,2025-05-27 10:24:30
2025-05-27T02:46+00:00,500106049,中正區,YouBike2.0_捷運善導寺站(3號出口),25.04428,121.52336,20,4,16,1,2025-05-27 10:24:30
2025-05-27T02:46+00:00,500106054,中正區,YouBike2.0_法務部,25.03705,121.51249,27,19,3,1,2025-05-27 10:24:30
2025-05-27T02:46+00:00,500106059,中正區,YouBike2.0_中山堂,25.04412,121.51025,43,27,16,1,2025-05-27 10:24:30
2025-05-27T02:46+00:00,500106060,中正區,YouBike2.0_中華漢口街口,25.04533,121.50944,19,14,5,1,2025-05-27 10:24:30
2025-05-27T02:46+00:00,500106063,中正區,YouBike2.0_寶藏巖觀音亭,25.01027,121.5331,23,11,12,1,2025-05-27 10:24:30
2025-05-27T02:46+00:00,500106065,中正區,YouBike2.0_中山徐州路口,25.04178,121.51907,41,18,2,1,2025-05-27 10:24:30
2025-05-27T02:46+00:00,500106071,中正區,YouBike2.0_中山青島路口,25.04503,121.51968,40,26,14,1,2025-05-27 10:24:30
2025-05-27T02:46+00:00,500106074,中正區,YouBike2.0_王貫英先生紀念圖書館,25.02266,121.52362,15,0,15,1,2025-05-27 10:24:30
2025-05-27T02:46+00:00,500106075,中正區,YouBike2.0_金山信義路口,25.03443,121.52721,25,1,24,1,2025-05-27 10:24:30
2025-05-27T02:46+00:00,500106083,中正區,YouBike2.0_臺北市國父史蹟館(逸仙公園),25.04779,121.52042,31,2,29,1,2025-05-27 10:24:30
2025-05-27T02:46+00:00,500106088,中正區,YouBike2.0_紹興徐州路口,25.04051,121.52401,18,5,13,1,2025-05-27 10:24:30
2025-05-27T02:46+00:00,500106092,中正區,YouBike2.0_捷運西門站(3號出口),25.04178,121.50869,36,0,36,1,2025-05-27 10:24:30
2025-05-27T02:46+00:00,500106093,中正區,YouBike2.0_仁愛金山路口,25.0384,121.52801,9,8,1,1,2025-05-27 10:24:30
2025-05-27T02:46+00:00,500106098,中正區,YouBike2.0_郵政博物館,25.03158,121.51464,24,18,5,1,2025-05-27 10:24:30
2025-05-27T02:46+00:00,500106103,中正區,YouBike2.0_捷運忠孝新生站(5號出口),25.04113,121.53273,13,4,9,1,2025-05-27 10:24:30
2025-05-27T02:46+00:00,500106104,中正區,YouBike2.0_捷運臺大醫院站(1號出口),25.04074,121.51586,19,11,8,1,2025-05-27 10:24:30
2025-05-27T02:46+00:00,500106106,中正區,YouBike2.0_林森濟南路口(東北側),25.0425,121.5227,26,12,14,1,2025-05-27 10:24:30
2025-05-27T02:46+00:00,500106108,中正區,YouBike2.0_中華南海路口,25.02703,121.50686,15,8,7,1,2025-05-27 10:24:30
2025-05-27T02:46+00:00,500106112,中正區,YouBike2.0_忠孝西重慶南路口,25.04724,121.51272,33,21,12,1,2025-05-27 10:24:30
2025-05-27T02:46+00:00,500106116,中正區,YouBike2.0_重慶南詔安街口,25.02507,121.51645,19,0,19,1,2025-05-27 10:24:30
2025-05-27T02:46+00:00,500106119,中正區,YouBike2.0_螢圃里小公園,25.02484,121.51973,25,0,25,1,2025-05-27 10:24:30
2025-05-27T02:46+00:00,500106128,中正區,YouBike2.0_詔安街37巷口,25.02542,121.51233,28,16,12,1,2025-05-27 10:24:30
2025-05-27T02:46+00:00,500106132,中正區,YouBike2.0_貴陽博愛路口,25.03896,121.51093,69,48,16,1,2025-05-27 10:24:30
2025-05-27T02:46+00:00,500106133,中正區,YouBike2.0_國立臺灣博物館南門館,25.03351,121.5156,21,12,8,1,2025-05-27 10:24:30
2025-05-27T02:46+00:00,500107001,中山區,YouBike2.0_通北街65巷口,25.08251,121.54004,16,9,7,1,2025-05-27 10:24:30
2025-05-27T02:46+00:00,500107011,中山區,YouBike2.0_捷運大直站(3號出口),25.07923,121.5473,34,1,33,1,2025-05-27 10:24:30
2025-05-27T02:46+00:00,500107014,中山區,YouBike2.0_伊通長安路口,25.04833,121.53469,21,11,9,1,2025-05-27 10:24:30
2025-05-27T02:46+00:00,500107025,中山區,YouBike2.0_龍江錦州街口,25.06045,121.54077,16,11,4,1,2025-05-27 10:24:30
2025-05-27T02:46+00:00,500107028,中山區,YouBike2.0_捷運松江南京站(7號出口),25.05246,121.5332,75,10,65,1,2025-05-27 10:24:30
2025-05-27T02:46+00:00,500107030,中山區,YouBike2.0_中吉公園,25.05604,121.53166,30,14,16,1,2025-05-27 10:24:30
2025-05-27T02:46+00:00,500107033,中山區,YouBike2.0_江寧公園,25.0614,121.53929,15,4,11,1,2025-05-27 10:24:30
2025-05-27T02:46+00:00,500107034,中山區,YouBike2.0_民權龍江路口,25.06225,121.54107,32,9,23,1,2025-05-27 10:24:30
2025-05-27T02:46+00:00,500107037,中山區,YouBike2.0_林森農安街口,25.06531,121.52565,23,0,23,1,2025-05-27 10:24:30
2025-05-27T02:46+00:00,500107039,中山區,YouBike2.0_農安雙城街口,25.06491,121.52449,15,9,6,1,2025-05-27 10:24:30
2025-05-27T02:46+00:00,500107041,中山區,YouBike2.0_民族林森路口,25.06847,121.52559,37,25,12,1,2025-05-27 10:24:30
2025-05-27T02:46+00:00,500107047,中山區,YouBike2.0_中原公園,25.05583,121.52821,15,8,7,1,2025-05-27 10:24:30
2025-05-27T02:46+00:00,500107057,中山區,YouBike2.0_中山公民會館,25.06185,121.5226,20,0,0,0,2025-05-27 10:24:30
2025-05-27T02:46+00:00,500107060,中山區,YouBike2.0_撫順公園,25.06416,121.52203,30,22,6,1,2025-05-27 10:24:30
2025-05-27T02:46+00:00,500107063,中山區,YouBike2.0_林森長春路口,25.05497,121.52536,28,8,19,1,2025-05-27 10:24:30
2025-05-27T02:46+00:00,500107064,中山區,YouBike2.0_建國農安街口,25.06503,121.53678,50,5,44,1,2025-05-27 10:24:30
2025-05-27T02:46+00:00,500107079,中山區,YouBike2.0_新生錦州街口,25.05955,121.52744,20,11,9,1,2025-05-27 10:24:30
2025-05-27T02:46+00:00,500107080,中山區,YouBike2.0_濱江街199巷口,25.0734,121.53985,15,3,12,1,2025-05-27 10:24:30
2025-05-27T02:46+00:00,500107081,中山區,YouBike2.0_大佳社區公園,25.07275,121.5373,15,7,8,1,2025-05-27 10:24:30
2025-05-27T02:46+00:00,500107082,中山區,YouBike2.0_濱江果菜市場,25.06807,121.53673,22,17,5,1,2025-05-27 10:24:30
2025-05-27T02:46+00:00,500107084,中山區,YouBike2.0_復興北路514巷口東側,25.06597,121.54117,12,3,9,1,2025-05-27 10:24:30
2025-05-27T02:46+00:00,500107099,中山區,YouBike2.0_長春吉林路口,25.05481,121.53032,10,7,3,1,2025-05-27 10:24:30
2025-05-27T02:46+00:00,500107101,中山區,YouBike2.0_捷運松江南京站(8號出口),25.05215,121.53276,29,9,19,1,2025-05-27 10:24:30
2025-05-27T02:46+00:00,500107102,中山區,YouBike2.0_南京一江街口,25.05215,121.53171,20,19,1,1,2025-05-27 10:24:30
2025-05-27T02:46+00:00,500107104,中山區,YouBike2.0_經國七海文化園區,25.07802,121.53511,15,10,5,1,2025-05-27 10:24:30
2025-05-27T02:46+00:00,500107115,中山區,YouBike2.0_臺北市立美術館_1,25.07063,121.52327,30,14,16,1,2025-05-27 10:24:30
2025-05-27T02:46+00:00,500107116,中山區,YouBike2.0_劍潭社區_1,25.08476,121.53789,42,5,36,1,2025-05-27 10:24:30
2025-05-27T02:46+00:00,500107127,中山區,YouBike2.0_民權建國路口(南側),25.06228,121.53702,15,9,6,1,2025-05-27 10:24:30
2025-05-27T02:46+00:00,500107128,中山區,YouBike2.0_林森德惠街口,25.06688,121.5257,16,3,13,1,2025-05-27 10:24:30
2025-05-27T02:46+00:00,500107132,中山區,YouBike2.0_捷運劍南路站(1號出口),25.08519,121.55498,25,9,11,1,2025-05-27 10:24:30
2025-05-27T02:46+00:00,500107134,中山區,YouBike2.0_長春路258巷2弄口,25.05427,121.53896,19,0,19,1,2025-05-27 10:24:30
2025-05-27T02:46+00:00,500107139,中山區,YouBike2.0_市民大道二段5巷口,25.04812,121.52166,15,7,8,1,2025-05-27 10:24:30
2025-05-27T02:46+00:00,500107140,中山區,YouBike2.0_捷運中山站(3號出口),25.05236,121.52212,21,4,17,1,2025-05-27 10:24:30
2025-05-27T02:46+00:00,500107143,中山區,YouBike2.0_朱崙復興北路口,25.04992,121.54379,12,12,0,1,2025-05-27 10:24:30
2025-05-27T02:46+00:00,500107146,中山區,YouBike2.0_正守公園,25.04808,121.52898,15,3,12,1,2025-05-27 10:24:30
2025-05-27T02:46+00:00,500107150,中山區,YouBike2.0_民權東復興北路口(西北側),25.06246,121.54323,20,11,9,1,2025-05-27 10:24:30
2025-05-27T02:46+00:00,500107151,中山區,YouBike2.0_臺北市立大同高中,25.05484,121.53521,22,19,3,1,2025-05-27 10:24:30
2025-05-27T02:46+00:00,500107155,中山區,YouBike2.0_臺北時代廣場,25.08044,121.56152,35,23,12,1,2025-05-27 10:24:30
2025-05-27T02:46+00:00,500107161,中山區,YouBike2.0_松江長安路口,25.04819,121.53282,20,4,16,1,2025-05-27 10:24:30
2025-05-27T02:46+00:00,500107164,中山區,YouBike2.0_捷運雙連站(1號出口),25.05767,121.52097,17,13,4,1,2025-05-27 10:24:30
2025-05-27T02:46+00:00,500107165,中山區,YouBike2.0_吉林南京路口(西北側),25.05234,121.53003,22,15,7,1,2025-05-27 10:24:30
2025-05-27T02:46+00:00,500107167,中山區,YouBike2.0_捷運劍南路站(3號出口),25.08444,121.55657,46,8,38,1,2025-05-27 10:24:30
2025-05-27T02:46+00:00,500107179,中山區,YouBike2.0_飛航服務總臺,25.07241,121.55117,23,12,11,1,2025-05-27 10:24:30
2025-05-27T02:46+00:00,500107182,中山區,YouBike2.0_遼寧民生路口,25.05751,121.54215,19,0,19,1,2025-05-27 10:24:30
2025-05-27T02:46+00:00,500107183,中山區,YouBike2.0_松江路184巷口,25.05623,121.53296,21,17,3,1,2025-05-27 10:24:30
2025-05-27T02:46+00:00,500108001,內湖區,YouBike2.0_文湖街21巷118弄口,25.09122,121.55961,28,7,21,1,2025-05-27 10:24:30
2025-05-27T02:46+00:00,500108004,內湖區,YouBike2.0_西康公園,25.08284,121.56449,21,1,20,1,2025-05-27 10:24:30
2025-05-27T02:46+00:00,500108010,內湖區,YouBike2.0_港華五號公園,25.08522,121.57462,16,6,9,1,2025-05-27 10:24:30
2025-05-27T02:46+00:00,500108011,內湖區,YouBike2.0_大湖國小,25.08803,121.59958,29,3,26,1,2025-05-27 10:24:30
2025-05-27T02:46+00:00,500108012,內湖區,YouBike2.0_安湖三號公園,25.07021,121.61593,15,0,15,0,2025-05-27 10:24:30
2025-05-27T02:46+00:00,500108016,內湖區,YouBike2.0_捷運大湖公園站(2號出口),25.08395,121.60185,46,20,26,1,2025-05-27 10:24:30
2025-05-27T02:46+00:00,500108024,內湖區,YouBike2.0_環山路二段26巷口,25.08598,121.572,22,1,21,1,2025-05-27 10:24:30
2025-05-27T02:46+00:00,500108031,內湖區,YouBike2.0_文德二號公園(北側),25.07758,121.58381,15,10,5,1,2025-05-27 10:24:30
2025-05-27T02:46+00:00,500108047,內湖區,YouBike2.0_瑞光公共住宅(瑞光路),25.07335,121.57951,18,4,14,1,2025-05-27 10:24:30
2025-05-27T02:46+00:00,500108050,內湖區,YouBike2.0_新湖三民善街口,25.06286,121.57497,15,2,13,1,2025-05-27 10:24:30
2025-05-27T02:46+00:00,500108051,內湖區,YouBike2.0_內湖119號綠地,25.05594,121.57865,41,15,26,1,2025-05-27 10:24:30
2025-05-27T02:46+00:00,500108059,內湖區,YouBike2.0_金湖路347巷125弄口,25.0733,121.59834,15,6,9,1,2025-05-27 10:24:30
2025-05-27T02:46+00:00,500108061,內湖區,YouBike2.0_碧湖公園(內湖路二段103巷),25.08317,121.58109,19,1,18,1,2025-05-27 10:24:30
2025-05-27T02:46+00:00,500108065,內湖區,YouBike2.0_康寧金湖路口,25.07896,121.59921,21,8,13,1,2025-05-27 10:24:30
2025-05-27T02:46+00:00,500108069,內湖區,YouBike2.0_內溝溪生態展示館,25.08722,121.62306,16,1,15,1,2025-05-27 10:24:30
2025-05-27T02:46+00:00,500108081,內湖區,YouBike2.0_東湖國小,25.06854,121.61532,29,6,22,1,2025-05-27 10:24:30
2025-05-27T02:46+00:00,500108082,內湖區,YouBike2.0_捷運內湖站(1號出口),25.08373,121.59406,28,2,25,1,2025-05-27 10:24:30
2025-05-27T02:46+00:00,500108086,內湖區,YouBike2.0_星雲街138巷1弄口,25.07943,121.59544,21,6,15,1,2025-05-27 10:24:30
2025-05-27T02:46+00:00,500108089,內湖區,YouBike2.0_康湖二號公園(康寧醫院),25.07514,121.60857,25,6,19,1,2025-05-27 10:24:30
2025-05-27T02:46+00:00,500108091,內湖區,YouBike2.0_下灣公園(成功路),25.06682,121.5907,16,5,11,1,2025-05-27 10:24:30
2025-05-27T02:46+00:00,500108096,內湖區,YouBike2.0_國防醫學院,25.06851,121.59559,25,10,15,1,2025-05-27 10:24:30
2025-05-27T02:46+00:00,500108103,內湖區,YouBike2.0_民善新湖二路口(家樂福內湖店),25.06017,121.57552,23,5,10,1,2025-05-27 10:24:30
2025-05-27T02:46+00:00,500108107,內湖區,YouBike2.0_西康二號公園,25.08503,121.5637,21,15,6,1,2025-05-27 10:24:30
2025-05-27T02:46+00:00,500108109,內湖區,YouBike2.0_瑞光路76巷口,25.07168,121.58125,12,12,0,1,2025-05-27 10:24:30
2025-05-27T02:46+00:00,500108112,內湖區,YouBike2.0_碧山內湖路口,25.08627,121.5914,16,0,16,1,2025-05-27 10:24:30
2025-05-27T02:46+00:00,500108118,內湖區,YouBike2.0_康樂街151巷,25.07192,121.61955,24,11,13,1,2025-05-27 10:24:30
2025-05-27T02:46+00:00,500108119,內湖區,YouBike2.0_內湖路一段360巷,25.0812,121.57067,15,12,3,1,2025-05-27 10:24:30
2025-05-27T02:46+00:00,500108127,內湖區,YouBike2.0_康樂綠地,25.07539,121.6203,20,11,9,1,2025-05-27 10:24:30
2025-05-27T02:46+00:00,500108129,內湖區,YouBike2.0_明美公園(行善路333巷),25.06058,121.5866,16,11,5,1,2025-05-27 10:24:30
2025-05-27T02:46+00:00,500108133,內湖區,YouBike2.0_內湖路三段326巷口,25.08968,121.58352,20,7,13,1,2025-05-27 10:24:30
2025-05-27T02:46+00:00,500108135,內湖區,YouBike2.0_康寧路三段189巷93弄口,25.0735,121.61258,14,2,12,1,2025-05-27 10:24:30
2025-05-27T02:46+00:00,500108136,內湖區,YouBike2.0_中國醫藥大學附設醫院臺北分院,25.08227,121.5909,16,2,14,1,2025-05-27 10:24:30
2025-05-27T02:46+00:00,500108138,內湖區,YouBike2.0_環山路三段16巷口,25.08464,121.57945,21,6,15,1,2025-05-27 10:24:30
2025-05-27T02:46+00:00,500108142,內湖區,YouBike2.0_康寧路三段99巷17弄口,25.0721,121.60991,15,2,13,1,2025-05-27 10:24:30
2025-05-27T02:46+00:00,500108147,內湖區,YouBike2.0_大都會客運內湖站,25.06749,121.57784,25,10,15,1,2025-05-27 10:24:30
2025-05-27T02:46+00:00,500108148,內湖區,YouBike2.0_瑞湖公園,25.06888,121.57711,15,6,9,1,2025-05-27 10:24:30
2025-05-27T02:46+00:00,500108157,內湖區,YouBike2.0_新湖三行忠路72巷口,25.06605,121.58206,18,10,8,1,2025-05-27 10:24:30
2025-05-27T02:46+00:00,500108158,內湖區,YouBike2.0_新湖三新湖二146巷口,25.06407,121.57787,25,13,12,1,2025-05-27 10:24:30
2025-05-27T02:46+00:00,500108160,內湖區,YouBike2.0_新光基湖大樓,25.08152,121.56489,19,11,7,1,2025-05-27 10:24:30
2025-05-27T02:46+00:00,500108167,內湖區,YouBike2.0_福壽公園,25.07983,121.59625,14,9,5,1,2025-05-27 10:24:30
2025-05-27T02:46+00:00,500108176,內湖區,YouBike2.0_環山路三段1巷(麗山高中),25.08438,121.57876,18,12,6,1,2025-05-27 10:24:30
2025-05-27T02:46+00:00,500108182,內湖區,YouBike2.0_行善路417巷,25.06468,121.58654,26,20,6,1,2025-05-27 10:24:30
2025-05-27T02:46+00:00,500108186,內湖區,YouBike2.0_明美公園(南京東路六段451巷口),25.06082,121.58757,30,19,11,1,2025-05-27 10:24:30
2025-05-27T02:46+00:00,500108187,內湖區,YouBike2.0_文德路66巷14弄,25.07712,121.58096,18,1,17,1,2025-05-27 10:24:30
2025-05-27T02:46+00:00,500108188,內湖區,YouBike2.0_捷運東湖站(3號出口),25.06701,121.61194,30,18,9,1,2025-05-27 10:24:30
2025-05-27T02:46+00:00,500108192,內湖區,YouBike2.0_上灣公園,25.06572,121.59778,25,9,16,1,2025-05-27 10:24:30
2025-05-27T02:46+00:00,500108197,內湖區,YouBike2.0_成功路二段406巷口,25.07077,121.59,20,10,10,1,2025-05-27 10:24:30
2025-05-27T02:46+00:00,500108200,內湖區,YouBike2.0_民權東路六段280巷155弄口,25.06865,121.60884,21,4,17,1,2025-05-27 10:24:30
2025-05-27T02:46+00:00,500108201,內湖區,YouBike2.0_將軍嶺,25.07457,121.5901,23,16,7,1,2025-05-27 10:24:30
2025-05-27T02:46+00:00,500108203,內湖區,YouBike2.0_西湖公園(內湖路一段387巷),25.08409,121.57066,25,9,16,1,2025-05-27 10:24:30
2025-05-27T02:46+00:00,500108204,內湖區,YouBike2.0_國立臺灣戲曲學院(內湖校區),25.08107,121.58609,28,3,25,1,2025-05-27 10:24:30
2025-05-27T02:46+00:00,500108205,內湖區,YouBike2.0_內湖路一段285巷65弄,25.08443,121.56912,19,8,11,1,2025-05-27 10:24:30
2025-05-27T02:46+00:00,500109004,北投區,YouBike2.0_捷運明德站(1號出口),25.10896,121.51936,23,3,20,1,2025-05-27 10:24:30
2025-05-27T02:46+00:00,500109007,北投區,YouBike2.0_關渡宮,25.11739,121.46288,62,9,53,1,2025-05-27 10:24:30
2025-05-27T02:46+00:00,500109012,北投區,YouBike2.0_捷運關渡站(2號出口),25.12618,121.46737,22,15,7,1,2025-05-27 10:24:30
2025-05-27T02:46+00:00,500109013,北投區,YouBike2.0_中央北路四段540巷口,25.12796,121.46782,31,21,10,1,2025-05-27 10:24:30
2025-05-27T02:46+00:00,500109017,北投區,YouBike2.0_豐年公園,25.13475,121.49613,29,14,15,1,2025-05-27 10:24:30
2025-05-27T02:46+00:00,500109028,北投區,YouBike2.0_大業路300巷口,25.12814,121.49782,20,13,7,1,2025-05-27 10:24:30
2025-05-27T02:46+00:00,500109030,北投區,YouBike2.0_北投奇岩長青樂活大樓,25.12666,121.50373,25,3,22,1,2025-05-27 10:24:30
2025-05-27T02:46+00:00,500109034,北投區,YouBike2.0_捷運石牌站(2號出口),25.11451,121.51567,62,2,60,1,2025-05-27 10:24:30
2025-05-27T02:46+00:00,500109037,北投區,YouBike2.0_振興醫院,25.11753,121.52186,36,20,16,1,2025-05-27 10:24:30
2025-05-27T02:46+00:00,500109044,北投區,YouBike2.0_榮富公園,25.1137,121.52437,13,0,13,1,2025-05-27 10:24:30
2025-05-27T02:46+00:00,500109046,北投區,YouBike2.0_立功立德路口,25.12501,121.47158,41,30,11,1,2025-05-27 10:24:30
2025-05-27T02:46+00:00,500109052,北投區,YouBike2.0_承德路七段188巷口,25.11416,121.50771,16,3,12,1,2025-05-27 10:24:30
2025-05-27T02:46+00:00,500109055,北投區,YouBike2.0_洲美公園,25.10032,121.50599,30,12,17,1,2025-05-27 10:24:30
2025-05-27T02:46+00:00,500109057,北投區,YouBike2.0_洲美蜆仔港公園,25.10065,121.51107,27,17,10,1,2025-05-27 10:24:30
2025-05-27T02:46+00:00,500109063,北投區,YouBike2.0_奇岩4號綠地,25.12533,121.50573,12,4,8,1,2025-05-27 10:24:30
2025-05-27T02:46+00:00,500109064,北投區,YouBike2.0_臺北健康護理大學(教研大樓),25.11857,121.51846,27,11,16,1,2025-05-27 10:24:30
2025-05-27T02:46+00:00,500109065,北投區,YouBike2.0_奇岩一號公園,25.12862,121.5033,24,0,24,0,2025-05-27 10:24:30
2025-05-27T02:46+00:00,500109067,北投區,YouBike2.0_中庸公園,25.13774,121.50142,12,8,4,1,2025-05-27 10:24:30
2025-05-27T02:46+00:00,500109073,北投區,YouBike2.0_北投公園露天溫泉,25.13684,121.50792,15,2,13,1,2025-05-27 10:24:30
2025-05-27T02:46+00:00,500109074,北投區,YouBike2.0_中和街493巷9弄口,25.1439,121.49447,16,8,3,1,2025-05-27 10:24:30
2025-05-27T02:46+00:00,500109076,北投區,YouBike2.0_石牌立農街口,25.11879,121.51921,29,25,3,1,2025-05-27 10:24:30
2025-05-27T02:46+00:00,500109096,北投區,YouBike2.0_大業路(農禪寺),25.12231,121.49964,16,10,6,1,2025-05-27 10:24:30
2025-05-27T02:46+00:00,500109097,北投區,YouBike2.0_中國電影製片廠,25.13843,121.48802,15,7,8,1,2025-05-27 10:24:30
2025-05-27T02:46+00:00,500109099,北投區,YouBike2.0_捷運石牌站(2號出口)(西安街一段),25.11332,121.51615,23,2,21,1,2025-05-27 10:24:30
2025-05-27T02:46+00:00,500109101,北投區,YouBike2.0_關渡碼頭,25.12066,121.46228,50,3,47,1,2025-05-27 10:24:30
2025-05-27T02:46+00:00,500109105,北投區,YouBike2.0_北投文化公園(中央北路),25.13632,121.49686,16,13,3,1,2025-05-27 10:24:30
2025-05-27T02:46+00:00,500109106,北投區,YouBike2.0_泉源路23巷口,25.13939,121.50571,25,12,13,1,2025-05-27 10:24:30
2025-05-27T02:46+00:00,500109107,北投區,YouBike2.0_大業路667巷口,25.13709,121.4996,23,7,16,1,2025-05-27 10:24:30
2025-05-27T02:46+00:00,500109109,北投區,YouBike2.0_溫泉路68巷6弄口,25.13401,121.50564,19,4,15,1,2025-05-27 10:24:30
2025-05-27T02:46+00:00,500110008,松山區,YouBike2.0_光復北路11巷口,25.04937,121.558,31,30,1,1,2025-05-27 10:24:30
2025-05-27T02:46+00:00,500110010,松山區,YouBike2.0_西松高中,25.05492,121.56701,14,9,5,1,2025-05-27 10:24:30
2025-05-27T02:46+00:00,500110011,松山區,YouBike2.0_民權復興路口,25.0622,121.54565,36,22,14,1,2025-05-27 10:24:30
2025-05-27T02:46+00:00,500110014,松山區,YouBike2.0_民生敦化路口,25.05804,121.54897,66,32,24,1,2025-05-27 10:24:30
2025-05-27T02:46+00:00,500110016,松山區,YouBike2.0_三民路166巷口,25.0619,121.56328,12,4,8,1,2025-05-27 10:24:30
2025-05-27T02:46+00:00,500110019,松山區,YouBike2.0_臺北市藝文推廣處,25.04826,121.55235,45,23,22,1,2025-05-27 10:24:30
2025-05-27T02:46+00:00,500110023,松山區,YouBike2.0_新東公園,25.05925,121.56888,51,30,21,1,2025-05-27 10:24:30
2025-05-27T02:46+00:00,500110024,松山區,YouBike2.0_民生光復路口,25.05834,121.55496,33,5,28,1,2025-05-27 10:24:30
2025-05-27T02:46+00:00,500110028,松山區,YouBike2.0_三軍總醫院(松山分院),25.05419,121.55631,43,23,19,1,2025-05-27 10:24:30
2025-05-27T02:46+00:00,500110029,松山區,YouBike2.0_平安新城,25.05528,121.559,16,14,1,1,2025-05-27 10:24:30
2025-05-27T02:46+00:00,500110033,松山區,YouBike2.0_光復南路22巷口,25.04693,121.55771,29,24,5,1,2025-05-27 10:24:30
2025-05-27T02:46+00:00,500110034,松山區,YouBike2.0_光復南路46巷,25.04606,121.55665,23,0,23,0,2025-05-27 10:24:30
2025-05-27T02:46+00:00,500110039,松山區,YouBike2.0_健康新城,25.05408,121.56095,44,3,41,1,2025-05-27 10:24:30
2025-05-27T02:46+00:00,500110040,松山區,YouBike2.0_健安新城,25.05606,121.56345,30,9,20,1,2025-05-27 10:24:30
2025-05-27T02:46+00:00,500110051,松山區,YouBike2.0_民權東路三段106巷口,25.062,121.54472,22,22,0,1,2025-05-27 10:24:30
2025-05-27T02:46+00:00,500110052,松山區,YouBike2.0_南京東路五段59巷口,25.05163,121.55907,17,1,16,1,2025-05-27 10:24:30
2025-05-27T02:46+00:00,500110063,松山區,YouBike2.0_介壽國中,25.05722,121.55706,30,22,8,1,2025-05-27 10:24:30
2025-05-27T02:46+00:00,500110068,松山區,YouBike2.0_長春慶城街口,25.05452,121.54636,28,28,0,1,2025-05-27 10:24:30
2025-05-27T02:46+00:00,500110073,松山區,YouBike2.0_敦化北路155巷口,25.0542,121.5491,30,30,0,1,2025-05-27 10:24:30
2025-05-27T02:46+00:00,500110074,松山區,YouBike2.0_民生復興路口,25.05764,121.54443,15,11,4,1,2025-05-27 10:24:30
2025-05-27T02:46+00:00,500110082,松山區,YouBike2.0_市民東寧路口,25.04742,121.56305,23,13,9,1,2025-05-27 10:24:30
2025-05-27T02:46+00:00,500110084,松山區,YouBike2.0_三民國小(撫遠街),25.06457,121.56458,26,10,16,1,2025-05-27 10:24:30
2025-05-27T02:46+00:00,500110085,松山區,YouBike2.0_民生郵局,25.05936,121.56586,14,1,12,1,2025-05-27 10:24:30
2025-05-27T02:46+00:00,500110086,松山區,YouBike2.0_民權敦化路口(西北側),25.06185,121.55,24,22,1,1,2025-05-27 10:24:30
2025-05-27T02:46+00:00,500110098,松山區,YouBike2.0_中崙高中停車場,25.05023,121.56153,25,3,22,1,2025-05-27 10:24:30
2025-05-27T02:46+00:00,500111001,南港區,YouBike2.0_南港公園(東新街),25.04591,121.59226,25,20,5,1,2025-05-27 10:24:30
2025-05-27T02:46+00:00,500111002,南港區,YouBike2.0_南港公園(福德街),25.04128,121.59089,56,8,48,1,2025-05-27 10:24:30
2025-05-27T02:46+00:00,500111011,南港區,YouBike2.0_中研院綜合體育館東側,25.04054,121.61374,30,19,11,1,2025-05-27 10:24:30
2025-05-27T02:46+00:00,500111019,南港區,YouBike2.0_捷運南港軟體園區(2號出口),25.05933,121.61677,70,29,41,1,2025-05-27 10:24:30
2025-05-27T02:46+00:00,500111021,南港區,YouBike2.0_興中立體停車場(興中路),25.05629,121.607,26,2,24,1,2025-05-27 10:24:30
2025-05-27T02:46+00:00,500111027,南港區,YouBike2.0_捷運南港站(1號出口),25.05192,121.60642,20,3,16,1,2025-05-27 10:24:30
2025-05-27T02:46+00:00,500111034,南港區,YouBike2.0_臺北流行音樂中心(市民大道),25.05211,121.59839,32,22,10,1,2025-05-27 10:24:30
2025-05-27T02:46+00:00,500111036,南港區,YouBike2.0_忠孝東路七段527巷口,25.05266,121.61275,26,2,24,1,2025-05-27 10:24:30
2025-05-27T02:46+00:00,500111038,南港區,YouBike2.0_世貿公園,25.05831,121.61422,35,14,21,1,2025-05-27 10:24:30
2025-05-27T02:46+00:00,500111041,南港區,YouBike2.0_南港高中(昆陽街),25.05285,121.59279,26,18,8,1,2025-05-27 10:24:30
2025-05-27T02:46+00:00,500111047,南港區,YouBike2.0_玉成公園運動中心,25.04193,121.58493,26,1,25,1,2025-05-27 10:24:30
2025-05-27T02:46+00:00,500111052,南港區,YouBike2.0_胡適公園,25.04014,121.61766,25,10,15,1,2025-05-27 10:24:30
2025-05-27T02:46+00:00,500111060,南港區,YouBike2.0_小彎社會住宅,25.0582,121.59368,51,1,50,1,2025-05-27 10:24:30
2025-05-27T02:46+00:00,500111064,南港區,YouBike2.0_南港公園(東新街170巷),25.04134,121.59323,16,3,12,1,2025-05-27 10:24:30
2025-05-27T02:46+00:00,500111067,南港區,YouBike2.0_南港路二段178巷口,25.05368,121.59969,18,0,18,1,2025-05-27 10:24:30
2025-05-27T02:46+00:00,500111071,南港區,YouBike2.0_玉東公園(東新街),25.04998,121.58383,25,15,10,1,2025-05-27 10:24:30
2025-05-27T02:46+00:00,500111072,南港區,YouBike2.0_南港出租國宅社區,25.03878,121.59302,25,2,23,1,2025-05-27 10:24:30
2025-05-27T02:46+00:00,500111073,南港區,YouBike2.0_成福路197巷口,25.04066,121.58877,15,1,13,1,2025-05-27 10:24:30
2025-05-27T02:46+00:00,500111075,南港區,YouBike2.0_成德立體停車場,25.04557,121.58629,17,3,14,1,2025-05-27 10:24:30
2025-05-27T02:46+00:00,500111081,南港區,YouBike2.0_中研院人文社會科學館,25.04126,121.6118,30,22,8,1,2025-05-27 10:24:30
2025-05-27T02:46+00:00,500111083,南港區,YouBike2.0_南港路三段190巷口,25.05381,121.58638,16,12,4,1,2025-05-27 10:24:30
2025-05-27T02:46+00:00,500111084,南港區,YouBike2.0_忠孝東路六段212巷口,25.0488,121.58742,15,0,15,1,2025-05-27 10:24:30
2025-05-27T02:46+00:00,500111087,南港區,YouBike2.0_中興公園,25.04487,121.61481,15,0,15,1,2025-05-27 10:24:30
2025-05-27T02:46+00:00,500111089,南港區,YouBike2.0_向陽南港路口(西北側),25.05486,121.5944,26,8,18,1,2025-05-27 10:24:30
2025-05-27T02:46+00:00,500111090,南港區,YouBike2.0_研究院路一段151巷口,25.04997,121.6162,14,2,12,1,2025-05-27 10:24:30
2025-05-27T02:46+00:00,500111094,南港區,YouBike2.0_中研院生態時代館,25.04287,121.61342,16,15,0,1,2025-05-27 10:24:30
2025-05-27T02:46+00:00,500111096,南港區,YouBike2.0_東明公園,25.05469,121.60381,20,3,16,1,2025-05-27 10:24:30
2025-05-27T02:46+00:00,500111097,南港區,YouBike2.0_捷運南港軟體園區站(1號出口),25.06043,121.61498,36,20,16,1,2025-05-27 10:24:30
2025-05-27T02:46+00:00,500111114,南港區,YouBike2.0_市民昆陽街口,25.05124,121.59361,30,1,29,1,2025-05-27 10:24:30
2025-05-27T02:46+00:00,500111117,南港區,YouBike2.0_昆陽東新街口,25.04857,121.59401,24,7,17,1,2025-05-27 10:24:30
2025-05-27T02:46+00:00,500112002,信義區,YouBike2.0_基隆路二段159巷口,25.02561,121.55409,14,3,11,1,2025-05-27 10:24:30
2025-05-27T02:46+00:00,500112006,信義區,YouBike2.0_景勤二號公園,25.02698,121.55841,41,1,39,1,2025-05-27 10:24:30
2025-05-27T02:46+00:00,500112010,信義區,YouBike2.0_捷運象山站(2號出口),25.03222,121.56974,41,4,37,1,2025-05-27 10:24:30
2025-05-27T02:46+00:00,500112011,信義區,YouBike2.0_象山公園,25.02863,121.56981,48,28,14,1,2025-05-27 10:24:30
2025-05-27T02:46+00:00,500112012,信義區,YouBike2.0_松仁路253巷3弄,25.02678,121.56884,25,1,24,1,2025-05-27 10:24:30
2025-05-27T02:46+00:00,500112018,信義區,YouBike2.0_信義運動中心,25.03189,121.56678,35,27,8,1,2025-05-27 10:24:30
2025-05-27T02:46+00:00,500112023,信義區,YouBike2.0_仁愛路四段496巷口,25.03745,121.5602,34,0,32,1,2025-05-27 10:24:30
2025-05-27T02:46+00:00,500112024,信義區,YouBike2.0_松山工農,25.03961,121.57199,34,24,10,1,2025-05-27 10:24:30
2025-05-27T02:46+00:00,500112027,信義區,YouBike2.0_松山家商,25.0347,121.58018,25,19,6,1,2025-05-27 10:24:30
2025-05-27T02:46+00:00,500112028,信義區,YouBike2.0_永春陂濕地公園,25.03301,121.58096,23,11,12,1,2025-05-27 10:24:30
2025-05-27T02:46+00:00,500112032,信義區,YouBike2.0_市府松高路口,25.03899,121.56369,54,50,4,1,2025-05-27 10:24:30
2025-05-27T02:46+00:00,500112033,信義區,YouBike2.0_市民廣場,25.03599,121.56218,44,25,13,1,2025-05-27 10:24:30
2025-05-27T02:46+00:00,500112035,信義區,YouBike2.0_信義廣場(台北101),25.03306,121.5662,36,31,5,1,2025-05-27 10:24:30
2025-05-27T02:46+00:00,500112042,信義區,YouBike2.0_松高路(信義新天地A4館),25.03918,121.56654,17,7,10,1,2025-05-27 10:24:30
2025-05-27T02:46+00:00,500112047,信義區,YouBike2.0_興雅國小(基隆路一段37巷),25.04773,121.56895,27,1,26,1,2025-05-27 10:24:30
2025-05-27T02:46+00:00,500112051,信義區,YouBike2.0_永吉松信路口,25.04548,121.57207,35,1,33,1,2025-05-27 10:24:30
2025-05-27T02:46+00:00,500112053,信義區,YouBike2.0_市民松信路口,25.04927,121.57205,20,7,12,1,2025-05-27 10:24:30
2025-05-27T02:46+00:00,500112063,信義區,YouBike2.0_松山路292巷口,25.0432,121.57789,20,1,19,1,2025-05-27 10:24:30
2025-05-27T02:46+00:00,500112066,信義區,YouBike2.0_世貿三館,25.03511,121.56369,54,46,8,1,2025-05-27 10:24:30
2025-05-27T02:46+00:00,500112067,信義區,YouBike2.0_松德虎林街口,25.0383,121.5762,30,0,30,1,2025-05-27 10:24:30
2025-05-27T02:46+00:00,500112076,信義區,YouBike2.0_捷運台北101/世貿站(2號出口),25.0327,121.56157,52,4,47,1,2025-05-27 10:24:30
2025-05-27T02:46+00:00,500112080,信義區,YouBike2.0_福德國小公車站,25.03929,121.58755,19,6,13,1,2025-05-27 10:24:30
2025-05-27T02:46+00:00,500112083,信義區,YouBike2.0_景聯廣場,25.03214,121.55974,23,19,4,1,2025-05-27 10:24:30
2025-05-27T02:46+00:00,500112085,信義區,YouBike2.0_捷運市政府站(3號出口),25.04084,121.56789,92,4,88,1,2025-05-27 10:24:30
2025-05-27T02:46+00:00,500112087,信義區,YouBike2.0_松仁路305號,25.02306,121.57036,21,19,2,1,2025-05-27 10:24:30
2025-05-27T02:46+00:00,500112092,信義區,YouBike2.0_信義松德路口,25.03322,121.57433,23,1,22,1,2025-05-27 10:24:30
2025-05-27T02:46+00:00,500112096,信義區,YouBike2.0_克勤新村,25.02589,121.56073,18,18,0,1,2025-05-27 10:24:30
2025-05-27T02:46+00:00,500112097,信義區,YouBike2.0_和平東路三段291號,25.02186,121.55532,20,3,16,1,2025-05-27 10:24:30
2025-05-27T02:46+00:00,500112099,信義區,YouBike2.0_廣慈博愛園區(西側),25.03866,121.58082,23,0,23,1,2025-05-27 10:24:30
2025-05-27T02:46+00:00,500112102,信義區,YouBike2.0_黎雙公園,25.0246,121.56028,17,12,5,1,2025-05-27 10:24:30
2025-05-27T02:46+00:00,500112109,信義區,YouBike2.0_松仁路253巷4弄口,25.02559,121.56954,22,1,19,1,2025-05-27 10:24:30
2025-05-27T02:46+00:00,500112115,信義區,YouBike2.0_信安街/富陽街44巷口,25.02309,121.55537,21,3,17,1,2025-05-27 10:24:30
2025-05-27T02:46+00:00,500112125,信義區,YouBike2.0_象山公園(松勤街140巷),25.03098,121.5697,29,2,27,1,2025-05-27 10:24:30
2025-05-27T02:46+00:00,500113006,萬華區,YouBike2.0_國興水源路口,25.02297,121.50845,23,17,6,1,2025-05-27 10:24:30
2025-05-27T02:46+00:00,500113008,萬華區,YouBike2.0_國興青年路口,25.02594,121.50651,51,2,49,1,2025-05-27 10:24:30
2025-05-27T02:46+00:00,500113012,萬華區,YouBike2.0_復華花園新城,25.02964,121.50258,38,7,30,1,2025-05-27 10:24:30
2025-05-27T02:46+00:00,500113013,萬華區,YouBike2.0_新和國小,25.02582,121.50255,20,4,16,1,2025-05-27 10:24:30
2025-05-27T02:46+00:00,500113015,萬華區,YouBike2.0_莒光立體停車場,25.03116,121.50336,10,4,6,1,2025-05-27 10:24:30
2025-05-27T02:46+00:00,500113017,萬華區,YouBike2.0_東園國小,25.02257,121.49807,33,12,21,1,2025-05-27 10:24:30
2025-05-27T02:46+00:00,500113023,萬華區,YouBike2.0_西園艋舺路口,25.03267,121.49757,50,2,48,1,2025-05-27 10:24:30
2025-05-27T02:46+00:00,500113025,萬華區,YouBike2.0_雙園國中,25.02673,121.49176,24,18,6,1,2025-05-27 10:24:30
2025-05-27T02:46+00:00,500113030,萬華區,YouBike2.0_大理高中,25.03124,121.49075,35,25,10,1,2025-05-27 10:24:30
2025-05-27T02:46+00:00,500113041,萬華區,YouBike2.0_龍山國小,25.0355,121.49541,30,3,27,1,2025-05-27 10:24:30
2025-05-27T02:46+00:00,500113042,萬華區,YouBike2.0_華西公園,25.03852,121.49881,51,1,50,1,2025-05-27 10:24:30
2025-05-27T02:46+00:00,500113051,萬華區,YouBike2.0_萬大國小(萬大路344巷口),25.02376,121.49986,23,9,14,1,2025-05-27 10:24:30
2025-05-27T02:46+00:00,500113054,萬華區,YouBike2.0_長順街60巷口,25.03119,121.48858,15,6,6,1,2025-05-27 10:24:30
2025-05-27T02:46+00:00,500113057,萬華區,YouBike2.0_柳鄉公園,25.03731,121.49526,34,5,29,1,2025-05-27 10:24:30
2025-05-27T02:46+00:00,500113059,萬華區,YouBike2.0_長順艋舺大道口,25.03035,121.49228,26,19,7,1,2025-05-27 10:24:30
2025-05-27T02:46+00:00,500113065,萬華區,YouBike2.0_萬華國中_1,25.02926,121.49936,36,1,35,1,2025-05-27 10:24:30
2025-05-27T02:46+00:00,500113070,萬華區,YouBike2.0_艋舺西藏路口,25.0287,121.49156,30,22,8,1,2025-05-27 10:24:30
2025-05-27T02:46+00:00,500113078,萬華區,YouBike2.0_水源青年路口,25.02005,121.50429,24,3,21,1,2025-05-27 10:24:30
2025-05-27T02:46+00:00,500113080,萬華區,YouBike2.0_祥安水岸景觀大廈,25.01907,121.50219,15,13,2,1,2025-05-27 10:24:30
2025-05-27T02:46+00:00,500113083,萬華區,YouBike2.0_綠堤公園(西北側),25.03338,121.49267,14,2,12,1,2025-05-27 10:24:30
2025-05-27T02:46+00:00,500113085,萬華區,YouBike2.0_艋舺雙園街口,25.0301,121.49324,14,8,2,1,2025-05-27 10:24:30
2025-05-27T02:46+00:00,500113086,萬華區,YouBike2.0_德昌街125巷口,25.02406,121.49639,19,10,8,1,2025-05-27 10:24:30
2025-05-27T02:46+00:00,500113088,萬華區,YouBike2.0_艋舺大道/西園路140巷口,25.03174,121.49502,20,17,3,1,2025-05-27 10:24:30
2025-05-27T02:46+00:00,500119007,臺大公館校區,YouBike2.0_臺大水源修齊會館,25.01411,121.52997,35,3,32,1,2025-05-27 10:24:30
2025-05-27T02:46+00:00,500119048,臺大公館校區,YouBike2.0_臺大大一女舍北側,25.01547,121.53436,53,1,52,1,2025-05-27 10:24:30
2025-05-27T02:46+00:00,500119053,臺大公館校區,YouBike2.0_臺大天文數學館南側,25.02108,121.53783,19,6,1,1,2025-05-27 10:24:30
2025-05-27T02:46+00:00,500119054,臺大公館校區,YouBike2.0_臺大心理系館南側,25.01941,121.5404,30,26,0,1,2025-05-27 10:24:30
2025-05-27T02:46+00:00,500119055,臺大公館校區,YouBike2.0_臺大樂學館東側,25.01793,121.53585,28,23,4,1,2025-05-27 10:24:30
2025-05-27T02:46+00:00,500119061,臺大公館校區,YouBike2.0_臺大鹿鳴堂東側,25.01511,121.53786,39,0,39,1,2025-05-27 10:24:30
2025-05-27T02:46+00:00,500119066,臺大公館校區,YouBike2.0_臺大凝態館南側,25.02157,121.53633,20,13,7,1,2025-05-27 10:24:30
2025-05-27T02:46+00:00,500119071,臺大公館校區,YouBike2.0_臺大計資中心南側,25.02036,121.53992,34,9,7,1,2025-05-27 10:24:30
2025-05-27T02:46+00:00,500119079,臺大公館校區,YouBike2.0_臺大一號館,25.01698,121.53455,19,0,19,1,2025-05-27 10:24:30
2025-05-27T02:46+00:00,500119081,臺大公館校區,YouBike2.0_臺大教研館北側,25.01337,121.53909,26,16,10,1,2025-05-27 10:24:30
2025-05-27T02:46+00:00,500119085,臺大公館校區,YouBike2.0_臺大電機二館東南側,25.01857,121.54247,14,2,12,1,2025-05-27 10:24:30
2025-05-27T02:46+00:00,500119087,臺大公館校區,YouBike2.0_臺大總圖書館西南側,25.0169,121.54031,30,25,5,1,2025-05-27 10:24:30
2025-05-27T02:46+00:00,500119088,臺大公館校區,YouBike2.0_臺大黑森林西側,25.01995,121.54347,35,34,1,1,2025-05-27 10:24:30
2025-05-27T02:46+00:00,500119089,臺大公館校區,YouBike2.0_臺大獸醫館南側,25.01791,121.54242,24,2,22,1,2025-05-27 10:24:30
2025-05-27T02:46+00:00,500119091,臺大公館校區,YouBike2.0_臺大明達館北側(員工宿舍),25.01816,121.54469,18,1,17,1,2025-05-27 10:24:30
2025-05-27T02:46+00:00,500119092,臺大公館校區,YouBike2.0_臺大管理學院一館,25.01436,121.53828,17,2,15,1,2025-05-27 10:24:30
2025-05-27T02:46+00:00,500119093,臺大公館校區,YouBike2.0_臺大禮賢樓西側,25.01467,121.53765,36,7,29,1,2025-05-27 10:24:30
